__time,/hsrb/joint_states/arm_flex_joint/effort,/hsrb/joint_states/arm_flex_joint/position,/hsrb/joint_states/arm_flex_joint/velocity,/hsrb/joint_states/arm_lift_joint/effort,/hsrb/joint_states/arm_lift_joint/position,/hsrb/joint_states/arm_lift_joint/velocity,/hsrb/joint_states/arm_roll_joint/effort,/hsrb/joint_states/arm_roll_joint/position,/hsrb/joint_states/arm_roll_joint/velocity,/hsrb/joint_states/base_l_drive_wheel_joint/effort,/hsrb/joint_states/base_l_drive_wheel_joint/position,/hsrb/joint_states/base_l_drive_wheel_joint/velocity,/hsrb/joint_states/base_r_drive_wheel_joint/effort,/hsrb/joint_states/base_r_drive_wheel_joint/position,/hsrb/joint_states/base_r_drive_wheel_joint/velocity,/hsrb/joint_states/base_roll_joint/effort,/hsrb/joint_states/base_roll_joint/position,/hsrb/joint_states/base_roll_joint/velocity,/hsrb/joint_states/hand_l_spring_proximal_joint/effort,/hsrb/joint_states/hand_l_spring_proximal_joint/position,/hsrb/joint_states/hand_l_spring_proximal_joint/velocity,/hsrb/joint_states/hand_motor_joint/effort,/hsrb/joint_states/hand_motor_joint/position,/hsrb/joint_states/hand_motor_joint/velocity,/hsrb/joint_states/hand_r_spring_proximal_joint/effort,/hsrb/joint_states/hand_r_spring_proximal_joint/position,/hsrb/joint_states/hand_r_spring_proximal_joint/velocity,/hsrb/joint_states/head_pan_joint/effort,/hsrb/joint_states/head_pan_joint/position,/hsrb/joint_states/head_pan_joint/velocity,/hsrb/joint_states/head_tilt_joint/effort,/hsrb/joint_states/head_tilt_joint/position,/hsrb/joint_states/head_tilt_joint/velocity,/hsrb/joint_states/header/seq,/hsrb/joint_states/header/stamp,/hsrb/joint_states/wrist_flex_joint/effort,/hsrb/joint_states/wrist_flex_joint/position,/hsrb/joint_states/wrist_flex_joint/velocity,/hsrb/joint_states/wrist_roll_joint/effort,/hsrb/joint_states/wrist_roll_joint/position,/hsrb/joint_states/wrist_roll_joint/velocity,/hsrb/pressure_sensor/data,/hsrb/wrist_wrench/compensated/header/seq,/hsrb/wrist_wrench/compensated/header/stamp,/hsrb/wrist_wrench/compensated/wrench/force/x,/hsrb/wrist_wrench/compensated/wrench/force/y,/hsrb/wrist_wrench/compensated/wrench/force/z,/hsrb/wrist_wrench/compensated/wrench/torque/x,/hsrb/wrist_wrench/compensated/wrench/torque/y,/hsrb/wrist_wrench/compensated/wrench/torque/z
1691664810.501470,1.925087,-1.239797,0.000018,138.540326,0.398008,-0.000008,0.132480,-0.076908,-0.000046,-0.021576,3.661681,0.000653,-0.010788,0.402417,0.000653,0.011040,-0.041123,0.003581,-1.845000,-0.039999,-0.002000,0.021700,1.234999,0.002363,-1.643000,-0.001000,0.014999,-0.160080,-0.017012,-0.000138,-1.820286,0.398059,0.000038,30840.000000,1691664810.485527,0.809600,-0.394212,0.000048,0.362743,0.088360,0.000048,,,,,,,,,
1691664810.501511,,,,,,,,,,,,,,,,,,,,,,,,,,,,,,,,,,,,,,,,,,,60938.000000,1691664810.490469,0.000000,0.000000,0.000000,0.000000,0.000000,0.000000
1691664810.510792,,,,,,,,,,,,,,,,,,,,,,,,,,,,,,,,,,,,,,,,,,0.000000,,,,,,,,
1691664810.515107,,,,,,,,,,,,,,,,,,,,,,,,,,,,,,,,,,,,,,,,,,,60939.000000,1691664810.494640,0.000000,0.000000,0.000000,0.000000,0.000000,0.000000
1691664810.515136,3.332504,-1.239797,0.000018,138.540326,0.398008,-0.000008,0.077280,-0.076908,-0.000046,-0.016182,3.661681,0.000653,-0.013485,0.402417,0.000653,-0.088320,-0.041133,-0.000094,-1.843000,-0.038818,-0.002000,0.022929,1.233818,0.004727,-1.638000,0.002181,0.009999,-0.187680,-0.017012,-0.000138,-1.840000,0.398059,0.000038,30841.000000,1691664810.495538,0.757029,-0.394212,0.000048,0.389029,0.088360,0.000048,,,,,,,,,
1691664810.519672,,,,,,,,,,,,,,,,,,,,,,,,,,,,,,,,,,,,,,,,,,,60940.000000,1691664810.507035,0.000000,0.000000,0.000000,0.000000,0.000000,0.000000
1691664810.530102,2.895719,-1.239797,0.000022,138.831378,0.398008,-0.000008,0.077280,-0.076908,-0.000046,-0.021576,3.661681,0.000653,-0.018879,0.402417,0.000653,0.066240,-0.041133,-0.004963,-1.850000,-0.041637,-0.020999,0.025795,1.232636,-0.006499,-1.633000,0.004363,0.023000,-0.213440,-0.017012,-0.000138,-1.794000,0.398059,0.000038,30842.000000,1691664810.515538,0.736000,-0.394212,0.000048,0.415314,0.087978,0.000048,,,,,,,,,
1691664810.541917,,,,,,,,,,,,,,,,,,,,,,,,,,,,,,,,,,,,,,,,,,,60941.000000,1691664810.519113,0.000000,0.000000,0.000000,0.000000,0.000000,0.000000
1691664810.553303,,,,,,,,,,,,,,,,,,,,,,,,,,,,,,,,,,,,,,,,,,,60943.000000,1691664810.534245,0.000000,0.000000,0.000000,0.000000,0.000000,0.000000
1691664810.558036,,,,,,,,,,,,,,,,,,,,,,,,,,,,,,,,,,,,,,,,,,,60944.000000,1691664810.544556,0.000000,0.000000,0.000000,0.000000,0.000000,0.000000
1691664810.561198,2.507466,-1.239797,0.000018,138.831378,0.398008,-0.000008,0.126960,-0.076908,-0.000046,-0.016182,3.661681,0.000653,-0.008091,0.402417,0.000653,-0.077280,-0.041133,-0.000094,-1.853000,-0.045228,-0.009999,0.022109,1.233227,-0.003545,-1.626000,0.005772,0.029999,-0.180320,-0.017012,-0.000138,-1.859714,0.398054,-0.000038,30843.000000,1691664810.545525,0.883200,-0.394212,0.000048,0.294400,0.088360,0.000048,,,,,,,,,
1691664810.567316,,,,,,,,,,,,,,,,,,,,,,,,,,,,,,,,,,,,,,,,,,,60945.000000,1691664810.560553,0.000000,0.000000,0.000000,0.000000,0.000000,0.000000
1691664810.576839,,,,,,,,,,,,,,,,,,,,,,,,,,,,,,,,,,,,,,,,,,,60946.000000,1691664810.564559,0.000000,0.000000,0.000000,0.000000,0.000000,0.000000
1691664810.580163,2.216277,-1.239797,0.000018,139.122429,0.398008,-0.000008,0.121440,-0.076908,-0.000046,-0.016182,3.661681,0.000653,-0.018879,0.402417,0.000653,-0.066240,-0.041123,0.001570,-1.850000,-0.041410,-0.008000,0.024154,1.234409,-0.000590,-1.623000,0.006591,0.041999,-0.163760,-0.017012,-0.000138,-1.728286,0.398054,-0.000038,30844.000000,1691664810.565529,0.814857,-0.394212,0.000048,0.520457,0.087978,0.000048,,,,,,,,,
1691664810.588573,,,,,,,,,,,,,,,,,,,,,,,,,,,,,,,,,,,,,,,,,,,60947.000000,1691664810.574185,0.000000,0.000000,0.000000,0.000000,0.000000,0.000000
1691664810.603760,,,,,,,,,,,,,,,,,,,,,,,,,,,,,,,,,,,,,,,,,,,60948.000000,1691664810.584142,0.000000,0.000000,0.000000,0.000000,0.000000,0.000000
1691664810.606385,3.316327,-1.239797,-0.000018,139.122429,0.398008,-0.000008,0.055200,-0.076908,-0.000046,-0.016182,3.661681,0.000653,-0.016182,0.402417,0.000653,0.077280,-0.041133,-0.002293,-1.850000,-0.040409,-0.003000,0.021288,1.234409,0.004727,-1.625000,0.005591,0.028999,-0.206080,-0.017012,-0.000138,-1.859714,0.398054,-0.000038,30845.000000,1691664810.585527,0.741257,-0.394212,0.000048,0.310171,0.088360,0.000048,,,,,,,,,
1691664810.606416,,,,,,,,,,,,,,,,,,,,,,,,,,,,,,,,,,,,,,,,,,,60949.000000,1691664810.594190,0.000000,0.000000,0.000000,0.000000,0.000000,0.000000
1691664810.615939,,,,,,,,,,,,,,,,,,,,,,,,,,,,,,,,,,,,,,,,,,,60950.000000,1691664810.604194,0.000000,0.000000,0.000000,0.000000,0.000000,0.000000
1691664810.619827,,,,,,,,,,,,,,,,,,,,,,,,,,,,,,,,,,,,,,,,,,0.000000,,,,,,,,
1691664810.621581,2.960428,-1.239797,-0.000018,139.413480,0.398008,-0.000008,-0.005520,-0.076908,-0.000046,-0.013485,3.661681,0.000653,-0.016182,0.402417,0.000653,-0.055200,-0.041133,-0.000471,-1.850000,-0.040999,-0.003000,0.023746,1.234999,0.001772,-1.625000,0.004000,0.030999,-0.176640,-0.017012,-0.000138,-1.859714,0.398054,-0.000038,30846.000000,1691664810.605524,0.778057,-0.394212,0.000048,0.362743,0.088360,0.000048,,,,,,,,,
1691664810.624613,,,,,,,,,,,,,,,,,,,,,,,,,,,,,,,,,,,,,,,,,,,60951.000000,1691664810.615026,0.000000,0.000000,0.000000,0.000000,0.000000,0.000000
1691664810.634210,,,,,,,,,,,,,,,,,,,,,,,,,,,,,,,,,,,,,,,,,,,60952.000000,1691664810.624272,0.000000,0.000000,0.000000,0.000000,0.000000,0.000000
1691664810.636391,3.461921,-1.239797,-0.000018,139.413480,0.398008,-0.000008,0.044160,-0.076908,-0.000046,-0.016182,3.661681,0.000653,-0.010788,0.402417,0.000653,-0.099360,-0.041133,-0.000094,-1.850000,-0.041772,-0.003000,0.024566,1.236772,0.001181,-1.628000,0.000227,0.014999,-0.178480,-0.017012,-0.000138,-1.761143,0.398054,-0.000038,30847.000000,1691664810.625530,0.809600,-0.394212,0.000048,0.257600,0.088360,0.000048,,,,,,,,,
1691664810.644076,,,,,,,,,,,,,,,,,,,,,,,,,,,,,,,,,,,,,,,,,,,60953.000000,1691664810.634187,0.000000,0.000000,0.000000,0.000000,0.000000,0.000000
1691664810.656512,,,,,,,,,,,,,,,,,,,,,,,,,,,,,,,,,,,,,,,,,,,60954.000000,1691664810.644190,0.000000,0.000000,0.000000,0.000000,0.000000,0.000000
1691664810.657600,1.779492,-1.239797,-0.000018,139.413480,0.398008,-0.000008,0.093840,-0.076908,-0.000046,-0.013485,3.661681,0.000653,-0.018879,0.402417,0.000653,0.022080,-0.041123,0.004419,-1.851000,-0.042181,0.002000,0.022517,1.236181,0.011818,-1.638000,-0.006181,0.009999,-0.172960,-0.017012,-0.000138,-1.761143,0.398054,-0.000038,30848.000000,1691664810.645525,0.804343,-0.394212,0.000048,0.289143,0.088360,0.000370,,,,,,,,,
1691664810.671365,,,,,,,,,,,,,,,,,,,,,,,,,,,,,,,,,,,,,,,,,,,60955.000000,1691664810.656884,0.000000,0.000000,0.000000,0.000000,0.000000,0.000000
1691664810.675035,,,,,,,,,,,,,,,,,,,,,,,,,,,,,,,,,,,,,,,,,,,60956.000000,1691664810.664139,0.000000,0.000000,0.000000,0.000000,0.000000,0.000000
1691664810.677555,1.698606,-1.239797,0.001165,139.413480,0.398008,-0.000008,0.154560,-0.076908,-0.000046,-0.010788,3.661681,0.000653,-0.016182,0.402417,0.000653,0.198720,-0.041123,0.001602,-1.850000,-0.040182,-0.003000,0.024566,1.236181,0.008863,-1.636000,-0.003181,-0.018999,-0.198720,-0.017012,-0.000138,-1.767714,0.398054,-0.000038,30849.000000,1691664810.665525,0.736000,-0.394212,0.000048,0.373257,0.087978,0.000048,,,,,,,,,
1691664810.687485,,,,,,,,,,,,,,,,,,,,,,,,,,,,,,,,,,,,,,,,,,,60957.000000,1691664810.674131,0.000000,0.000000,0.000000,0.000000,0.000000,0.000000
1691664810.698385,,,,,,,,,,,,,,,,,,,,,,,,,,,,,,,,,,,,,,,,,,,60958.000000,1691664810.684620,0.000000,0.000000,0.000000,0.000000,0.000000,0.000000
1691664810.701006,3.704579,-1.239797,-0.000466,139.995582,0.398008,-0.000008,-0.022080,-0.076908,-0.000046,-0.016182,3.661681,0.000653,-0.010788,0.402417,0.000653,0.253920,-0.041133,-0.003183,-1.860000,-0.046364,-0.013000,0.029887,1.237363,0.008863,-1.639000,-0.004363,0.001000,-0.165600,-0.017012,-0.000138,-1.715143,0.398054,-0.000038,30850.000000,1691664810.685529,0.720229,-0.394212,0.000048,0.452114,0.087978,0.000048,,,,,,,,,
1691664810.716716,,,,,,,,,,,,,,,,,,,,,,,,,,,,,,,,,,,,,,,,,,,60959.000000,1691664810.694258,0.000000,0.000000,0.000000,0.000000,0.000000,0.000000
1691664810.724080,1.941264,-1.239797,0.001165,139.995582,0.398008,-0.000008,0.077280,-0.076908,-0.000046,-0.013485,3.661681,0.000653,-0.013485,0.402417,0.000653,0.099360,-0.041123,0.003225,-1.860000,-0.045773,-0.020999,0.023746,1.236772,0.007681,-1.641000,-0.004773,0.001000,-0.174800,-0.017012,-0.000138,-1.728286,0.398054,-0.000038,30851.000000,1691664810.705523,0.788571,-0.394212,0.000048,0.452114,0.087978,0.000553,,,,,,,,,
1691664810.728591,,,,,,,,,,,,,,,,,,,,,,,,,,,,,,,,,,,,,,,,,,,60961.000000,1691664810.714164,0.000000,0.000000,0.000000,0.000000,0.000000,0.000000
1691664810.737178,,,,,,,,,,,,,,,,,,,,,,,,,,,,,,,,,,,,,,,,,,0.000000,,,,,,,,
1691664810.742164,2.507466,-1.239797,0.001145,140.286633,0.398008,-0.000008,0.115920,-0.076908,-0.000046,-0.016182,3.661681,0.000653,-0.010788,0.402417,0.000653,-0.011040,-0.041133,-0.000094,-1.860000,-0.044772,-0.014999,0.023746,1.236772,0.007090,-1.641000,-0.004773,-0.014000,-0.174800,-0.017012,-0.000138,-1.734857,0.398059,0.000038,30852.000000,1691664810.725526,0.799086,-0.394212,0.000048,0.325943,0.087978,0.000048,,,,,,,,,
1691664810.746512,,,,,,,,,,,,,,,,,,,,,,,,,,,,,,,,,,,,,,,,,,,60962.000000,1691664810.724020,0.000000,0.000000,0.000000,0.000000,0.000000,0.000000
1691664810.759320,,,,,,,,,,,,,,,,,,,,,,,,,,,,,,,,,,,,,,,,,,,60964.000000,1691664810.744043,0.000000,0.000000,0.000000,0.000000,0.000000,0.000000
1691664810.767533,2.054505,-1.239797,0.000018,139.995582,0.398008,-0.000008,0.033120,-0.076908,-0.000046,-0.016182,3.661681,0.000653,-0.008091,0.402417,0.000653,-0.077280,-0.041133,-0.000094,-1.863000,-0.044591,-0.009999,0.022517,1.235590,0.006499,-1.636000,-0.000590,-0.008999,-0.169280,-0.017012,-0.000138,-1.662571,0.398059,0.000038,30853.000000,1691664810.745526,0.814857,-0.394212,0.000048,0.352229,0.087978,0.000048,,,,,,,,,
1691664810.769835,,,,,,,,,,,,,,,,,,,,,,,,,,,,,,,,,,,,,,,,,,,60965.000000,1691664810.754172,0.000000,0.000000,0.000000,0.000000,0.000000,0.000000
1691664810.784171,2.038328,-1.239797,0.000018,140.286633,0.398008,-0.000008,0.182160,-0.076908,-0.000046,-0.016182,3.661681,0.000653,-0.013485,0.402417,0.000653,0.066240,-0.041123,0.003225,-1.866000,-0.044772,-0.023000,0.022109,1.236772,0.003545,-1.641000,-0.003772,0.001000,-0.180320,-0.017012,-0.000138,-1.636286,0.398059,0.000038,30854.000000,1691664810.765525,0.793829,-0.394212,0.000048,0.378514,0.088360,0.000048,,,,,,,,,
1691664810.789727,,,,,,,,,,,,,,,,,,,,,,,,,,,,,,,,,,,,,,,,,,,60966.000000,1691664810.764179,0.000000,0.000000,0.000000,0.000000,0.000000,0.000000
1691664810.793874,,,,,,,,,,,,,,,,,,,,,,,,,,,,,,,,,,,,,,,,,,,60967.000000,1691664810.774182,0.000000,0.000000,0.000000,0.000000,0.000000,0.000000
1691664810.810314,2.507466,-1.239797,0.000018,140.577684,0.398008,-0.000008,0.121440,-0.076908,-0.000046,-0.013485,3.661681,0.000653,-0.013485,0.402417,0.000653,0.066240,-0.041133,-0.005235,-1.863000,-0.042591,-0.007000,0.022517,1.235590,0.005909,-1.638000,-0.000590,-0.013000,-0.169280,-0.017012,-0.000138,-1.734857,0.398059,0.000038,30855.000000,1691664810.785529,0.751771,-0.394212,0.000048,0.315429,0.088360,0.000338,,,,,,,,,
1691664810.813057,,,,,,,,,,,,,,,,,,,,,,,,,,,,,,,,,,,,,,,,,,,60968.000000,1691664810.784177,0.000000,0.000000,0.000000,0.000000,0.000000,0.000000
1691664810.813842,,,,,,,,,,,,,,,,,,,,,,,,,,,,,,,,,,,,,,,,,,,60969.000000,1691664810.794314,0.000000,0.000000,0.000000,0.000000,0.000000,0.000000
1691664810.818615,,,,,,,,,,,,,,,,,,,,,,,,,,,,,,,,,,,,,,,,,,,60970.000000,1691664810.804093,0.000000,0.000000,0.000000,0.000000,0.000000,0.000000
1691664810.826331,2.313340,-1.239797,0.000018,140.286633,0.398008,-0.000008,0.082800,-0.076908,-0.000046,-0.016182,3.661681,0.000653,-0.010788,0.402417,0.000653,0.033120,-0.041123,0.002628,-1.865000,-0.043227,-0.006000,0.027020,1.233227,-0.005909,-1.634000,0.001773,0.006000,-0.180320,-0.017012,-0.000138,-1.813714,0.398059,0.000038,30856.000000,1691664810.805524,0.762286,-0.394212,0.000048,0.320686,0.088360,0.000048,,,,,,,,,
1691664810.836221,,,,,,,,,,,,,,,,,,,,,,,,,,,,,,,,,,,,,,,,,,,60971.000000,1691664810.815205,0.000000,0.000000,0.000000,0.000000,0.000000,0.000000
1691664810.839035,,,,,,,,,,,,,,,,,,,,,,,,,,,,,,,,,,,,,,,,,,0.000000,,,,,,,,
1691664810.849723,,,,,,,,,,,,,,,,,,,,,,,,,,,,,,,,,,,,,,,,,,,60972.000000,1691664810.824136,0.000000,0.000000,0.000000,0.000000,0.000000,0.000000
1691664810.849753,,,,,,,,,,,,,,,,,,,,,,,,,,,,,,,,,,,,,,,,,,,60973.000000,1691664810.834281,0.000000,0.000000,0.000000,0.000000,0.000000,0.000000
1691664810.849759,2.410403,-1.239797,0.000018,140.286633,0.398008,-0.000008,0.049680,-0.076908,-0.000046,-0.013485,3.661681,0.000653,-0.010788,0.402417,0.000653,0.066240,-0.041133,-0.000094,-1.868000,-0.044818,-0.028999,0.023746,1.233818,-0.008272,-1.636000,0.001182,0.001000,-0.167440,-0.017012,-0.000138,-1.800571,0.398059,0.000038,30857.000000,1691664810.825532,0.788571,-0.394212,0.000048,0.362743,0.088360,0.000048,,,,,,,,,
1691664810.862338,,,,,,,,,,,,,,,,,,,,,,,,,,,,,,,,,,,,,,,,,,,60974.000000,1691664810.844572,0.000000,0.000000,0.000000,0.000000,0.000000,0.000000
1691664810.862622,1.779492,-1.239797,0.000187,140.577684,0.398008,-0.000008,0.093840,-0.076908,-0.000046,-0.016182,3.661681,0.000653,-0.010788,0.402417,0.000653,0.066240,-0.041123,0.000366,-1.855000,-0.034818,-0.013000,0.024154,1.233818,-0.005318,-1.636000,0.000181,-0.008999,-0.167440,-0.017012,-0.000138,-1.767714,0.398059,0.000038,30858.000000,1691664810.845530,0.757029,-0.394212,0.000048,0.378514,0.087978,0.000048,,,,,,,,,
1691664810.874338,2.216277,-1.239797,0.000018,140.868735,0.398008,-0.000008,-0.005520,-0.076908,-0.000046,-0.013485,3.661681,0.000653,-0.013485,0.402417,0.000653,-0.099360,-0.041133,-0.000094,-1.855000,-0.035819,0.032000,0.025383,1.233818,-0.005318,-1.636000,0.000181,-0.004000,-0.174800,-0.017012,-0.000138,-1.872857,0.398059,0.000038,30859.000000,1691664810.855533,0.835886,-0.394212,0.000048,0.325943,0.088360,0.000048,,,,,,,,,
1691664810.874356,,,,,,,,,,,,,,,,,,,,,,,,,,,,,,,,,,,,,,,,,,,60975.000000,1691664810.855423,0.000000,0.000000,0.000000,0.000000,0.000000,0.000000
1691664810.885775,,,,,,,,,,,,,,,,,,,,,,,,,,,,,,,,,,,,,,,,,,,60977.000000,1691664810.874049,0.000000,0.000000,0.000000,0.000000,0.000000,0.000000
1691664810.900534,,,,,,,,,,,,,,,,,,,,,,,,,,,,,,,,,,,,,,,,,,,60978.000000,1691664810.884176,0.000000,0.000000,0.000000,0.000000,0.000000,0.000000
1691664810.902303,1.876556,-1.239797,0.000088,140.868735,0.398008,-0.000008,0.143520,-0.076908,-0.000046,-0.013485,3.661681,0.000653,-0.013485,0.402417,0.000653,-0.044160,-0.041133,-0.000565,-1.855000,-0.037819,0.014999,0.023746,1.233818,-0.007681,-1.636000,0.001182,0.001000,-0.158240,-0.017012,-0.000138,-1.761143,0.398059,0.000038,30860.000000,1691664810.885535,0.762286,-0.394212,0.000048,0.336457,0.088360,0.000048,,,,,,,,,
1691664810.911858,,,,,,,,,,,,,,,,,,,,,,,,,,,,,,,,,,,,,,,,,,,60979.000000,1691664810.894165,0.000000,0.000000,0.000000,0.000000,0.000000,0.000000
1691664810.913798,,,,,,,,,,,,,,,,,,,,,,,,,,,,,,,,,,,,,,,,,,,60980.000000,1691664810.904209,0.000000,0.000000,0.000000,0.000000,0.000000,0.000000
1691664810.916269,2.216277,-1.239797,0.000018,141.450838,0.398008,-0.000008,0.016560,-0.076908,-0.000046,-0.010788,3.661681,0.000653,-0.016182,0.402417,0.000653,0.276000,-0.041123,0.003141,-1.856000,-0.038818,0.014999,0.022929,1.233818,-0.004727,-1.636000,0.001182,0.001000,-0.172960,-0.017012,-0.000138,-1.780857,0.398059,0.000038,30861.000000,1691664810.905523,0.830629,-0.394212,0.000048,0.357486,0.088360,0.000048,,,,,,,,,
1691664810.927227,,,,,,,,,,,,,,,,,,,,,,,,,,,,,,,,,,,,,,,,,,,60981.000000,1691664810.914039,0.000000,0.000000,0.000000,0.000000,0.000000,0.000000
1691664810.936395,,,,,,,,,,,,,,,,,,,,,,,,,,,,,,,,,,,,,,,,,,,60982.000000,1691664810.924057,0.000000,0.000000,0.000000,0.000000,0.000000,0.000000
1691664810.938522,2.798656,-1.239797,0.000018,141.450838,0.398008,-0.000008,0.066240,-0.076908,-0.000046,-0.008091,3.661681,0.000653,-0.018879,0.402417,0.000653,0.099360,-0.041133,-0.001528,-1.855000,-0.037819,0.009999,0.025795,1.233818,-0.004727,-1.636000,0.000181,-0.004000,-0.160080,-0.017012,-0.000138,-1.695429,0.398059,0.000038,30862.000000,1691664810.925528,0.714971,-0.394212,0.000048,0.378514,0.088360,0.003774,,,,,,,,,
1691664810.938542,,,,,,,,,,,,,,,,,,,,,,,,,,,,,,,,,,,,,,,,,,0.000000,,,,,,,,
1691664810.951507,,,,,,,,,,,,,,,,,,,,,,,,,,,,,,,,,,,,,,,,,,,60983.000000,1691664810.934397,0.000000,0.000000,0.000000,0.000000,0.000000,0.000000
1691664810.957350,,,,,,,,,,,,,,,,,,,,,,,,,,,,,,,,,,,,,,,,,,,60984.000000,1691664810.944032,0.000000,0.000000,0.000000,0.000000,0.000000,0.000000
1691664810.958800,1.520657,-1.239797,0.000018,141.159786,0.398008,-0.000008,0.099360,-0.076908,-0.000046,-0.013485,3.661681,0.000653,-0.013485,0.402417,0.000653,-0.011040,-0.041133,-0.000272,-1.860000,-0.040999,0.004000,0.021700,1.234999,0.001181,-1.641000,-0.001999,-0.004000,-0.145360,-0.017012,-0.000138,-1.787429,0.398059,0.000038,30863.000000,1691664810.945531,0.757029,-0.394212,0.000048,0.851657,0.087978,0.000048,,,,,,,,,
1691664810.966322,,,,,,,,,,,,,,,,,,,,,,,,,,,,,,,,,,,,,,,,,,,60985.000000,1691664810.954128,0.000000,0.000000,0.000000,0.000000,0.000000,0.000000
1691664810.976297,,,,,,,,,,,,,,,,,,,,,,,,,,,,,,,,,,,,,,,,,,,60986.000000,1691664810.964123,0.000000,0.000000,0.000000,0.000000,0.000000,0.000000
1691664810.976315,2.475112,-1.239797,0.000018,141.450838,0.398008,-0.000008,0.000000,-0.076908,-0.000046,-0.016182,3.661681,0.000653,-0.018879,0.402417,0.000653,-0.033120,-0.041133,-0.000471,-1.861000,-0.042999,0.004000,0.026612,1.234999,0.001181,-1.639000,-0.001000,-0.012000,-0.139840,-0.017012,-0.000138,-1.892571,0.398059,0.000038,30864.000000,1691664810.965522,0.799086,-0.394212,0.000048,0.867429,0.087978,0.000048,,,,,,,,,
1691664810.986682,,,,,,,,,,,,,,,,,,,,,,,,,,,,,,,,,,,,,,,,,,,60987.000000,1691664810.974190,0.000000,0.000000,0.000000,0.000000,0.000000,0.000000
1691664810.995661,,,,,,,,,,,,,,,,,,,,,,,,,,,,,,,,,,,,,,,,,,,60988.000000,1691664810.984044,0.000000,0.000000,0.000000,0.000000,0.000000,0.000000
1691664810.998532,2.054505,-1.239797,0.000018,141.450838,0.398008,-0.000008,0.049680,-0.076908,-0.000046,-0.008091,3.661681,0.000653,-0.018879,0.402417,0.000653,0.022080,-0.041133,-0.000628,-1.873000,-0.050999,-0.014999,0.022517,1.234999,0.001181,-1.639000,-0.001000,-0.002000,-0.143520,-0.017012,-0.000138,-1.649429,0.398059,0.000038,30865.000000,1691664810.985526,0.793829,-0.394212,0.000048,0.262857,0.088360,0.000048,,,,,,,,,
1691664811.007913,,,,,,,,,,,,,,,,,,,,,,,,,,,,,,,,,,,,,,,,,,,60989.000000,1691664810.996778,0.000000,0.000000,0.000000,0.000000,0.000000,0.000000
1691664811.019144,,,,,,,,,,,,,,,,,,,,,,,,,,,,,,,,,,,,,,,,,,,60990.000000,1691664811.004305,0.000000,0.000000,0.000000,0.000000,0.000000,0.000000
1691664811.025564,3.413390,-1.239797,-0.000482,141.159786,0.398008,-0.000008,0.149040,-0.076908,-0.000046,-0.016182,3.661681,0.000653,-0.018879,0.402417,0.000653,-0.132480,-0.041133,-0.000094,-1.870000,-0.046818,-0.027000,0.025383,1.233818,-0.004727,-1.639000,-0.000818,-0.002000,-0.152720,-0.017012,-0.000138,-1.794000,0.398059,0.000038,30866.000000,1691664811.005525,0.751771,-0.394212,0.000048,0.946286,0.087978,0.000048,,,,,,,,,
1691664811.027660,,,,,,,,,,,,,,,,,,,,,,,,,,,,,,,,,,,,,,,,,,,60991.000000,1691664811.014584,0.000000,0.000000,0.000000,0.000000,0.000000,0.000000
1691664811.041813,,,,,,,,,,,,,,,,,,,,,,,,,,,,,,,,,,,,,,,,,,,60992.000000,1691664811.024241,0.000000,0.000000,0.000000,0.000000,0.000000,0.000000
1691664811.041830,2.086859,-1.239797,-0.000018,142.032940,0.398008,-0.000008,0.204240,-0.076908,-0.000046,-0.016182,3.661681,0.000653,-0.016182,0.402417,0.000653,-0.088320,-0.041133,-0.000094,-1.866000,-0.043818,-0.019999,0.023746,1.233818,-0.004727,-1.639000,-0.001819,-0.009999,-0.184000,-0.017012,-0.000138,-1.899143,0.398059,0.000038,30867.000000,1691664811.025536,0.788571,-0.394212,0.000048,0.357486,0.088360,0.000048,,,,,,,,,
1691664811.051106,,,,,,,,,,,,,,,,,,,,,,,,,,,,,,,,,,,,,,,,,,,60993.000000,1691664811.034160,0.000000,0.000000,0.000000,0.000000,0.000000,0.000000
1691664811.052422,,,,,,,,,,,,,,,,,,,,,,,,,,,,,,,,,,,,,,,,,,0.000000,,,,,,,,
1691664811.060461,3.348681,-1.239797,-0.000018,142.032940,0.398008,-0.000008,0.060720,-0.076908,-0.000046,-0.010788,3.661681,0.000653,-0.021576,0.402417,0.000653,-0.088320,-0.041133,-0.000094,-1.871000,-0.047819,-0.008999,0.021288,1.233818,-0.004727,-1.639000,-0.001819,0.000000,-0.165600,-0.017012,-0.000138,-1.846571,0.398059,0.000038,30868.000000,1691664811.045527,0.856914,-0.394212,0.000048,0.404800,0.088360,0.000048,,,,,,,,,
1691664811.064227,,,,,,,,,,,,,,,,,,,,,,,,,,,,,,,,,,,,,,,,,,,60994.000000,1691664811.044152,0.000000,0.000000,0.000000,0.000000,0.000000,0.000000
1691664811.068584,,,,,,,,,,,,,,,,,,,,,,,,,,,,,,,,,,,,,,,,,,,60995.000000,1691664811.054478,0.000000,0.000000,0.000000,0.000000,0.000000,0.000000
1691664811.079564,,,,,,,,,,,,,,,,,,,,,,,,,,,,,,,,,,,,,,,,,,,60996.000000,1691664811.064153,0.000000,0.000000,0.000000,0.000000,0.000000,0.000000
1691664811.083019,1.439771,-1.239797,0.000145,141.450838,0.398008,-0.000008,0.088320,-0.076908,-0.000046,-0.016182,3.661681,0.000653,-0.010788,0.402417,0.000653,-0.033120,-0.041133,-0.000094,-1.866000,-0.042819,-0.021999,0.024975,1.233818,-0.004727,-1.639000,-0.001819,-0.008999,-0.150880,-0.017012,-0.000138,-1.734857,0.398059,0.000038,30869.000000,1691664811.065524,0.751771,-0.394212,0.000048,0.909486,0.087978,0.000048,,,,,,,,,
1691664811.091549,,,,,,,,,,,,,,,,,,,,,,,,,,,,,,,,,,,,,,,,,,,60997.000000,1691664811.074730,0.000000,0.000000,0.000000,0.000000,0.000000,0.000000
1691664811.097130,3.186909,-1.239797,-0.000309,142.032940,0.398008,-0.000008,0.060720,-0.076908,-0.000046,-0.018879,3.661681,0.000653,-0.024273,0.402417,0.000653,-0.022080,-0.041133,-0.007079,-1.865000,-0.041410,0.004000,0.024154,1.234409,-0.001772,-1.641000,-0.003410,-0.013000,-0.171120,-0.017012,-0.000138,-1.958286,0.398059,0.000038,30870.000000,1691664811.085533,0.746514,-0.394212,0.000048,0.378514,0.088360,0.000048,,,,,,,,,
1691664811.099302,,,,,,,,,,,,,,,,,,,,,,,,,,,,,,,,,,,,,,,,,,,60998.000000,1691664811.084824,0.000000,0.000000,0.000000,0.000000,0.000000,0.000000
1691664811.119363,,,,,,,,,,,,,,,,,,,,,,,,,,,,,,,,,,,,,,,,,,,61000.000000,1691664811.104059,0.000000,0.000000,0.000000,0.000000,0.000000,0.000000
1691664811.119382,1.763315,-1.239797,0.000195,142.032940,0.398008,-0.000008,0.060720,-0.076908,-0.000046,-0.013485,3.661681,0.000653,-0.018879,0.402417,0.000653,0.044160,-0.041133,-0.000094,-1.870000,-0.045409,0.008000,0.022109,1.234409,-0.001772,-1.644000,-0.004409,-0.013000,-0.187680,-0.017012,-0.000138,-1.761143,0.398054,-0.000038,30871.000000,1691664811.095541,0.814857,-0.394212,0.000048,0.315429,0.088360,0.007382,,,,,,,,,
1691664811.132161,,,,,,,,,,,,,,,,,,,,,,,,,,,,,,,,,,,,,,,,,,,61001.000000,1691664811.119698,0.000000,0.000000,0.000000,0.000000,0.000000,0.000000
1691664811.146932,3.106023,-1.239797,0.000018,140.868735,0.398009,0.000238,0.088320,-0.076908,-0.000046,-0.018879,3.661681,0.000653,-0.021576,0.402417,0.000653,0.011040,-0.041133,-0.000848,-1.858000,-0.037636,-0.007000,0.024154,1.232636,-0.010045,-1.639000,-0.000637,-0.007000,-0.154560,-0.017012,-0.000138,-1.892571,0.398059,0.000038,30872.000000,1691664811.125546,0.751771,-0.394212,0.000048,0.325943,0.088360,0.000048,,,,,,,,,
1691664811.149276,,,,,,,,,,,,,,,,,,,,,,,,,,,,,,,,,,,,,,,,,,,61003.000000,1691664811.134643,0.000000,0.000000,0.000000,0.000000,0.000000,0.000000
1691664811.162132,,,,,,,,,,,,,,,,,,,,,,,,,,,,,,,,,,,,,,,,,,0.000000,,,,,,,,
1691664811.165118,,,,,,,,,,,,,,,,,,,,,,,,,,,,,,,,,,,,,,,,,,,61004.000000,1691664811.144286,0.000000,0.000000,0.000000,0.000000,0.000000,0.000000
1691664811.165148,1.229467,-1.239797,0.000018,140.577684,0.398009,0.000008,0.055200,-0.076908,-0.000046,-0.013485,3.661681,0.000653,-0.018879,0.402417,0.000653,-0.044160,-0.041133,-0.000146,-1.860000,-0.039227,0.017999,0.022929,1.233227,-0.010045,-1.631000,0.004773,0.023000,-0.167440,-0.017012,-0.000138,-1.826857,0.398059,0.000038,30873.000000,1691664811.145530,0.746514,-0.394212,0.000048,0.346971,0.088360,0.000048,,,,,,,,,
1691664811.172010,,,,,,,,,,,,,,,,,,,,,,,,,,,,,,,,,,,,,,,,,,,61006.000000,1691664811.164088,0.000000,0.000000,0.000000,0.000000,0.000000,0.000000
1691664811.185618,2.378049,-1.239797,-0.000765,139.413480,0.398009,0.000008,0.176640,-0.076908,-0.000046,-0.018879,3.661681,0.000653,-0.005394,0.402417,0.000653,-0.110400,-0.041133,-0.000094,-1.845000,-0.031637,0.071999,0.022109,1.232636,-0.007090,-1.629000,0.004363,0.020999,-0.200560,-0.017012,-0.000138,-1.886000,0.398059,0.000038,30874.000000,1691664811.165523,0.662400,-0.394212,0.000048,0.399543,0.088360,0.000048,,,,,,,,,
1691664811.186393,,,,,,,,,,,,,,,,,,,,,,,,,,,,,,,,,,,,,,,,,,,61007.000000,1691664811.174049,0.000000,0.000000,0.000000,0.000000,0.000000,0.000000
1691664811.198722,,,,,,,,,,,,,,,,,,,,,,,,,,,,,,,,,,,,,,,,,,,61008.000000,1691664811.184260,0.000000,0.000000,0.000000,0.000000,0.000000,0.000000
1691664811.201316,2.167745,-1.239797,-0.001448,139.413480,0.398009,0.000008,0.049680,-0.076908,-0.000046,-0.013485,3.661681,0.000653,-0.010788,0.402417,0.000653,-0.121440,-0.041133,-0.000094,-1.853000,-0.038636,0.021999,0.022929,1.232636,-0.011818,-1.626000,0.005364,0.024000,-0.134320,-0.017012,-0.000138,-1.820286,0.398059,0.000038,30875.000000,1691664811.185525,0.646629,-0.394212,0.000048,0.346971,0.088360,0.000048,,,,,,,,,
1691664811.214470,,,,,,,,,,,,,,,,,,,,,,,,,,,,,,,,,,,,,,,,,,,61009.000000,1691664811.194225,0.000000,0.000000,0.000000,0.000000,0.000000,0.000000
1691664811.223862,1.973619,-1.239797,0.000430,137.958224,0.398009,0.000008,0.115920,-0.076908,-0.000046,-0.024273,3.661681,0.000653,-0.008091,0.402417,0.000653,-0.099360,-0.041133,-0.000094,-1.850000,-0.037636,0.001000,0.024566,1.232636,-0.008863,-1.629000,0.002364,0.008000,-0.150880,-0.017012,-0.000138,-1.794000,0.398059,0.000038,30876.000000,1691664811.205523,0.693943,-0.394212,0.000048,0.310171,0.088741,0.000048,,,,,,,,,
1691664811.223887,,,,,,,,,,,,,,,,,,,,,,,,,,,,,,,,,,,,,,,,,,,61010.000000,1691664811.204162,0.000000,0.000000,0.000000,0.000000,0.000000,0.000000
1691664811.229559,,,,,,,,,,,,,,,,,,,,,,,,,,,,,,,,,,,,,,,,,,,61011.000000,1691664811.214291,0.000000,0.000000,0.000000,0.000000,0.000000,0.000000
1691664811.237268,,,,,,,,,,,,,,,,,,,,,,,,,,,,,,,,,,,,,,,,,,,61012.000000,1691664811.224257,0.000000,0.000000,0.000000,0.000000,0.000000,0.000000
1691664811.243254,2.831010,-1.239797,0.000018,138.249275,0.398009,0.000008,0.082800,-0.076908,-0.000046,-0.018879,3.661681,0.000653,-0.005394,0.402417,0.000653,-0.033120,-0.041133,-0.000324,-1.848000,-0.036818,0.034000,0.021288,1.233818,-0.002954,-1.628000,0.003181,0.021999,-0.161920,-0.017012,-0.000138,-1.715143,0.398059,0.000038,30877.000000,1691664811.225525,0.778057,-0.394212,0.000048,0.362743,0.088360,0.000048,,,,,,,,,
1691664811.257015,,,,,,,,,,,,,,,,,,,,,,,,,,,,,,,,,,,,,,,,,,,61013.000000,1691664811.234038,0.000000,0.000000,0.000000,0.000000,0.000000,0.000000
1691664811.266690,,,,,,,,,,,,,,,,,,,,,,,,,,,,,,,,,,,,,,,,,,,61014.000000,1691664811.244387,0.000000,0.000000,0.000000,0.000000,0.000000,0.000000
1691664811.266886,1.310353,-1.239797,-0.000018,137.376122,0.398009,0.000008,0.176640,-0.076908,-0.000046,-0.018879,3.661681,0.000653,-0.005394,0.402417,0.000653,-0.066240,-0.041133,-0.000167,-1.850000,-0.037819,0.003000,0.024566,1.233818,-0.002954,-1.626000,0.004182,0.014999,-0.172960,-0.017012,-0.000138,-1.780857,0.398054,-0.000038,30878.000000,1691664811.245528,0.778057,-0.394212,0.000048,0.383771,0.088360,0.000048,,,,,,,,,
1691664811.267397,,,,,,,,,,,,,,,,,,,,,,,,,,,,,,,,,,,,,,,,,,,61015.000000,1691664811.254189,0.000000,0.000000,0.000000,0.000000,0.000000,0.000000
1691664811.267405,,,,,,,,,,,,,,,,,,,,,,,,,,,,,,,,,,,,,,,,,,0.000000,,,,,,,,
1691664811.276958,,,,,,,,,,,,,,,,,,,,,,,,,,,,,,,,,,,,,,,,,,,61016.000000,1691664811.264185,0.000000,0.000000,0.000000,0.000000,0.000000,0.000000
1691664811.280720,1.601543,-1.239797,-0.000688,137.085071,0.398009,0.000008,0.049680,-0.076908,-0.000046,-0.016182,3.661681,0.000653,-0.008091,0.402417,0.000653,-0.110400,-0.041133,-0.000094,-1.850000,-0.037228,0.012000,0.024975,1.233227,-0.002954,-1.625000,0.004773,0.004999,-0.165600,-0.017012,-0.000138,-1.853143,0.398054,-0.000038,30879.000000,1691664811.265521,0.772800,-0.394212,0.000048,0.320686,0.088360,0.000048,,,,,,,,,
1691664811.284539,,,,,,,,,,,,,,,,,,,,,,,,,,,,,,,,,,,,,,,,,,,61017.000000,1691664811.274048,0.000000,0.000000,0.000000,0.000000,0.000000,0.000000
1691664811.294641,,,,,,,,,,,,,,,,,,,,,,,,,,,,,,,,,,,,,,,,,,,61018.000000,1691664811.284283,0.000000,0.000000,0.000000,0.000000,0.000000,0.000000
1691664811.297694,2.248631,-1.239797,0.000563,136.794020,0.398009,0.000008,0.171120,-0.076908,-0.000046,-0.016182,3.661681,0.000653,-0.008091,0.402417,0.000653,-0.077280,-0.041133,-0.000094,-1.848000,-0.036227,0.012000,0.024154,1.233227,-0.005318,-1.626000,0.003772,0.014000,-0.182160,-0.017012,-0.000138,-1.879429,0.398054,-0.000038,30880.000000,1691664811.285525,0.830629,-0.394212,0.000048,0.431086,0.088360,0.000048,,,,,,,,,
1691664811.304393,,,,,,,,,,,,,,,,,,,,,,,,,,,,,,,,,,,,,,,,,,,61019.000000,1691664811.295218,0.000000,0.000000,0.000000,0.000000,0.000000,0.000000
1691664811.321850,,,,,,,,,,,,,,,,,,,,,,,,,,,,,,,,,,,,,,,,,,,61020.000000,1691664811.304152,0.000000,0.000000,0.000000,0.000000,0.000000,0.000000
1691664811.327605,1.617720,-1.239797,0.000018,135.338764,0.398009,0.000008,0.171120,-0.076908,-0.000046,-0.016182,3.661681,0.000653,-0.010788,0.402417,0.000653,0.220800,-0.041133,-0.002136,-1.853000,-0.041046,-0.014000,0.024154,1.232045,-0.007681,-1.626000,0.003954,0.008999,-0.172960,-0.017012,-0.000138,-1.774286,0.398054,-0.000038,30881.000000,1691664811.305521,0.862171,-0.394212,0.000048,0.357486,0.088360,0.000048,,,,,,,,,
1691664811.335731,,,,,,,,,,,,,,,,,,,,,,,,,,,,,,,,,,,,,,,,,,,61022.000000,1691664811.324169,0.000000,0.000000,0.000000,0.000000,0.000000,0.000000
1691664811.340657,3.494276,-1.239797,-0.000638,134.465611,0.398009,0.000008,0.149040,-0.076908,-0.000046,-0.021576,3.661681,0.000653,-0.008091,0.402417,0.000653,0.055200,-0.041123,0.000272,-1.851000,-0.039046,-0.008999,0.024975,1.232045,-0.010045,-1.626000,0.002955,0.004000,-0.130640,-0.017012,-0.000138,-1.761143,0.398059,0.000579,30882.000000,1691664811.325523,0.920000,-0.394212,0.000048,0.851657,0.087978,0.000048,,,,,,,,,
1691664811.352895,,,,,,,,,,,,,,,,,,,,,,,,,,,,,,,,,,,,,,,,,,,61023.000000,1691664811.337201,0.000000,0.000000,0.000000,0.000000,0.000000,0.000000
1691664811.359676,1.682429,-1.239797,0.000278,136.211918,0.398008,-0.000157,0.138000,-0.076908,-0.000046,-0.013485,3.661681,0.000653,-0.018879,0.402417,0.000653,0.033120,-0.041133,-0.000513,-1.853000,-0.041046,-0.004000,0.024154,1.232045,-0.007090,-1.625000,0.003954,-0.001000,-0.207920,-0.017012,-0.000138,-1.859714,0.398059,0.000038,30883.000000,1691664811.345527,0.746514,-0.394212,0.000048,0.331200,0.088360,0.000048,,,,,,,,,
1691664811.361551,,,,,,,,,,,,,,,,,,,,,,,,,,,,,,,,,,,,,,,,,,,61025.000000,1691664811.354265,0.000000,0.000000,0.000000,0.000000,0.000000,0.000000
1691664811.376455,,,,,,,,,,,,,,,,,,,,,,,,,,,,,,,,,,,,,,,,,,,61026.000000,1691664811.364211,0.000000,0.000000,0.000000,0.000000,0.000000,0.000000
1691664811.379654,,,,,,,,,,,,,,,,,,,,,,,,,,,,,,,,,,,,,,,,,,0.000000,,,,,,,,
1691664811.380876,2.911896,-1.239797,-0.000018,135.629815,0.398008,-0.000008,0.088320,-0.076908,-0.000046,-0.016182,3.661681,0.000653,-0.018879,0.402417,0.000653,-0.033120,-0.041123,0.001036,-1.853000,-0.041637,-0.021999,0.027432,1.232636,-0.006499,-1.621000,0.004363,0.008000,-0.161920,-0.017012,-0.000138,-1.905714,0.398059,0.000038,30884.000000,1691664811.365529,0.683429,-0.394212,0.000048,0.336457,0.088360,0.000048,,,,,,,,,
1691664811.389767,,,,,,,,,,,,,,,,,,,,,,,,,,,,,,,,,,,,,,,,,,,61027.000000,1691664811.374137,0.000000,0.000000,0.000000,0.000000,0.000000,0.000000
1691664811.401593,3.316327,-1.240181,0.000258,135.338764,0.398008,-0.000008,0.209760,-0.076908,-0.000046,-0.018879,3.661681,0.000653,-0.016182,0.402417,0.000653,0.187680,-0.041133,-0.003801,-1.855000,-0.042228,-0.001000,0.024566,1.233227,-0.003545,-1.620000,0.004773,0.008000,-0.154560,-0.017012,-0.000138,-1.794000,0.398059,0.000038,30885.000000,1691664811.385528,0.830629,-0.394212,0.000048,0.509943,0.087978,0.001449,,,,,,,,,
1691664811.404151,,,,,,,,,,,,,,,,,,,,,,,,,,,,,,,,,,,,,,,,,,,61028.000000,1691664811.389569,0.000000,0.000000,0.000000,0.000000,0.000000,0.000000
1691664811.409890,,,,,,,,,,,,,,,,,,,,,,,,,,,,,,,,,,,,,,,,,,,61029.000000,1691664811.394131,0.000000,0.000000,0.000000,0.000000,0.000000,0.000000
1691664811.420641,,,,,,,,,,,,,,,,,,,,,,,,,,,,,,,,,,,,,,,,,,,61030.000000,1691664811.404168,0.000000,0.000000,0.000000,0.000000,0.000000,0.000000
1691664811.425937,1.342708,-1.239797,-0.000018,135.629815,0.398008,-0.000008,0.011040,-0.076908,-0.000046,-0.021576,3.661681,0.000653,-0.018879,0.402417,0.000653,0.011040,-0.041123,0.003979,-1.860000,-0.045228,-0.014000,0.022929,1.233227,-0.003545,-1.621000,0.002772,0.002000,-0.163760,-0.017012,-0.000138,-1.794000,0.398059,0.000038,30886.000000,1691664811.405528,0.862171,-0.394212,0.000048,0.315429,0.088360,0.000553,,,,,,,,,
1691664811.427292,,,,,,,,,,,,,,,,,,,,,,,,,,,,,,,,,,,,,,,,,,,61031.000000,1691664811.414110,0.000000,0.000000,0.000000,0.000000,0.000000,0.000000
1691664811.441113,,,,,,,,,,,,,,,,,,,,,,,,,,,,,,,,,,,,,,,,,,,61032.000000,1691664811.424201,0.000000,0.000000,0.000000,0.000000,0.000000,0.000000
1691664811.441126,2.103036,-1.239797,-0.001470,135.920867,0.398008,-0.000008,0.038640,-0.076908,-0.000046,-0.013485,3.661681,0.000653,-0.016182,0.402417,0.000653,0.088320,-0.041123,0.001078,-1.858000,-0.042864,-0.021999,0.026612,1.230863,-0.014772,-1.618000,0.004137,-0.003000,-0.189520,-0.017012,-0.000138,-1.794000,0.398059,0.000038,30887.000000,1691664811.425531,0.820114,-0.394212,0.000048,0.373257,0.088360,0.000048,,,,,,,,,
1691664811.450819,2.103036,-1.239797,0.000018,135.920867,0.398008,-0.000008,0.022080,-0.076908,-0.000046,-0.018879,3.661681,0.000653,-0.018879,0.402417,0.000653,0.000000,-0.041133,-0.000094,-1.858000,-0.042454,-0.020999,0.024154,1.231454,-0.014181,-1.621000,0.003546,-0.003000,-0.169280,-0.017012,-0.000138,-1.675714,0.398059,0.000038,30888.000000,1691664811.435533,0.820114,-0.394212,0.000048,0.415314,0.088741,0.000048,,,,,,,,,
1691664811.450867,,,,,,,,,,,,,,,,,,,,,,,,,,,,,,,,,,,,,,,,,,,61033.000000,1691664811.434131,0.000000,0.000000,0.000000,0.000000,0.000000,0.000000
1691664811.462100,,,,,,,,,,,,,,,,,,,,,,,,,,,,,,,,,,,,,,,,,,,61034.000000,1691664811.444142,0.000000,0.000000,0.000000,0.000000,0.000000,0.000000
1691664811.470209,,,,,,,,,,,,,,,,,,,,,,,,,,,,,,,,,,,,,,,,,,,61035.000000,1691664811.455406,0.000000,0.000000,0.000000,0.000000,0.000000,0.000000
1691664811.482756,,,,,,,,,,,,,,,,,,,,,,,,,,,,,,,,,,,,,,,,,,,61036.000000,1691664811.464237,0.000000,0.000000,0.000000,0.000000,0.000000,0.000000
1691664811.487464,2.329517,-1.239797,-0.000018,135.920867,0.398008,-0.000008,0.016560,-0.076908,-0.000046,-0.016182,3.661681,0.000653,-0.013485,0.402417,0.000653,0.011040,-0.041133,-0.000712,-1.853000,-0.038636,-0.018999,0.021288,1.232636,-0.010636,-1.616000,0.005364,0.020999,-0.104880,-0.017012,-0.000138,-1.761143,0.398059,0.000038,30889.000000,1691664811.465524,0.767543,-0.394212,0.000048,0.294400,0.088741,0.000048,,,,,,,,,
1691664811.490013,,,,,,,,,,,,,,,,,,,,,,,,,,,,,,,,,,,,,,,,,,0.000000,,,,,,,,
1691664811.499135,,,,,,,,,,,,,,,,,,,,,,,,,,,,,,,,,,,,,,,,,,,61038.000000,1691664811.484165,0.000000,0.000000,0.000000,0.000000,0.000000,0.000000
1691664811.501656,2.361872,-1.239797,-0.000018,136.211918,0.398008,-0.000008,0.022080,-0.076908,-0.000046,-0.018879,3.661681,0.000653,-0.018879,0.402417,0.000653,0.011040,-0.041123,0.002628,-1.853000,-0.039637,0.010999,0.023337,1.232636,-0.007090,-1.618000,0.003363,0.004999,-0.185840,-0.017012,-0.000138,-1.761143,0.398059,0.000038,30890.000000,1691664811.485528,0.856914,-0.394212,0.000048,0.257600,0.088741,0.000048,,,,,,,,,
1691664811.509218,,,,,,,,,,,,,,,,,,,,,,,,,,,,,,,,,,,,,,,,,,,61039.000000,1691664811.494375,0.000000,0.000000,0.000000,0.000000,0.000000,0.000000
1691664811.520006,2.475112,-1.239797,-0.000018,136.502969,0.398008,-0.000008,0.126960,-0.076908,-0.000046,-0.016182,3.661681,0.000653,-0.016182,0.402417,0.000653,-0.033120,-0.041133,-0.005361,-1.853000,-0.039227,0.006000,0.020063,1.233227,-0.004136,-1.616000,0.002772,0.000000,-0.172960,-0.017012,-0.000138,-1.794000,0.398059,0.000038,30891.000000,1691664811.505523,0.809600,-0.394212,0.000048,0.410057,0.088360,0.000048,,,,,,,,,
1691664811.523732,,,,,,,,,,,,,,,,,,,,,,,,,,,,,,,,,,,,,,,,,,,61040.000000,1691664811.504155,0.000000,0.000000,0.000000,0.000000,0.000000,0.000000
1691664811.526097,,,,,,,,,,,,,,,,,,,,,,,,,,,,,,,,,,,,,,,,,,,61041.000000,1691664811.514624,0.000000,0.000000,0.000000,0.000000,0.000000,0.000000
1691664811.540996,,,,,,,,,,,,,,,,,,,,,,,,,,,,,,,,,,,,,,,,,,,61042.000000,1691664811.524323,0.000000,0.000000,0.000000,0.000000,0.000000,0.000000
1691664811.542426,3.251618,-1.239797,-0.000018,136.211918,0.398008,-0.000008,0.165600,-0.076908,-0.000046,-0.018879,3.661681,0.000653,-0.010788,0.402417,0.000653,0.000000,-0.041133,-0.002827,-1.845000,-0.034227,0.009999,0.022517,1.233227,-0.001181,-1.618000,0.001773,-0.004000,-0.189520,-0.017012,-0.000138,-1.932000,0.398059,0.000038,30892.000000,1691664811.525523,0.736000,-0.394212,0.000048,0.410057,0.088360,0.000048,,,,,,,,,
1691664811.544916,,,,,,,,,,,,,,,,,,,,,,,,,,,,,,,,,,,,,,,,,,,61043.000000,1691664811.534040,0.000000,0.000000,0.000000,0.000000,0.000000,0.000000
1691664811.552313,1.391239,-1.239797,-0.000201,135.920867,0.398008,-0.000008,0.143520,-0.076908,-0.000046,-0.018879,3.661681,0.000653,-0.016182,0.402417,0.000653,-0.154560,-0.041133,-0.000094,-1.848000,-0.036818,0.034000,0.026204,1.233818,-0.001181,-1.625000,-0.001819,-0.004000,-0.165600,-0.017012,-0.000138,-1.787429,0.398059,0.000038,30893.000000,1691664811.535533,0.746514,-0.394212,0.000048,0.425829,0.088360,0.000048,,,,,,,,,
1691664811.556304,,,,,,,,,,,,,,,,,,,,,,,,,,,,,,,,,,,,,,,,,,,61044.000000,1691664811.544064,0.000000,0.000000,0.000000,0.000000,0.000000,0.000000
1691664811.564325,,,,,,,,,,,,,,,,,,,,,,,,,,,,,,,,,,,,,,,,,,,61045.000000,1691664811.554147,0.000000,0.000000,0.000000,0.000000,0.000000,0.000000
1691664811.574467,,,,,,,,,,,,,,,,,,,,,,,,,,,,,,,,,,,,,,,,,,,61046.000000,1691664811.564154,0.000000,0.000000,0.000000,0.000000,0.000000,0.000000
1691664811.577114,2.604530,-1.239797,0.000109,136.502969,0.398008,-0.000008,0.160080,-0.076908,-0.000046,-0.018879,3.661681,0.000653,-0.018879,0.402417,0.000653,0.110400,-0.041133,-0.002492,-1.845000,-0.034999,0.025000,0.026204,1.234999,0.001772,-1.628000,-0.003000,-0.017999,-0.147200,-0.017012,-0.000138,-1.872857,0.398054,-0.000038,30894.000000,1691664811.565524,0.841143,-0.394212,0.000048,0.394286,0.088360,0.000048,,,,,,,,,
1691664811.584743,,,,,,,,,,,,,,,,,,,,,,,,,,,,,,,,,,,,,,,,,,,61047.000000,1691664811.574292,0.000000,0.000000,0.000000,0.000000,0.000000,0.000000
1691664811.590904,,,,,,,,,,,,,,,,,,,,,,,,,,,,,,,,,,,,,,,,,,0.000000,,,,,,,,
1691664811.593827,,,,,,,,,,,,,,,,,,,,,,,,,,,,,,,,,,,,,,,,,,,61048.000000,1691664811.584130,0.000000,0.000000,0.000000,0.000000,0.000000,0.000000
1691664811.597306,1.811847,-1.239797,0.000458,136.794020,0.398008,-0.000008,0.204240,-0.076908,-0.000046,-0.018879,3.661681,0.000653,-0.010788,0.402417,0.000653,-0.077280,-0.041133,-0.000094,-1.840000,-0.033410,0.032000,0.026612,1.234409,0.007090,-1.629000,-0.002410,-0.017999,-0.174800,-0.017012,-0.000138,-1.787429,0.398054,-0.000038,30895.000000,1691664811.585531,0.741257,-0.394212,0.000048,0.420571,0.088360,0.000048,,,,,,,,,
1691664811.602178,,,,,,,,,,,,,,,,,,,,,,,,,,,,,,,,,,,,,,,,,,,61049.000000,1691664811.594627,0.000000,0.000000,0.000000,0.000000,0.000000,0.000000
1691664811.611112,,,,,,,,,,,,,,,,,,,,,,,,,,,,,,,,,,,,,,,,,,,61050.000000,1691664811.604054,0.000000,0.000000,0.000000,0.000000,0.000000,0.000000
1691664811.622177,0.938278,-1.239797,0.000018,136.794020,0.398008,-0.000008,0.182160,-0.076908,-0.000046,-0.016182,3.661681,0.000653,-0.010788,0.402417,0.000653,0.077280,-0.041123,0.004838,-1.837000,-0.032409,0.037999,0.022929,1.234409,0.004136,-1.631000,-0.002410,-0.017999,-0.158240,-0.017012,-0.000138,-1.741429,0.398054,-0.000038,30896.000000,1691664811.605528,0.872686,-0.394212,0.000048,0.793829,0.087978,0.000048,,,,,,,,,
1691664811.630588,,,,,,,,,,,,,,,,,,,,,,,,,,,,,,,,,,,,,,,,,,,61051.000000,1691664811.614122,0.000000,0.000000,0.000000,0.000000,0.000000,0.000000
1691664811.638478,2.280986,-1.239797,0.000018,136.502969,0.398008,-0.000008,0.154560,-0.076908,-0.000046,-0.013485,3.661681,0.000653,-0.013485,0.402417,0.000653,0.022080,-0.041123,0.002136,-1.838000,-0.034409,0.037000,0.025383,1.234409,0.004136,-1.639000,-0.007410,-0.017999,-0.150880,-0.017012,-0.000138,-1.813714,0.398054,-0.000038,30897.000000,1691664811.615534,0.825371,-0.394212,0.000048,0.325943,0.088360,0.000048,,,,,,,,,
1691664811.647166,,,,,,,,,,,,,,,,,,,,,,,,,,,,,,,,,,,,,,,,,,,61052.000000,1691664811.624470,0.000000,0.000000,0.000000,0.000000,0.000000,0.000000
1691664811.651130,1.488303,-1.239797,0.000018,137.085071,0.398008,-0.000008,0.121440,-0.076908,-0.000046,-0.018879,3.661681,0.000653,-0.010788,0.402417,0.000653,0.000000,-0.041133,-0.004670,-1.838000,-0.037000,0.019999,0.027841,1.234999,0.004136,-1.639000,-0.006000,-0.029999,-0.172960,-0.017012,-0.000138,-1.734857,0.398054,-0.000038,30898.000000,1691664811.635536,0.762286,-0.394212,0.000048,0.389029,0.088360,0.000048,,,,,,,,,
1691664811.655966,,,,,,,,,,,,,,,,,,,,,,,,,,,,,,,,,,,,,,,,,,,61053.000000,1691664811.634123,0.000000,0.000000,0.000000,0.000000,0.000000,0.000000
1691664811.663277,,,,,,,,,,,,,,,,,,,,,,,,,,,,,,,,,,,,,,,,,,,61055.000000,1691664811.654155,0.000000,0.000000,0.000000,0.000000,0.000000,0.000000
1691664811.673496,,,,,,,,,,,,,,,,,,,,,,,,,,,,,,,,,,,,,,,,,,,61056.000000,1691664811.664387,0.000000,0.000000,0.000000,0.000000,0.000000,0.000000
1691664811.679940,2.070682,-1.239797,0.000018,136.794020,0.398008,-0.000008,0.066240,-0.076908,-0.000046,-0.016182,3.661681,0.000653,-0.010788,0.402417,0.000653,-0.022080,-0.041133,-0.008105,-1.850000,-0.043818,-0.014999,0.023337,1.233818,0.000590,-1.641000,-0.004819,-0.021999,-0.182160,-0.017012,-0.000138,-1.774286,0.398054,-0.000038,30899.000000,1691664811.665528,0.741257,-0.394212,0.000048,0.373257,0.088360,0.000048,,,,,,,,,
1691664811.683177,,,,,,,,,,,,,,,,,,,,,,,,,,,,,,,,,,,,,,,,,,,61057.000000,1691664811.675045,0.000000,0.000000,0.000000,0.000000,0.000000,0.000000
1691664811.688245,,,,,,,,,,,,,,,,,,,,,,,,,,,,,,,,,,,,,,,,,,0.000000,,,,,,,,
1691664811.701794,,,,,,,,,,,,,,,,,,,,,,,,,,,,,,,,,,,,,,,,,,,61058.000000,1691664811.684689,0.000000,0.000000,0.000000,0.000000,0.000000,0.000000
1691664811.702506,2.733947,-1.239797,0.000018,136.211918,0.398008,-0.000008,0.077280,-0.076908,-0.000046,-0.016182,3.661681,0.000653,-0.016182,0.402417,0.000653,-0.066240,-0.041133,-0.000094,-1.850000,-0.042819,-0.017999,0.027020,1.233818,0.000590,-1.639000,-0.002819,-0.024000,-0.172960,-0.017012,-0.000138,-1.905714,0.398054,-0.000038,30900.000000,1691664811.685530,0.825371,-0.394212,0.000048,0.315429,0.088360,0.000102,,,,,,,,,
1691664811.708640,,,,,,,,,,,,,,,,,,,,,,,,,,,,,,,,,,,,,,,,,,,61059.000000,1691664811.700900,0.000000,0.000000,0.000000,0.000000,0.000000,0.000000
1691664811.723624,,,,,,,,,,,,,,,,,,,,,,,,,,,,,,,,,,,,,,,,,,,61060.000000,1691664811.704161,0.000000,0.000000,0.000000,0.000000,0.000000,0.000000
1691664811.725956,1.358885,-1.239797,0.000018,137.085071,0.398008,-0.000008,0.077280,-0.076908,-0.000046,-0.016182,3.661681,0.000653,-0.016182,0.402417,0.000653,-0.011040,-0.041123,0.002911,-1.851000,-0.043410,-0.017999,0.022517,1.234409,0.000590,-1.639000,-0.001409,-0.013000,-0.189520,-0.017012,-0.000138,-1.734857,0.398059,0.000038,30901.000000,1691664811.705520,0.730743,-0.394212,0.000048,0.331200,0.088360,0.000048,,,,,,,,,
1691664811.726758,,,,,,,,,,,,,,,,,,,,,,,,,,,,,,,,,,,,,,,,,,,61061.000000,1691664811.714135,0.000000,0.000000,0.000000,0.000000,0.000000,0.000000
1691664811.734473,,,,,,,,,,,,,,,,,,,,,,,,,,,,,,,,,,,,,,,,,,,61062.000000,1691664811.724173,0.000000,0.000000,0.000000,0.000000,0.000000,0.000000
1691664811.746742,2.054505,-1.239797,-0.000018,136.794020,0.398008,-0.000008,0.121440,-0.076908,-0.000046,-0.018879,3.661681,0.000653,-0.016182,0.402417,0.000653,0.011040,-0.041133,-0.000628,-1.851000,-0.042999,-0.013000,0.021288,1.234999,0.005318,-1.641000,-0.003000,-0.007000,-0.156400,-0.017012,-0.000138,-1.853143,0.398059,0.000038,30902.000000,1691664811.725528,0.699200,-0.394212,0.000048,0.368000,0.088741,0.000048,,,,,,,,,
1691664811.748872,,,,,,,,,,,,,,,,,,,,,,,,,,,,,,,,,,,,,,,,,,,61063.000000,1691664811.734391,0.000000,0.000000,0.000000,0.000000,0.000000,0.000000
1691664811.769316,,,,,,,,,,,,,,,,,,,,,,,,,,,,,,,,,,,,,,,,,,,61064.000000,1691664811.744014,0.000000,0.000000,0.000000,0.000000,0.000000,0.000000
1691664811.769390,3.413390,-1.240181,-0.000018,136.794020,0.398008,-0.000008,0.149040,-0.076908,-0.000046,-0.018879,3.661681,0.000653,-0.013485,0.402417,0.000653,-0.066240,-0.041133,-0.000115,-1.850000,-0.040999,-0.008000,0.022109,1.234999,0.005318,-1.641000,-0.003000,-0.007000,-0.158240,-0.017012,-0.000138,-1.859714,0.398059,0.000038,30903.000000,1691664811.745525,0.709714,-0.394212,0.000048,0.273371,0.088741,0.000048,,,,,,,,,
1691664811.776758,,,,,,,,,,,,,,,,,,,,,,,,,,,,,,,,,,,,,,,,,,,61066.000000,1691664811.764163,0.000000,0.000000,0.000000,0.000000,0.000000,0.000000
1691664811.785735,2.248631,-1.239797,0.000018,136.794020,0.398008,-0.000008,0.154560,-0.076908,-0.000046,-0.016182,3.661681,0.000653,-0.021576,0.402417,0.000653,0.110400,-0.041133,-0.002136,-1.848000,-0.039000,0.002000,0.026612,1.234999,0.005318,-1.634000,0.003001,0.023000,-0.163760,-0.017012,-0.000138,-1.721714,0.398059,0.000038,30904.000000,1691664811.765526,0.920000,-0.394212,0.000048,0.346971,0.088360,0.000048,,,,,,,,,
1691664811.790567,,,,,,,,,,,,,,,,,,,,,,,,,,,,,,,,,,,,,,,,,,,61067.000000,1691664811.775894,0.000000,0.000000,0.000000,0.000000,0.000000,0.000000
1691664811.798674,,,,,,,,,,,,,,,,,,,,,,,,,,,,,,,,,,,,,,,,,,,61068.000000,1691664811.784133,0.000000,0.000000,0.000000,0.000000,0.000000,0.000000
1691664811.798777,1.197113,-1.239797,-0.000018,137.085071,0.398008,-0.000008,0.088320,-0.076908,-0.000046,-0.013485,3.661681,0.000653,-0.008091,0.402417,0.000653,0.132480,-0.041123,0.003078,-1.853000,-0.042999,0.006000,0.023337,1.234999,0.007681,-1.629000,0.006001,0.035000,-0.154560,-0.017012,-0.000138,-1.899143,0.398059,0.000038,30905.000000,1691664811.785530,0.757029,-0.394212,0.000048,0.315429,0.088741,0.000048,,,,,,,,,
1691664811.802331,,,,,,,,,,,,,,,,,,,,,,,,,,,,,,,,,,,,,,,,,,,61069.000000,1691664811.794164,0.000000,0.000000,0.000000,0.000000,0.000000,0.000000
1691664811.815843,,,,,,,,,,,,,,,,,,,,,,,,,,,,,,,,,,,,,,,,,,0.000000,,,,,,,,
1691664811.817933,,,,,,,,,,,,,,,,,,,,,,,,,,,,,,,,,,,,,,,,,,,61070.000000,1691664811.804292,0.000000,0.000000,0.000000,0.000000,0.000000,0.000000
1691664811.818109,4.270781,-1.240181,-0.000527,137.667173,0.398008,-0.000008,0.215280,-0.076908,-0.000046,-0.010788,3.661681,0.000653,-0.021576,0.402417,0.000653,0.287040,-0.041133,-0.002261,-1.853000,-0.040409,-0.008999,0.023337,1.234409,0.001772,-1.631000,0.004590,0.032999,-0.176640,-0.017012,-0.000138,-1.780857,0.398059,0.000038,30906.000000,1691664811.805525,0.730743,-0.394212,0.000048,0.320686,0.088741,0.000048,,,,,,,,,
1691664811.829555,,,,,,,,,,,,,,,,,,,,,,,,,,,,,,,,,,,,,,,,,,,61071.000000,1691664811.814000,0.000000,0.000000,0.000000,0.000000,0.000000,0.000000
1691664811.839485,,,,,,,,,,,,,,,,,,,,,,,,,,,,,,,,,,,,,,,,,,,61072.000000,1691664811.824629,0.000000,0.000000,0.000000,0.000000,0.000000,0.000000
1691664811.839519,1.811847,-1.239797,-0.000884,137.958224,0.398008,-0.000008,0.104880,-0.076908,-0.000046,-0.016182,3.661681,0.000653,-0.024273,0.402417,0.000653,0.231840,-0.041123,0.004754,-1.853000,-0.039818,-0.013000,0.026612,1.233818,-0.001181,-1.629000,0.003181,0.020999,-0.138000,-0.017012,-0.000138,-1.813714,0.398059,0.000038,30907.000000,1691664811.825531,0.762286,-0.394212,0.000048,0.368000,0.088741,0.000048,,,,,,,,,
1691664811.850657,,,,,,,,,,,,,,,,,,,,,,,,,,,,,,,,,,,,,,,,,,,61073.000000,1691664811.834399,0.000000,0.000000,0.000000,0.000000,0.000000,0.000000
1691664811.854540,,,,,,,,,,,,,,,,,,,,,,,,,,,,,,,,,,,,,,,,,,,61074.000000,1691664811.844170,0.000000,0.000000,0.000000,0.000000,0.000000,0.000000
1691664811.857373,3.445744,-1.239797,-0.000018,137.376122,0.398008,-0.000008,0.187680,-0.076908,-0.000046,-0.016182,3.661681,0.000653,-0.016182,0.402417,0.000653,0.066240,-0.041123,0.000513,-1.848000,-0.037819,0.012000,0.020471,1.233818,-0.001181,-1.628000,0.002181,0.009999,-0.138000,-0.017012,-0.000138,-1.833429,0.398059,0.000038,30908.000000,1691664811.845521,0.830629,-0.394212,0.000048,0.389029,0.088741,0.000048,,,,,,,,,
1691664811.863265,,,,,,,,,,,,,,,,,,,,,,,,,,,,,,,,,,,,,,,,,,,61075.000000,1691664811.854293,0.000000,0.000000,0.000000,0.000000,0.000000,0.000000
1691664811.873308,,,,,,,,,,,,,,,,,,,,,,,,,,,,,,,,,,,,,,,,,,,61076.000000,1691664811.864149,0.000000,0.000000,0.000000,0.000000,0.000000,0.000000
1691664811.881642,1.601543,-1.239797,-0.000018,137.667173,0.398008,-0.000008,0.088320,-0.076908,-0.000046,-0.013485,3.661681,0.000653,-0.008091,0.402417,0.000653,0.055200,-0.041123,0.000188,-1.847000,-0.037999,0.002000,0.021700,1.234999,0.004727,-1.633000,-0.001999,-0.004999,-0.147200,-0.017012,-0.000138,-1.807143,0.398059,0.000038,30909.000000,1691664811.865536,0.825371,-0.394212,0.000048,0.304914,0.088741,0.000048,,,,,,,,,
1691664811.886321,,,,,,,,,,,,,,,,,,,,,,,,,,,,,,,,,,,,,,,,,,,61077.000000,1691664811.875391,0.000000,0.000000,0.000000,0.000000,0.000000,0.000000
1691664811.896744,,,,,,,,,,,,,,,,,,,,,,,,,,,,,,,,,,,,,,,,,,,61078.000000,1691664811.884033,0.000000,0.000000,0.000000,0.000000,0.000000,0.000000
1691664811.903383,2.135391,-1.239797,-0.000018,137.667173,0.398008,-0.000008,0.038640,-0.076908,-0.000046,-0.016182,3.661681,0.000653,-0.013485,0.402417,0.000653,0.044160,-0.041133,-0.006691,-1.850000,-0.039999,0.001000,0.024975,1.234999,0.004727,-1.634000,-0.003000,-0.013000,-0.160080,-0.017012,-0.000138,-2.188286,0.398054,-0.000038,30910.000000,1691664811.885526,0.799086,-0.394212,0.000048,0.315429,0.088741,0.000048,,,,,,,,,
1691664811.905360,,,,,,,,,,,,,,,,,,,,,,,,,,,,,,,,,,,,,,,,,,,61079.000000,1691664811.895445,0.000000,0.000000,0.000000,0.000000,0.000000,0.000000
1691664811.916202,,,,,,,,,,,,,,,,,,,,,,,,,,,,,,,,,,,,,,,,,,,61080.000000,1691664811.904369,0.000000,0.000000,0.000000,0.000000,0.000000,0.000000
1691664811.918678,3.461921,-1.239797,-0.001292,137.958224,0.398008,-0.000008,0.209760,-0.076908,-0.000046,-0.013485,3.661681,0.000653,-0.018879,0.402417,0.000653,0.419520,-0.041133,-0.002858,-1.851000,-0.040999,0.001000,0.026204,1.234999,-0.001181,-1.638000,-0.004000,-0.013000,-0.138000,-0.017012,-0.000138,-1.807143,0.398054,-0.000038,30911.000000,1691664811.905540,0.851657,-0.394212,0.000048,0.394286,0.088741,0.000048,,,,,,,,,
1691664811.920779,,,,,,,,,,,,,,,,,,,,,,,,,,,,,,,,,,,,,,,,,,0.000000,,,,,,,,
1691664811.929453,,,,,,,,,,,,,,,,,,,,,,,,,,,,,,,,,,,,,,,,,,,61081.000000,1691664811.914165,0.000000,0.000000,0.000000,0.000000,0.000000,0.000000
1691664811.938121,,,,,,,,,,,,,,,,,,,,,,,,,,,,,,,,,,,,,,,,,,,61082.000000,1691664811.924154,0.000000,0.000000,0.000000,0.000000,0.000000,0.000000
1691664811.949145,1.358885,-1.239797,0.000018,138.249275,0.398008,-0.000008,0.154560,-0.076908,-0.000046,-0.018879,3.661681,0.000653,-0.010788,0.402417,0.000653,0.099360,-0.041133,-0.004366,-1.850000,-0.040409,0.006000,0.025383,1.234409,0.001772,-1.646000,-0.010410,-0.017000,-0.220800,-0.017012,-0.000138,-1.833429,0.398054,-0.000038,30912.000000,1691664811.925532,0.709714,-0.394212,0.000048,0.373257,0.088741,0.000048,,,,,,,,,
1691664811.956029,,,,,,,,,,,,,,,,,,,,,,,,,,,,,,,,,,,,,,,,,,,61083.000000,1691664811.934402,0.000000,0.000000,0.000000,0.000000,0.000000,0.000000
1691664811.958347,3.445744,-1.239797,0.000018,138.540326,0.398008,-0.000008,0.154560,-0.076908,-0.000046,-0.010788,3.661681,0.000653,-0.016182,0.402417,0.000653,0.033120,-0.041133,-0.005194,-1.850000,-0.040409,-0.004000,0.024154,1.234409,0.001772,-1.646000,-0.009409,-0.050999,-0.156400,-0.017012,-0.000138,-1.669143,0.398059,0.000158,30913.000000,1691664811.935534,0.867429,-0.394212,0.000048,0.252343,0.088360,0.000048,,,,,,,,,
1691664811.963778,,,,,,,,,,,,,,,,,,,,,,,,,,,,,,,,,,,,,,,,,,,61084.000000,1691664811.944243,0.000000,0.000000,0.000000,0.000000,0.000000,0.000000
1691664811.965679,,,,,,,,,,,,,,,,,,,,,,,,,,,,,,,,,,,,,,,,,,,61085.000000,1691664811.954141,0.000000,0.000000,0.000000,0.000000,0.000000,0.000000
1691664811.971023,,,,,,,,,,,,,,,,,,,,,,,,,,,,,,,,,,,,,,,,,,,61086.000000,1691664811.964040,0.000000,0.000000,0.000000,0.000000,0.000000,0.000000
1691664811.978049,2.782479,-1.239797,0.000018,138.249275,0.398008,-0.000008,0.143520,-0.076908,-0.000046,-0.013485,3.661681,0.000653,-0.016182,0.402417,0.000653,0.220800,-0.041133,-0.003759,-1.861000,-0.044818,-0.041000,0.024154,1.233818,-0.001181,-1.648000,-0.006819,-0.030999,-0.184000,-0.017012,-0.000138,-1.748000,0.398059,0.000038,30914.000000,1691664811.965544,0.704457,-0.394212,0.000048,0.257600,0.088741,-0.000048,,,,,,,,,
1691664811.982221,,,,,,,,,,,,,,,,,,,,,,,,,,,,,,,,,,,,,,,,,,,61087.000000,1691664811.974375,0.000000,0.000000,0.000000,0.000000,0.000000,0.000000
1691664811.991780,,,,,,,,,,,,,,,,,,,,,,,,,,,,,,,,,,,,,,,,,,,61088.000000,1691664811.984142,0.000000,0.000000,0.000000,0.000000,0.000000,0.000000
1691664812.008360,3.494276,-1.239797,-0.000018,138.249275,0.398008,-0.000008,0.126960,-0.076908,-0.000046,-0.018879,3.661681,0.000653,-0.016182,0.402417,0.000653,-0.022080,-0.041133,-0.000094,-1.861000,-0.044818,-0.027000,0.024975,1.233818,-0.001181,-1.646000,-0.005818,-0.018999,-0.156400,-0.017012,-0.000138,-1.859714,0.398059,0.000038,30915.000000,1691664811.985533,0.736000,-0.394212,0.000048,0.299657,0.088741,-0.000048,,,,,,,,,
1691664812.013727,,,,,,,,,,,,,,,,,,,,,,,,,,,,,,,,,,,,,,,,,,,61089.000000,1691664811.995493,0.000000,0.000000,0.000000,0.000000,0.000000,0.000000
1691664812.020040,3.170732,-1.239797,-0.000226,138.540326,0.398008,-0.000008,0.248400,-0.076908,-0.000046,-0.008091,3.661681,0.000653,-0.016182,0.402417,0.000653,0.165600,-0.041123,0.002073,-1.860000,-0.042819,-0.020999,0.023337,1.233818,-0.001181,-1.646000,-0.005818,-0.023000,-0.149040,-0.017012,-0.000138,-1.767714,0.398059,0.000038,30916.000000,1691664811.995533,0.788571,-0.394212,0.000048,0.236571,0.088741,-0.000048,,,,,,,,,
1691664812.020335,,,,,,,,,,,,,,,,,,,,,,,,,,,,,,,,,,,,,,,,,,,61091.000000,1691664812.014244,0.000000,0.000000,0.000000,0.000000,0.000000,0.000000
1691664812.024999,,,,,,,,,,,,,,,,,,,,,,,,,,,,,,,,,,,,,,,,,,0.000000,,,,,,,,
1691664812.037610,,,,,,,,,,,,,,,,,,,,,,,,,,,,,,,,,,,,,,,,,,,61092.000000,1691664812.025044,0.000000,0.000000,0.000000,0.000000,0.000000,0.000000
1691664812.037644,1.585366,-1.239797,-0.000018,138.831378,0.398008,-0.000008,0.093840,-0.076908,-0.000046,-0.010788,3.661681,0.000653,-0.013485,0.402417,0.000653,-0.033120,-0.041133,-0.000115,-1.863000,-0.044227,-0.009999,0.025795,1.233227,-0.001181,-1.646000,-0.003227,-0.019999,-0.156400,-0.017012,-0.000138,-1.951714,0.398059,0.000038,30917.000000,1691664812.025532,0.746514,-0.394212,0.000048,0.383771,0.088360,-0.000048,,,,,,,,,
1691664812.049465,,,,,,,,,,,,,,,,,,,,,,,,,,,,,,,,,,,,,,,,,,,61093.000000,1691664812.034099,0.000000,0.000000,0.000000,0.000000,0.000000,0.000000
1691664812.057389,,,,,,,,,,,,,,,,,,,,,,,,,,,,,,,,,,,,,,,,,,,61094.000000,1691664812.044291,0.000000,0.000000,0.000000,0.000000,0.000000,0.000000
1691664812.068440,3.219263,-1.239797,-0.000018,138.831378,0.398008,-0.000008,0.176640,-0.076908,-0.000046,-0.013485,3.661681,0.000653,-0.008091,0.402417,0.000653,-0.143520,-0.041133,-0.000094,-1.860000,-0.042228,-0.018999,0.022929,1.233227,-0.003545,-1.643000,-0.000227,-0.009999,-0.134320,-0.017012,-0.000138,-1.833429,0.398059,0.000038,30918.000000,1691664812.045521,0.720229,-0.394212,0.000048,0.336457,0.088360,-0.000048,,,,,,,,,
1691664812.068871,,,,,,,,,,,,,,,,,,,,,,,,,,,,,,,,,,,,,,,,,,,61095.000000,1691664812.055596,0.000000,0.000000,0.000000,0.000000,0.000000,0.000000
1691664812.075899,,,,,,,,,,,,,,,,,,,,,,,,,,,,,,,,,,,,,,,,,,,61096.000000,1691664812.064143,0.000000,0.000000,0.000000,0.000000,0.000000,0.000000
1691664812.077287,1.342708,-1.239414,-0.000836,138.831378,0.398008,-0.000008,0.165600,-0.076908,-0.000046,-0.016182,3.661681,0.000653,-0.005394,0.402417,0.000653,0.044160,-0.041133,-0.001518,-1.860000,-0.041818,-0.004000,0.024975,1.233818,-0.003545,-1.644000,-0.001819,0.004999,-0.172960,-0.017012,-0.000138,-1.807143,0.398059,0.000038,30919.000000,1691664812.065524,0.751771,-0.394212,0.000048,0.404800,0.088360,-0.000048,,,,,,,,,
1691664812.087758,,,,,,,,,,,,,,,,,,,,,,,,,,,,,,,,,,,,,,,,,,,61097.000000,1691664812.074392,0.000000,0.000000,0.000000,0.000000,0.000000,0.000000
1691664812.101563,,,,,,,,,,,,,,,,,,,,,,,,,,,,,,,,,,,,,,,,,,,61098.000000,1691664812.084161,0.000000,0.000000,0.000000,0.000000,0.000000,0.000000
1691664812.101581,1.423594,-1.239797,0.000018,139.122429,0.398008,-0.000008,0.066240,-0.076908,-0.000046,-0.018879,3.661681,0.000653,-0.010788,0.402417,0.000653,-0.143520,-0.041133,-0.000094,-1.858000,-0.038636,-0.004000,0.026204,1.232636,-0.008863,-1.643000,-0.000637,0.000000,-0.172960,-0.017012,-0.000138,-1.899143,0.398059,0.000038,30920.000000,1691664812.085524,0.778057,-0.394212,0.000048,0.299657,0.088360,-0.000048,,,,,,,,,
1691664812.105363,,,,,,,,,,,,,,,,,,,,,,,,,,,,,,,,,,,,,,,,,,,61099.000000,1691664812.094141,0.000000,0.000000,0.000000,0.000000,0.000000,0.000000
