__time,/hsrb/joint_states/arm_flex_joint/effort,/hsrb/joint_states/arm_flex_joint/position,/hsrb/joint_states/arm_flex_joint/velocity,/hsrb/joint_states/arm_lift_joint/effort,/hsrb/joint_states/arm_lift_joint/position,/hsrb/joint_states/arm_lift_joint/velocity,/hsrb/joint_states/arm_roll_joint/effort,/hsrb/joint_states/arm_roll_joint/position,/hsrb/joint_states/arm_roll_joint/velocity,/hsrb/joint_states/base_l_drive_wheel_joint/effort,/hsrb/joint_states/base_l_drive_wheel_joint/position,/hsrb/joint_states/base_l_drive_wheel_joint/velocity,/hsrb/joint_states/base_r_drive_wheel_joint/effort,/hsrb/joint_states/base_r_drive_wheel_joint/position,/hsrb/joint_states/base_r_drive_wheel_joint/velocity,/hsrb/joint_states/base_roll_joint/effort,/hsrb/joint_states/base_roll_joint/position,/hsrb/joint_states/base_roll_joint/velocity,/hsrb/joint_states/hand_l_spring_proximal_joint/effort,/hsrb/joint_states/hand_l_spring_proximal_joint/position,/hsrb/joint_states/hand_l_spring_proximal_joint/velocity,/hsrb/joint_states/hand_motor_joint/effort,/hsrb/joint_states/hand_motor_joint/position,/hsrb/joint_states/hand_motor_joint/velocity,/hsrb/joint_states/hand_r_spring_proximal_joint/effort,/hsrb/joint_states/hand_r_spring_proximal_joint/position,/hsrb/joint_states/hand_r_spring_proximal_joint/velocity,/hsrb/joint_states/head_pan_joint/effort,/hsrb/joint_states/head_pan_joint/position,/hsrb/joint_states/head_pan_joint/velocity,/hsrb/joint_states/head_tilt_joint/effort,/hsrb/joint_states/head_tilt_joint/position,/hsrb/joint_states/head_tilt_joint/velocity,/hsrb/joint_states/header/seq,/hsrb/joint_states/header/stamp,/hsrb/joint_states/wrist_flex_joint/effort,/hsrb/joint_states/wrist_flex_joint/position,/hsrb/joint_states/wrist_flex_joint/velocity,/hsrb/joint_states/wrist_roll_joint/effort,/hsrb/joint_states/wrist_roll_joint/position,/hsrb/joint_states/wrist_roll_joint/velocity,/hsrb/pressure_sensor/data,/hsrb/wrist_wrench/compensated/header/seq,/hsrb/wrist_wrench/compensated/header/stamp,/hsrb/wrist_wrench/compensated/wrench/force/x,/hsrb/wrist_wrench/compensated/wrench/force/y,/hsrb/wrist_wrench/compensated/wrench/force/z,/hsrb/wrist_wrench/compensated/wrench/torque/x,/hsrb/wrist_wrench/compensated/wrench/torque/y,/hsrb/wrist_wrench/compensated/wrench/torque/z
1691673428.757799,,,,,,,,,,,,,,,,,,,,,,,,,,,,,,,,,,,,,,,,,,,44393.000000,1691673428.744955,0.000000,0.000000,0.000000,0.000000,0.000000,0.000000
1691673428.768073,,,,,,,,,,,,,,,,,,,,,,,,,,,,,,,,,,,,,,,,,,,44394.000000,1691673428.755235,0.000000,0.000000,0.000000,0.000000,0.000000,0.000000
1691673428.778301,,,,,,,,,,,,,,,,,,,,,,,,,,,,,,,,,,,,,,,,,,,44395.000000,1691673428.765110,0.000000,0.000000,0.000000,0.000000,0.000000,0.000000
1691673428.787677,,,,,,,,,,,,,,,,,,,,,,,,,,,,,,,,,,,,,,,,,,,44396.000000,1691673428.774937,0.000000,0.000000,0.000000,0.000000,0.000000,0.000000
1691673428.788094,0.323544,-0.029869,-0.000058,-27.940906,0.010000,-0.000008,0.115920,0.000000,0.000046,-0.008091,10.756788,0.003740,0.000000,39.294276,-0.000653,0.684480,4.662123,0.000157,-1.891000,-0.047910,0.003000,0.021288,1.227909,0.007681,-1.659000,-0.005909,-0.010999,-0.112240,0.000015,-0.000138,-1.084286,-0.074510,0.000038,22689.000000,1691673428.773461,0.741257,-1.569998,0.000048,0.026286,0.000153,-0.000048,,,,,,,,,
1691673428.797342,,,,,,,,,,,,,,,,,,,,,,,,,,,,,,,,,,,,,,,,,,,44397.000000,1691673428.785704,0.000000,0.000000,0.000000,0.000000,0.000000,0.000000
1691673428.806039,,,,,,,,,,,,,,,,,,,,,,,,,,,,,,,,,,,,,,,,,,,44398.000000,1691673428.795185,0.000000,0.000000,0.000000,0.000000,0.000000,0.000000
1691673428.814699,0.663265,-0.029869,-0.000163,-27.649855,0.010000,-0.000008,0.121440,0.000005,0.000046,-0.013485,10.756768,-0.000870,0.005394,39.294276,-0.000653,0.540960,4.662113,-0.000094,-1.894000,-0.049910,0.003000,0.023337,1.227909,0.007681,-1.661000,-0.007909,0.004000,-0.099360,-0.000015,-0.000138,-0.992286,-0.074510,0.000038,22690.000000,1691673428.793474,0.835886,-1.569998,0.000048,0.005257,0.000153,-0.000048,,,,,,,,,
1691673428.814735,,,,,,,,,,,,,,,,,,,,,,,,,,,,,,,,,,,,,,,,,,,44399.000000,1691673428.805295,0.000000,0.000000,0.000000,0.000000,0.000000,0.000000
1691673428.827964,,,,,,,,,,,,,,,,,,,,,,,,,,,,,,,,,,,,,,,,,,,44400.000000,1691673428.815022,0.000000,0.000000,0.000000,0.000000,0.000000,0.000000
1691673428.832273,-0.048532,-0.029869,-0.000139,-27.649855,0.010000,-0.000008,-0.038640,0.000005,0.000046,-0.013485,10.756788,0.001068,0.005394,39.294276,-0.000653,1.081920,4.662113,0.002293,-1.894000,-0.049910,-0.007000,0.021700,1.227909,0.007681,-1.659000,-0.005909,-0.010999,-0.108560,-0.000031,-0.000153,-0.683429,-0.074515,-0.000038,22691.000000,1691673428.813465,0.846400,-1.569998,0.000048,0.042057,0.000153,-0.000048,,,,,,,,,
1691673428.835829,,,,,,,,,,,,,,,,,,,,,,,,,,,,,,,,,,,,,,,,,,,44401.000000,1691673428.825200,0.000000,0.000000,0.000000,0.000000,0.000000,0.000000
1691673428.850589,,,,,,,,,,,,,,,,,,,,,,,,,,,,,,,,,,,,,,,,,,,44402.000000,1691673428.835160,0.000000,0.000000,0.000000,0.000000,0.000000,0.000000
1691673428.851054,0.711797,-0.029869,-0.000066,-27.358804,0.010000,-0.000008,-0.044160,0.000005,0.000046,-0.026970,10.756788,0.000752,-0.010788,39.294276,-0.000653,1.081920,4.662113,0.002754,-1.896000,-0.050728,-0.016000,0.020063,1.226727,0.004727,-1.656000,-0.002728,0.004000,-0.121440,-0.000046,-0.000138,-0.854286,-0.074515,-0.000038,22692.000000,1691673428.833480,0.793829,-1.569998,0.000048,-0.047314,0.000153,-0.000048,,,,,,,,,
1691673428.859110,,,,,,,,,,,,,,,,,,,,,,,,,,,,,,,,,,,,,,,,,,0.000000,,,,,,,,
1691673428.859301,,,,,,,,,,,,,,,,,,,,,,,,,,,,,,,,,,,,,,,,,,,44403.000000,1691673428.845285,0.000000,0.000000,0.000000,0.000000,0.000000,0.000000
1691673428.867986,,,,,,,,,,,,,,,,,,,,,,,,,,,,,,,,,,,,,,,,,,,44404.000000,1691673428.855077,0.000000,0.000000,0.000000,0.000000,0.000000,0.000000
1691673428.867994,0.889746,-0.030253,-0.000105,-27.358804,0.010000,-0.000008,0.016560,0.000005,0.000046,-0.016182,10.756788,-0.000653,-0.002697,39.294276,-0.000653,1.004640,4.662123,0.003843,-1.896000,-0.049727,-0.016000,0.020880,1.226727,0.001772,-1.656000,-0.002728,0.008000,-0.093840,-0.000092,-0.004264,-0.933143,-0.074515,-0.000038,22693.000000,1691673428.853471,0.725486,-1.569998,0.000048,0.010514,0.000153,-0.000048,,,,,,,,,
1691673428.878890,,,,,,,,,,,,,,,,,,,,,,,,,,,,,,,,,,,,,,,,,,,44405.000000,1691673428.865160,0.000000,0.000000,0.000000,0.000000,0.000000,0.000000
1691673428.889433,,,,,,,,,,,,,,,,,,,,,,,,,,,,,,,,,,,,,,,,,,,44406.000000,1691673428.875115,0.000000,0.000000,0.000000,0.000000,0.000000,0.000000
1691673428.891237,0.614734,-0.030253,-0.001044,-27.649855,0.010000,-0.000008,-0.104880,0.000005,0.000046,0.013485,10.756808,0.002493,-0.010788,39.294276,-0.000653,0.772800,4.662113,-0.000565,-1.896000,-0.049727,-0.010999,0.021288,1.226727,0.001772,-1.654000,-0.001727,0.008000,-0.101200,-0.000184,-0.000138,-0.887143,-0.074515,-0.000038,22694.000000,1691673428.873460,0.788571,-1.569998,0.000048,-0.047314,-0.000228,-0.000048,,,,,,,,,
1691673428.896641,,,,,,,,,,,,,,,,,,,,,,,,,,,,,,,,,,,,,,,,,,,44407.000000,1691673428.885071,0.000000,0.000000,0.000000,0.000000,0.000000,0.000000
1691673428.908928,,,,,,,,,,,,,,,,,,,,,,,,,,,,,,,,,,,,,,,,,,,44408.000000,1691673428.895150,0.000000,0.000000,0.000000,0.000000,0.000000,0.000000
1691673428.913078,0.339721,-0.029869,-0.000034,-27.358804,0.010000,-0.000008,-0.099360,0.000005,0.000046,-0.008091,10.756808,0.001840,-0.008091,39.294276,-0.000653,0.485760,4.662113,-0.002607,-1.896000,-0.048728,-0.006000,0.021700,1.226727,0.004136,-1.652000,-0.001727,0.012000,-0.125120,-0.000215,-0.005384,-0.900286,-0.074510,0.000038,22695.000000,1691673428.893460,0.788571,-1.569998,0.000048,0.047314,-0.000228,-0.000048,,,,,,,,,
1691673428.917974,,,,,,,,,,,,,,,,,,,,,,,,,,,,,,,,,,,,,,,,,,,44409.000000,1691673428.905132,0.000000,0.000000,0.000000,0.000000,0.000000,0.000000
1691673428.926503,,,,,,,,,,,,,,,,,,,,,,,,,,,,,,,,,,,,,,,,,,,44410.000000,1691673428.915063,0.000000,0.000000,0.000000,0.000000,0.000000,0.000000
1691673428.928211,0.048532,-0.029869,-0.000060,-27.649855,0.010000,-0.000008,0.000000,0.000005,0.000046,-0.008091,10.756808,0.003265,-0.010788,39.294276,-0.000653,0.342240,4.662123,0.003026,-1.896000,-0.048137,-0.006000,0.024566,1.226136,-0.001772,-1.652000,-0.002137,0.007000,-0.125120,-0.000230,-0.000138,-0.939714,-0.074510,0.000038,22696.000000,1691673428.913459,0.767543,-1.569998,0.000048,-0.010514,0.000153,-0.000048,,,,,,,,,
1691673428.934762,,,,,,,,,,,,,,,,,,,,,,,,,,,,,,,,,,,,,,,,,,,44411.000000,1691673428.925203,0.000000,0.000000,0.000000,0.000000,0.000000,0.000000
1691673428.944762,,,,,,,,,,,,,,,,,,,,,,,,,,,,,,,,,,,,,,,,,,,44412.000000,1691673428.935156,0.000000,0.000000,0.000000,0.000000,0.000000,0.000000
1691673428.954388,0.889746,-0.029869,-0.001260,-26.485651,0.010000,-0.000008,-0.066240,0.000005,0.000046,-0.013485,10.756788,-0.000653,0.000000,39.294276,-0.000653,0.772800,4.662113,-0.004366,-1.896000,-0.048137,-0.006000,0.020880,1.226136,-0.001772,-1.652000,-0.003136,0.002000,-0.062560,-0.000230,-0.000138,-0.998857,-0.074510,0.000038,22697.000000,1691673428.933465,0.835886,-1.569998,0.000048,-0.068343,0.000153,-0.000048,,,,,,,,,
1691673428.956623,,,,,,,,,,,,,,,,,,,,,,,,,,,,,,,,,,,,,,,,,,,44413.000000,1691673428.945138,0.000000,0.000000,0.000000,0.000000,0.000000,0.000000
1691673428.965098,,,,,,,,,,,,,,,,,,,,,,,,,,,,,,,,,,,,,,,,,,,44414.000000,1691673428.955150,0.000000,0.000000,0.000000,0.000000,0.000000,0.000000
1691673428.965106,,,,,,,,,,,,,,,,,,,,,,,,,,,,,,,,,,,,,,,,,,0.000000,,,,,,,,
1691673428.967245,1.100050,-0.029869,0.000090,-26.194600,0.010000,-0.000008,-0.044160,0.000005,0.000046,-0.010788,10.756788,-0.000653,-0.008091,39.294276,-0.000653,0.640320,4.662123,0.000628,-1.893000,-0.045137,-0.006000,0.023337,1.226136,-0.001772,-1.652000,-0.003136,0.002000,-0.088320,-0.000230,-0.000138,-1.064571,-0.074510,0.000038,22698.000000,1691673428.953460,0.746514,-1.569998,0.000048,0.015771,0.000153,-0.000048,,,,,,,,,
1691673428.986814,,,,,,,,,,,,,,,,,,,,,,,,,,,,,,,,,,,,,,,,,,,44415.000000,1691673428.966066,0.000000,0.000000,0.000000,0.000000,0.000000,0.000000
1691673429.005126,0.064709,-0.029869,-0.000280,-26.485651,0.010000,-0.000008,-0.033120,0.000005,0.000046,-0.008091,10.756788,-0.000653,-0.002697,39.294276,-0.000653,0.518880,4.662113,-0.000094,-1.894000,-0.046137,0.008999,0.020880,1.226136,-0.001772,-1.651000,-0.002137,0.006000,-0.093840,-0.000230,-0.000138,-1.031714,-0.074510,0.000038,22699.000000,1691673428.973458,0.883200,-1.569998,0.000048,0.042057,0.000153,-0.001696,,,,,,,,,
1691673429.005879,,,,,,,,,,,,,,,,,,,,,,,,,,,,,,,,,,,,,,,,,,,44416.000000,1691673428.975183,0.000000,0.000000,0.000000,0.000000,0.000000,0.000000
1691673429.005890,,,,,,,,,,,,,,,,,,,,,,,,,,,,,,,,,,,,,,,,,,,44417.000000,1691673428.985047,0.000000,0.000000,0.000000,0.000000,0.000000,0.000000
1691673429.017119,,,,,,,,,,,,,,,,,,,,,,,,,,,,,,,,,,,,,,,,,,,44418.000000,1691673428.995281,0.000000,0.000000,0.000000,0.000000,0.000000,0.000000
1691673429.017134,0.630911,-0.030253,0.000068,-26.485651,0.010000,-0.000008,-0.149040,0.000005,0.000046,-0.024273,10.756788,-0.003463,-0.010788,39.294276,-0.000653,0.805920,4.662113,-0.001371,-1.894000,-0.046137,0.004000,0.021700,1.226136,-0.001772,-1.649000,-0.001136,0.006000,-0.062560,-0.000230,-0.000138,-1.077714,-0.074510,0.000038,22700.000000,1691673428.993475,0.704457,-1.569998,0.000048,-0.105143,0.000153,-0.000048,,,,,,,,,
1691673429.028828,,,,,,,,,,,,,,,,,,,,,,,,,,,,,,,,,,,,,,,,,,,44420.000000,1691673429.014944,0.000000,0.000000,0.000000,0.000000,0.000000,0.000000
1691673429.032327,1.811847,-0.030253,0.001522,-26.194600,0.010000,-0.000008,-0.171120,0.000005,0.000046,-0.013485,10.756808,0.000712,0.000000,39.294276,-0.000653,0.662400,4.662113,-0.006482,-1.894000,-0.047136,0.004000,0.020063,1.226136,-0.001772,-1.649000,-0.001136,0.009999,-0.068080,-0.000230,-0.000138,-0.854286,-0.074515,-0.000038,22701.000000,1691673429.013463,0.741257,-1.569998,0.000048,0.047314,0.000153,-0.000048,,,,,,,,,
1691673429.042046,,,,,,,,,,,,,,,,,,,,,,,,,,,,,,,,,,,,,,,,,,,44421.000000,1691673429.025039,0.000000,0.000000,0.000000,0.000000,0.000000,0.000000
1691673429.049293,0.194126,-0.029869,-0.000115,-26.485651,0.010000,-0.000008,-0.160080,0.000005,0.000046,-0.013485,10.756808,0.001425,-0.008091,39.294276,-0.000653,0.761760,4.662113,-0.002900,-1.893000,-0.045728,0.004000,0.023337,1.226727,0.001181,-1.649000,-0.001727,0.009999,-0.066240,-0.000230,-0.000138,-1.038286,-0.074515,-0.000038,22702.000000,1691673429.033461,0.751771,-1.569998,0.000048,-0.036800,-0.000609,-0.000048,,,,,,,,,
1691673429.054369,,,,,,,,,,,,,,,,,,,,,,,,,,,,,,,,,,,,,,,,,,,44422.000000,1691673429.035109,0.000000,0.000000,0.000000,0.000000,0.000000,0.000000
1691673429.068522,,,,,,,,,,,,,,,,,,,,,,,,,,,,,,,,,,,,,,,,,,,44423.000000,1691673429.044812,0.000000,0.000000,0.000000,0.000000,0.000000,0.000000
1691673429.071709,,,,,,,,,,,,,,,,,,,,,,,,,,,,,,,,,,,,,,,,,,,44424.000000,1691673429.054960,0.000000,0.000000,0.000000,0.000000,0.000000,0.000000
1691673429.072196,0.792683,-0.030253,-0.000414,-26.485651,0.010000,-0.000008,-0.231840,0.000005,0.000046,-0.002697,10.756788,-0.001464,-0.008091,39.294276,-0.000653,0.706560,4.662102,-0.004639,-1.894000,-0.046728,0.008000,0.020880,1.226727,0.001181,-1.656000,-0.005728,-0.009999,-0.031280,-0.000230,-0.000138,-0.952857,-0.074515,-0.000038,22703.000000,1691673429.053466,0.788571,-1.569998,0.000048,0.021029,-0.000228,-0.000048,,,,,,,,,
1691673429.076802,,,,,,,,,,,,,,,,,,,,,,,,,,,,,,,,,,,,,,,,,,0.000000,,,,,,,,
1691673429.082786,,,,,,,,,,,,,,,,,,,,,,,,,,,,,,,,,,,,,,,,,,,44425.000000,1691673429.065389,0.000000,0.000000,0.000000,0.000000,0.000000,0.000000
1691673429.095102,0.226481,-0.029869,-0.000109,-25.612497,0.010000,-0.000008,-0.154560,0.000000,-0.000158,-0.008091,10.756788,-0.000969,-0.008091,39.294276,-0.000653,0.916320,4.662113,0.002356,-1.899000,-0.050728,0.003000,0.022109,1.226727,0.001181,-1.654000,-0.004727,-0.009999,-0.033120,-0.000230,-0.000138,-0.933143,-0.074510,0.000038,22704.000000,1691673429.073467,0.751771,-1.569998,0.000048,-0.015771,0.000153,-0.000048,,,,,,,,,
1691673429.101486,,,,,,,,,,,,,,,,,,,,,,,,,,,,,,,,,,,,,,,,,,,44426.000000,1691673429.075900,0.000000,0.000000,0.000000,0.000000,0.000000,0.000000
1691673429.112857,,,,,,,,,,,,,,,,,,,,,,,,,,,,,,,,,,,,,,,,,,,44428.000000,1691673429.095010,0.000000,0.000000,0.000000,0.000000,0.000000,0.000000
1691673429.114548,1.455948,-0.029869,0.000018,-25.612497,0.010000,-0.000008,-0.093840,0.000000,-0.000046,-0.010788,10.756788,-0.000653,0.000000,39.294276,-0.000653,0.651360,4.662113,-0.001937,-1.899000,-0.050728,-0.017000,0.022929,1.226727,0.001181,-1.657000,-0.006727,-0.008999,-0.047840,-0.000230,-0.000138,-0.782000,-0.074510,0.000038,22705.000000,1691673429.093466,0.778057,-1.569998,0.000048,0.000000,0.000153,-0.000048,,,,,,,,,
1691673429.117702,,,,,,,,,,,,,,,,,,,,,,,,,,,,,,,,,,,,,,,,,,,44429.000000,1691673429.105215,0.000000,0.000000,0.000000,0.000000,0.000000,0.000000
1691673429.128226,,,,,,,,,,,,,,,,,,,,,,,,,,,,,,,,,,,,,,,,,,,44430.000000,1691673429.115213,0.000000,0.000000,0.000000,0.000000,0.000000,0.000000
1691673429.131921,0.533848,-0.029869,-0.000018,-25.903548,0.010000,-0.000008,-0.104880,0.000000,-0.000046,-0.008091,10.756788,-0.000653,0.000000,39.294276,-0.000653,0.629280,4.662113,-0.000764,-1.899000,-0.050546,-0.017000,0.022109,1.225545,-0.001772,-1.657000,-0.005545,-0.013000,-0.062560,-0.000230,-0.000138,-1.018571,-0.074510,0.000038,22706.000000,1691673429.113482,0.767543,-1.569998,0.000048,0.047314,-0.000228,-0.000048,,,,,,,,,
1691673429.138445,,,,,,,,,,,,,,,,,,,,,,,,,,,,,,,,,,,,,,,,,,,44431.000000,1691673429.126405,0.000000,0.000000,0.000000,0.000000,0.000000,0.000000
1691673429.144846,,,,,,,,,,,,,,,,,,,,,,,,,,,,,,,,,,,,,,,,,,,44432.000000,1691673429.135202,0.000000,0.000000,0.000000,0.000000,0.000000,0.000000
1691673429.147975,0.533848,-0.029869,0.001034,-25.321446,0.010000,-0.000008,-0.132480,0.000000,-0.000046,-0.013485,10.756808,0.003147,-0.002697,39.294276,-0.000653,0.309120,4.661642,-0.030169,-1.899000,-0.049546,-0.019999,0.023746,1.225545,-0.004136,-1.657000,-0.005545,-0.013000,-0.031280,-0.000230,-0.000138,-0.887143,-0.074510,0.000038,22707.000000,1691673429.133468,0.741257,-1.569998,0.000048,-0.026286,-0.000228,-0.000048,,,,,,,,,
1691673429.154569,,,,,,,,,,,,,,,,,,,,,,,,,,,,,,,,,,,,,,,,,,,44433.000000,1691673429.145169,0.000000,0.000000,0.000000,0.000000,0.000000,0.000000
1691673429.164762,,,,,,,,,,,,,,,,,,,,,,,,,,,,,,,,,,,,,,,,,,,44434.000000,1691673429.155045,0.000000,0.000000,0.000000,0.000000,0.000000,0.000000
1691673429.166539,1.148581,-0.030253,0.000018,-24.448293,0.010000,-0.000008,-0.231840,0.000000,-0.000046,-0.008091,10.756788,-0.003087,-0.005394,39.294276,-0.000653,-1.214400,4.660322,-0.069523,-1.901000,-0.050546,-0.017999,0.022109,1.225545,-0.004136,-1.659000,-0.006546,-0.013000,-0.022080,-0.000230,-0.000138,-1.077714,-0.074510,0.000038,22708.000000,1691673429.153462,0.793829,-1.569998,0.000048,0.057829,-0.000609,-0.000048,,,,,,,,,
1691673429.175487,,,,,,,,,,,,,,,,,,,,,,,,,,,,,,,,,,,,,,,,,,,44435.000000,1691673429.165092,0.000000,0.000000,0.000000,0.000000,0.000000,0.000000
1691673429.187568,,,,,,,,,,,,,,,,,,,,,,,,,,,,,,,,,,,,,,,,,,0.000000,,,,,,,,
1691673429.192662,,,,,,,,,,,,,,,,,,,,,,,,,,,,,,,,,,,,,,,,,,,44436.000000,1691673429.175206,0.000000,0.000000,0.000000,0.000000,0.000000,0.000000
1691673429.196175,1.601543,-0.030253,0.000638,-25.321446,0.010000,-0.000008,-0.088320,0.000000,-0.000046,0.000000,10.756788,-0.000653,-0.008091,39.294276,-0.000653,-0.894240,4.657903,-0.104824,-1.901000,-0.051137,-0.017999,0.018834,1.226136,-0.004136,-1.659000,-0.007137,-0.017000,-0.064400,-0.000230,-0.000138,-0.762286,-0.074510,0.000038,22709.000000,1691673429.173467,0.736000,-1.569998,0.000048,0.089371,-0.000228,-0.000048,,,,,,,,,
1691673429.203703,,,,,,,,,,,,,,,,,,,,,,,,,,,,,,,,,,,,,,,,,,,44437.000000,1691673429.185224,0.000000,0.000000,0.000000,0.000000,0.000000,0.000000
1691673429.208777,,,,,,,,,,,,,,,,,,,,,,,,,,,,,,,,,,,,,,,,,,,44438.000000,1691673429.195179,0.000000,0.000000,0.000000,0.000000,0.000000,0.000000
1691673429.208938,0.857392,-0.029869,0.000422,-24.448293,0.010000,-0.000008,-0.011040,-0.000081,-0.000460,0.043152,10.756788,-0.000653,0.013485,39.294256,-0.002137,-1.534560,4.653945,-0.191333,-1.896000,-0.048364,-0.013000,0.024154,1.224363,-0.001181,-1.657000,-0.004363,-0.012000,-0.018400,-0.000230,-0.000138,-0.998857,-0.074510,0.000038,22710.000000,1691673429.193464,0.736000,-1.569998,0.000048,0.152457,-0.000228,-0.000048,,,,,,,,,
1691673429.218436,,,,,,,,,,,,,,,,,,,,,,,,,,,,,,,,,,,,,,,,,,,44439.000000,1691673429.205155,0.000000,0.000000,0.000000,0.000000,0.000000,0.000000
1691673429.231030,,,,,,,,,,,,,,,,,,,,,,,,,,,,,,,,,,,,,,,,,,,44440.000000,1691673429.215284,0.000000,0.000000,0.000000,0.000000,0.000000,0.000000
1691673429.231738,2.426580,-0.030253,0.001015,-25.030395,0.010001,0.000339,0.165600,-0.000051,0.000046,0.008091,10.756768,0.000653,0.032364,39.294196,-0.003899,-0.253920,4.648154,-0.253704,-1.896000,-0.049364,-0.013000,0.020880,1.224363,-0.009454,-1.654000,-0.002363,0.003000,-0.036800,-0.000245,-0.004847,-1.163143,-0.074510,0.000038,22711.000000,1691673429.213463,0.762286,-1.569998,0.000048,0.010514,-0.000228,-0.000048,,,,,,,,,
1691673429.240318,,,,,,,,,,,,,,,,,,,,,,,,,,,,,,,,,,,,,,,,,,,44441.000000,1691673429.225079,0.000000,0.000000,0.000000,0.000000,0.000000,0.000000
1691673429.252574,1.925087,-0.030636,0.002189,-26.776702,0.010001,0.000008,0.226320,-0.000035,0.004443,-0.018879,10.756768,0.000653,0.002697,39.294196,0.003859,-1.170240,4.640981,-0.310399,-1.893000,-0.045954,-0.017000,0.022109,1.224954,-0.006499,-1.654000,-0.002954,-0.002000,-0.005520,-0.000245,-0.000138,-0.926571,-0.074510,0.000038,22712.000000,1691673429.233463,0.730743,-1.569998,0.000048,0.089371,-0.000228,-0.000048,,,,,,,,,
1691673429.254484,,,,,,,,,,,,,,,,,,,,,,,,,,,,,,,,,,,,,,,,,,,44442.000000,1691673429.235048,0.000000,0.000000,0.000000,0.000000,0.000000,0.000000
1691673429.262862,,,,,,,,,,,,,,,,,,,,,,,,,,,,,,,,,,,,,,,,,,,44443.000000,1691673429.245103,0.000000,0.000000,0.000000,0.000000,0.000000,0.000000
1691673429.274088,,,,,,,,,,,,,,,,,,,,,,,,,,,,,,,,,,,,,,,,,,,44444.000000,1691673429.254968,0.000000,0.000000,0.000000,0.000000,0.000000,0.000000
1691673429.274106,3.283972,-0.030253,0.000428,-26.776702,0.010001,0.000008,-0.055200,0.000036,0.000046,0.029667,10.756768,0.000653,-0.005394,39.294216,-0.000534,-0.033120,4.632907,-0.369535,-1.884000,-0.039955,0.032000,0.020880,1.224954,-0.006499,-1.656000,-0.002954,0.003000,-0.001840,-0.000245,-0.000138,-1.025143,-0.074510,0.000038,22713.000000,1691673429.253475,0.730743,-1.569998,0.000048,0.000000,-0.000228,-0.000048,,,,,,,,,
1691673429.279191,,,,,,,,,,,,,,,,,,,,,,,,,,,,,,,,,,,,,,,,,,,44445.000000,1691673429.265096,0.000000,0.000000,0.000000,0.000000,0.000000,0.000000
1691673429.291928,,,,,,,,,,,,,,,,,,,,,,,,,,,,,,,,,,,,,,,,,,,44446.000000,1691673429.275204,0.000000,0.000000,0.000000,0.000000,0.000000,0.000000
1691673429.291935,2.103036,-0.030253,0.000916,-27.067753,0.010001,0.000008,-0.005520,0.000036,0.000046,0.005394,10.756768,0.002098,0.005394,39.294236,0.000653,0.342240,4.624184,-0.385944,-1.886000,-0.042546,0.019999,0.022929,1.225545,-0.006499,-1.657000,-0.004546,-0.002000,0.022080,-0.000230,0.000138,-0.913429,-0.074515,-0.000038,22714.000000,1691673429.273462,0.704457,-1.569998,0.000048,0.047314,0.000153,-0.000048,,,,,,,,,
1691673429.294015,,,,,,,,,,,,,,,,,,,,,,,,,,,,,,,,,,,,,,,,,,0.000000,,,,,,,,
1691673429.306420,,,,,,,,,,,,,,,,,,,,,,,,,,,,,,,,,,,,,,,,,,,44447.000000,1691673429.284934,0.000000,0.000000,0.000000,0.000000,0.000000,0.000000
1691673429.314972,,,,,,,,,,,,,,,,,,,,,,,,,,,,,,,,,,,,,,,,,,,44448.000000,1691673429.294940,0.000000,0.000000,0.000000,0.000000,0.000000,0.000000
1691673429.314984,2.475112,-0.029869,0.000018,-28.814060,0.010001,0.000008,-0.049680,0.000036,0.000046,-0.002697,10.756768,0.000653,0.002697,39.294236,-0.001939,2.826240,4.615073,-0.414407,-1.884000,-0.042546,0.018999,0.020880,1.225545,-0.000590,-1.656000,-0.004546,-0.006000,0.022080,-0.000230,0.000138,-0.926571,-0.074515,-0.000038,22715.000000,1691673429.293460,0.693943,-1.569998,0.000048,0.036800,0.000153,-0.000048,,,,,,,,,
1691673429.325900,,,,,,,,,,,,,,,,,,,,,,,,,,,,,,,,,,,,,,,,,,,44449.000000,1691673429.305091,0.000000,0.000000,0.000000,0.000000,0.000000,0.000000
1691673429.331330,2.297163,-0.029869,0.000018,-29.105111,0.010001,0.000008,-0.231840,0.000036,0.000046,0.013485,10.756748,-0.000930,0.013485,39.294256,0.002454,4.184160,4.607868,-0.301477,-1.884000,-0.043545,0.014000,0.021288,1.225545,-0.002954,-1.656000,-0.004546,-0.006000,-0.005520,-0.000230,0.000138,-0.906857,-0.074515,-0.000038,22716.000000,1691673429.313460,0.757029,-1.569998,0.000048,0.084114,0.000153,-0.000048,,,,,,,,,
1691673429.339172,,,,,,,,,,,,,,,,,,,,,,,,,,,,,,,,,,,,,,,,,,,44450.000000,1691673429.315094,0.000000,0.000000,0.000000,0.000000,0.000000,0.000000
1691673429.343797,,,,,,,,,,,,,,,,,,,,,,,,,,,,,,,,,,,,,,,,,,,44451.000000,1691673429.325259,0.000000,0.000000,0.000000,0.000000,0.000000,0.000000
1691673429.347596,,,,,,,,,,,,,,,,,,,,,,,,,,,,,,,,,,,,,,,,,,,44452.000000,1691673429.336181,0.000000,0.000000,0.000000,0.000000,0.000000,0.000000
1691673429.347604,0.760329,-0.029869,0.000018,-27.067753,0.010001,0.000256,-0.121440,0.000072,0.001810,0.026970,10.756649,-0.001919,-0.148335,39.294472,0.013320,1.059840,4.603009,-0.197323,-1.886000,-0.045137,0.014000,0.018422,1.226136,-0.002954,-1.656000,-0.004136,-0.006000,0.005520,-0.000215,0.000138,-0.972571,-0.074510,0.000038,22717.000000,1691673429.333466,0.704457,-1.569998,0.000048,0.010514,-0.000228,-0.000048,,,,,,,,,
1691673429.360121,,,,,,,,,,,,,,,,,,,,,,,,,,,,,,,,,,,,,,,,,,,44453.000000,1691673429.345201,0.000000,0.000000,0.000000,0.000000,0.000000,0.000000
1691673429.367760,,,,,,,,,,,,,,,,,,,,,,,,,,,,,,,,,,,,,,,,,,,44454.000000,1691673429.354953,0.000000,0.000000,0.000000,0.000000,0.000000,0.000000
1691673429.369241,-0.113240,-0.029103,-0.001145,-28.231957,0.010000,-0.000008,-0.204240,-0.000030,-0.000086,-0.026970,10.756649,0.000653,-0.107880,39.294752,0.014389,1.678080,4.599711,-0.141424,-1.889000,-0.047136,0.008999,0.020063,1.226136,0.000000,-1.657000,-0.005137,-0.004999,0.044160,-0.000154,0.000736,-0.893714,-0.074510,0.000038,22718.000000,1691673429.353468,0.793829,-1.569998,0.000048,0.015771,0.000153,-0.000048,,,,,,,,,
1691673429.385912,,,,,,,,,,,,,,,,,,,,,,,,,,,,,,,,,,,,,,,,,,,44455.000000,1691673429.376978,0.000000,0.000000,0.000000,0.000000,0.000000,0.000000
1691673429.393822,-0.679443,-0.029103,-0.002417,-28.231957,0.010000,-0.000008,-0.419520,0.000036,0.000046,-0.026970,10.756669,0.000653,-0.013485,39.294832,0.001187,1.424160,4.597501,-0.098279,-1.889000,-0.045954,-0.001000,0.020063,1.224954,-0.005909,-1.654000,-0.001954,0.004999,0.007360,-0.000138,0.000138,-0.952857,-0.074510,0.000038,22719.000000,1691673429.373460,0.762286,-1.569998,0.000048,-0.015771,0.000153,-0.000048,,,,,,,,,
1691673429.398034,,,,,,,,,,,,,,,,,,,,,,,,,,,,,,,,,,,,,,,,,,,44457.000000,1691673429.385568,0.000000,0.000000,0.000000,0.000000,0.000000,0.000000
1691673429.398047,,,,,,,,,,,,,,,,,,,,,,,,,,,,,,,,,,,,,,,,,,0.000000,,,,,,,,
1691673429.408450,,,,,,,,,,,,,,,,,,,,,,,,,,,,,,,,,,,,,,,,,,,44458.000000,1691673429.395039,0.000000,0.000000,0.000000,0.000000,0.000000,0.000000
1691673429.408842,-0.064709,-0.029485,-0.002821,-27.649855,0.010000,-0.000008,-0.132480,-0.000040,-0.000046,-0.008091,10.756689,0.000653,0.026970,39.294732,-0.006591,0.596160,4.596014,-0.063962,-1.891000,-0.047954,-0.014999,0.022517,1.224954,-0.005909,-1.651000,-0.001954,0.004999,0.016560,-0.000154,-0.000138,-1.071143,-0.074515,-0.000038,22720.000000,1691673429.393464,0.646629,-1.569998,0.000048,-0.021029,0.000153,-0.000048,,,,,,,,,
1691673429.425709,,,,,,,,,,,,,,,,,,,,,,,,,,,,,,,,,,,,,,,,,,,44459.000000,1691673429.405038,0.000000,0.000000,0.000000,0.000000,0.000000,0.000000
1691673429.432244,0.000000,-0.029869,-0.001605,-27.940906,0.010000,-0.000008,-0.143520,-0.000040,-0.000046,0.021576,10.756689,0.000653,0.018879,39.294652,-0.003543,-1.854720,4.595009,-0.040662,-1.891000,-0.047954,-0.009999,0.020880,1.224954,-0.005909,-1.652000,-0.003955,0.000000,0.047840,-0.000230,-0.001748,-0.913429,-0.074510,0.000038,22721.000000,1691673429.413464,0.830629,-1.569998,0.000048,0.010514,0.000153,-0.000048,,,,,,,,,
1691673429.435838,,,,,,,,,,,,,,,,,,,,,,,,,,,,,,,,,,,,,,,,,,,44460.000000,1691673429.415156,0.000000,0.000000,0.000000,0.000000,0.000000,0.000000
1691673429.443711,,,,,,,,,,,,,,,,,,,,,,,,,,,,,,,,,,,,,,,,,,,44461.000000,1691673429.425066,0.000000,0.000000,0.000000,0.000000,0.000000,0.000000
1691673429.445560,0.016177,-0.030253,-0.000018,-27.067753,0.010000,-0.000008,-0.143520,-0.000040,-0.000046,0.008091,10.756689,-0.001088,0.035061,39.294592,-0.002850,-1.777440,4.594297,-0.033175,-1.891000,-0.047546,-0.009999,0.021288,1.225545,-0.002954,-1.652000,-0.004546,-0.004999,0.014720,-0.000230,0.000138,-1.051429,-0.074510,0.000038,22722.000000,1691673429.433461,0.699200,-1.569998,0.000048,0.057829,0.000153,-0.000048,,,,,,,,,
1691673429.454310,,,,,,,,,,,,,,,,,,,,,,,,,,,,,,,,,,,,,,,,,,,44462.000000,1691673429.435035,0.000000,0.000000,0.000000,0.000000,0.000000,0.000000
1691673429.457550,,,,,,,,,,,,,,,,,,,,,,,,,,,,,,,,,,,,,,,,,,,44463.000000,1691673429.445233,0.000000,0.000000,0.000000,0.000000,0.000000,0.000000
1691673429.463582,,,,,,,,,,,,,,,,,,,,,,,,,,,,,,,,,,,,,,,,,,,44464.000000,1691673429.455044,0.000000,0.000000,0.000000,0.000000,0.000000,0.000000
1691673429.465908,1.391239,-0.030636,0.001193,-28.523008,0.010001,0.000008,0.204240,0.000005,0.029636,0.016182,10.756689,-0.000653,0.002697,39.294592,-0.000653,-1.391040,4.593825,-0.021823,-1.894000,-0.049546,-0.014000,0.023337,1.225545,-0.002954,-1.652000,-0.004546,-0.004999,0.007360,-0.000215,0.000138,-0.972571,-0.074515,-0.000038,22723.000000,1691673429.453458,0.730743,-1.569998,0.000048,0.010514,-0.000228,-0.000048,,,,,,,,,
1691673429.475662,,,,,,,,,,,,,,,,,,,,,,,,,,,,,,,,,,,,,,,,,,,44465.000000,1691673429.465541,0.000000,0.000000,0.000000,0.000000,0.000000,0.000000
1691673429.484698,,,,,,,,,,,,,,,,,,,,,,,,,,,,,,,,,,,,,,,,,,,44466.000000,1691673429.475086,0.000000,0.000000,0.000000,0.000000,0.000000,0.000000
1691673429.488980,2.378049,-0.030253,-0.000214,-30.269315,0.010001,0.000008,-0.071760,0.000077,-0.006396,0.018879,10.756689,-0.000653,-0.005394,39.294592,-0.000653,-0.309120,4.593501,-0.010691,-1.896000,-0.049546,-0.014000,0.021700,1.225545,-0.002954,-1.648000,-0.000545,-0.004999,0.033120,-0.000215,0.000138,-0.690000,-0.074519,-0.000038,22724.000000,1691673429.473464,0.751771,-1.569998,0.000048,0.010514,0.000153,-0.000048,,,,,,,,,
1691673429.495805,,,,,,,,,,,,,,,,,,,,,,,,,,,,,,,,,,,,,,,,,,,44467.000000,1691673429.485148,0.000000,0.000000,0.000000,0.000000,0.000000,0.000000
1691673429.516067,,,,,,,,,,,,,,,,,,,,,,,,,,,,,,,,,,,,,,,,,,,44468.000000,1691673429.494954,0.000000,0.000000,0.000000,0.000000,0.000000,0.000000
1691673429.516985,,,,,,,,,,,,,,,,,,,,,,,,,,,,,,,,,,,,,,,,,,0.000000,,,,,,,,
1691673429.516994,0.097063,-0.029485,-0.000828,-30.851417,0.010001,0.000008,-0.353280,0.000026,-0.000071,0.016182,10.756709,0.005660,-0.070122,39.294792,0.009936,-0.165600,4.593291,-0.008744,-1.898000,-0.051545,-0.017999,0.022517,1.225545,-0.002954,-1.646000,-0.000545,0.009999,-0.009200,-0.000215,0.000138,-0.920000,-0.074515,0.000038,22725.000000,1691673429.493466,0.693943,-1.569998,0.000048,0.031543,0.000153,-0.000048,,,,,,,,,
1691673429.521124,,,,,,,,,,,,,,,,,,,,,,,,,,,,,,,,,,,,,,,,,,,44469.000000,1691673429.506727,0.000000,0.000000,0.000000,0.000000,0.000000,0.000000
1691673429.527920,0.032354,-0.029869,-0.000060,-31.142468,0.010001,0.000008,-0.253920,0.000005,-0.000046,0.026970,10.756689,0.002672,-0.005394,39.294832,0.000653,0.121440,4.593145,-0.007780,-1.894000,-0.047773,-0.016000,0.024154,1.223772,-0.011227,-1.643000,0.001228,0.014000,0.051520,-0.000199,0.000138,-1.018571,-0.074519,-0.000038,22726.000000,1691673429.513459,0.746514,-1.569998,0.000048,0.052571,0.000153,-0.000048,,,,,,,,,
1691673429.530082,,,,,,,,,,,,,,,,,,,,,,,,,,,,,,,,,,,,,,,,,,,44470.000000,1691673429.515279,0.000000,0.000000,0.000000,0.000000,0.000000,0.000000
1691673429.540192,,,,,,,,,,,,,,,,,,,,,,,,,,,,,,,,,,,,,,,,,,,44471.000000,1691673429.525077,0.000000,0.000000,0.000000,0.000000,0.000000,0.000000
1691673429.550654,,,,,,,,,,,,,,,,,,,,,,,,,,,,,,,,,,,,,,,,,,,44472.000000,1691673429.534946,0.000000,0.000000,0.000000,0.000000,0.000000,0.000000
1691673429.551422,-0.048532,-0.029869,-0.000422,-31.724571,0.010001,0.000008,-0.281520,0.000005,0.002658,0.016182,10.756669,-0.000653,0.070122,39.294692,-0.006967,0.154560,4.593050,-0.001078,-1.896000,-0.047954,-0.006000,0.021288,1.224954,-0.011227,-1.641000,0.001045,0.014000,0.027600,-0.000199,0.000138,-1.031714,-0.074515,0.000038,22727.000000,1691673429.533465,0.746514,-1.569998,0.000048,-0.042057,0.000153,-0.000048,,,,,,,,,
1691673429.561628,,,,,,,,,,,,,,,,,,,,,,,,,,,,,,,,,,,,,,,,,,,44473.000000,1691673429.545031,0.000000,0.000000,0.000000,0.000000,0.000000,0.000000
1691673429.567179,0.210304,-0.029869,-0.000214,-30.851417,0.010000,-0.000229,-0.242880,-0.000010,-0.000178,0.021576,10.756669,-0.000653,0.018879,39.294652,-0.003345,-0.772800,4.592988,-0.006723,-1.886000,-0.040546,0.004000,0.021288,1.225545,-0.005318,-1.641000,0.000454,0.017999,0.014720,-0.000199,0.000138,-0.860857,-0.074502,0.000060,22728.000000,1691673429.553465,0.751771,-1.569998,0.000048,0.010514,0.000153,-0.000048,,,,,,,,,
1691673429.569485,,,,,,,,,,,,,,,,,,,,,,,,,,,,,,,,,,,,,,,,,,,44474.000000,1691673429.555155,0.000000,0.000000,0.000000,0.000000,0.000000,0.000000
1691673429.579030,,,,,,,,,,,,,,,,,,,,,,,,,,,,,,,,,,,,,,,,,,,44475.000000,1691673429.565017,0.000000,0.000000,0.000000,0.000000,0.000000,0.000000
1691673429.590183,,,,,,,,,,,,,,,,,,,,,,,,,,,,,,,,,,,,,,,,,,,44476.000000,1691673429.575011,0.000000,0.000000,0.000000,0.000000,0.000000,0.000000
1691673429.591409,0.016177,-0.029869,-0.000018,-30.851417,0.010000,-0.000008,-0.259440,-0.000015,-0.000046,0.021576,10.756669,-0.000653,0.002697,39.294612,-0.000732,-0.772800,4.592935,-0.007979,-1.888000,-0.042546,0.021999,0.021700,1.225545,-0.002363,-1.644000,-0.001546,0.003000,0.033120,-0.000199,0.000138,-0.854286,-0.074506,-0.001194,22729.000000,1691673429.573462,0.767543,-1.569998,0.000048,-0.105143,0.000153,-0.000048,,,,,,,,,
1691673429.597533,,,,,,,,,,,,,,,,,,,,,,,,,,,,,,,,,,,,,,,,,,,44477.000000,1691673429.585202,0.000000,0.000000,0.000000,0.000000,0.000000,0.000000
1691673429.605737,,,,,,,,,,,,,,,,,,,,,,,,,,,,,,,,,,,,,,,,,,,44478.000000,1691673429.595011,0.000000,0.000000,0.000000,0.000000,0.000000,0.000000
1691673429.608456,-0.177949,-0.029869,-0.000175,-30.269315,0.010000,-0.000008,-0.115920,-0.000020,-0.000046,0.024273,10.756649,-0.001029,-0.008091,39.294612,-0.000653,-0.706560,4.592914,0.001193,-1.888000,-0.043545,0.014999,0.021288,1.225545,-0.002363,-1.646000,-0.001546,0.007000,0.073600,-0.000199,0.000138,-0.782000,-0.074510,-0.000038,22730.000000,1691673429.593462,0.636114,-1.569998,0.000048,-0.073600,0.000153,-0.000048,,,,,,,,,
1691673429.616142,,,,,,,,,,,,,,,,,,,,,,,,,,,,,,,,,,,,,,,,,,,44479.000000,1691673429.605108,0.000000,0.000000,0.000000,0.000000,0.000000,0.000000
1691673429.616168,,,,,,,,,,,,,,,,,,,,,,,,,,,,,,,,,,,,,,,,,,0.000000,,,,,,,,
1691673429.632069,,,,,,,,,,,,,,,,,,,,,,,,,,,,,,,,,,,,,,,,,,,44480.000000,1691673429.614928,0.000000,0.000000,0.000000,0.000000,0.000000,0.000000
1691673429.632694,-0.048532,-0.029869,-0.000506,-30.851417,0.010000,-0.000008,0.049680,-0.000020,-0.000046,0.005394,10.756669,0.001167,-0.008091,39.294612,-0.000653,-0.783840,4.592893,-0.002932,-1.883000,-0.041545,0.014999,0.020471,1.225545,-0.002363,-1.644000,-0.001546,0.007000,0.060720,-0.000199,0.000138,-0.952857,-0.074510,-0.000038,22731.000000,1691673429.613463,0.751771,-1.569998,0.000048,0.026286,0.000153,-0.000048,,,,,,,,,
1691673429.646730,,,,,,,,,,,,,,,,,,,,,,,,,,,,,,,,,,,,,,,,,,,44481.000000,1691673429.625081,0.000000,0.000000,0.000000,0.000000,0.000000,0.000000
1691673429.654511,0.323544,-0.030253,0.000785,-30.560366,0.010000,-0.000008,-0.077280,-0.000020,-0.000046,0.010788,10.756669,0.000811,0.000000,39.294612,-0.000653,-0.761760,4.592883,0.001905,-1.883000,-0.042136,0.023000,0.021700,1.226136,-0.002363,-1.646000,-0.003136,0.002000,0.077280,-0.000199,0.000138,-0.926571,-0.074515,-0.000201,22732.000000,1691673429.633460,0.709714,-1.569998,0.000048,0.042057,0.000153,-0.000048,,,,,,,,,
1691673429.659943,,,,,,,,,,,,,,,,,,,,,,,,,,,,,,,,,,,,,,,,,,,44482.000000,1691673429.635025,0.000000,0.000000,0.000000,0.000000,0.000000,0.000000
1691673429.668631,,,,,,,,,,,,,,,,,,,,,,,,,,,,,,,,,,,,,,,,,,,44483.000000,1691673429.645037,0.000000,0.000000,0.000000,0.000000,0.000000,0.000000
1691673429.669547,,,,,,,,,,,,,,,,,,,,,,,,,,,,,,,,,,,,,,,,,,,44484.000000,1691673429.656484,0.000000,0.000000,0.000000,0.000000,0.000000,0.000000
1691673429.669910,0.808860,-0.030253,0.000094,-29.105111,0.010001,0.000530,-0.016560,-0.000020,-0.000046,0.008091,10.756669,0.000653,-0.002697,39.294632,0.002573,-0.033120,4.592862,0.000481,-1.886000,-0.045137,0.010999,0.021700,1.226136,0.000590,-1.651000,-0.004136,-0.008000,0.046000,-0.000184,0.000138,-0.972571,-0.074519,-0.000038,22733.000000,1691673429.653464,0.699200,-1.569998,0.000048,-0.005257,0.000153,-0.000048,,,,,,,,,
1691673429.677585,,,,,,,,,,,,,,,,,,,,,,,,,,,,,,,,,,,,,,,,,,,44485.000000,1691673429.666209,0.000000,0.000000,0.000000,0.000000,0.000000,0.000000
1691673429.685442,,,,,,,,,,,,,,,,,,,,,,,,,,,,,,,,,,,,,,,,,,,44486.000000,1691673429.675024,0.000000,0.000000,0.000000,0.000000,0.000000,0.000000
1691673429.685637,0.582379,-0.030253,0.000894,-28.814060,0.010001,0.000328,0.038640,-0.000020,-0.000046,0.013485,10.756669,0.000653,-0.016182,39.294672,0.000653,0.121440,4.592851,-0.000691,-1.886000,-0.045546,0.006000,0.024566,1.225545,0.000590,-1.649000,-0.002545,-0.003000,0.027600,-0.000184,0.000138,-0.841143,-0.074515,0.000038,22734.000000,1691673429.673469,0.662400,-1.569998,0.000048,-0.131429,0.000153,-0.000048,,,,,,,,,
1691673429.699379,,,,,,,,,,,,,,,,,,,,,,,,,,,,,,,,,,,,,,,,,,,44487.000000,1691673429.685597,0.000000,0.000000,0.000000,0.000000,0.000000,0.000000
1691673429.710834,,,,,,,,,,,,,,,,,,,,,,,,,,,,,,,,,,,,,,,,,,,44488.000000,1691673429.697316,0.000000,0.000000,0.000000,0.000000,0.000000,0.000000
1691673429.710846,1.439771,-0.030253,-0.000044,-30.851417,0.010000,-0.000312,0.071760,-0.000010,0.000046,0.013485,10.756669,0.001049,0.005394,39.294612,-0.007462,0.033120,4.592862,0.006524,-1.891000,-0.048728,0.001000,0.020880,1.226727,-0.002363,-1.652000,-0.003727,0.002000,0.079120,-0.000184,0.000138,-0.979143,-0.074510,0.000038,22735.000000,1691673429.693470,0.688686,-1.569998,0.000048,0.026286,0.000153,-0.000048,,,,,,,,,
1691673429.716142,,,,,,,,,,,,,,,,,,,,,,,,,,,,,,,,,,,,,,,,,,,44489.000000,1691673429.705141,0.000000,0.000000,0.000000,0.000000,0.000000,0.000000
1691673429.727121,,,,,,,,,,,,,,,,,,,,,,,,,,,,,,,,,,,,,,,,,,0.000000,,,,,,,,
1691673429.734809,,,,,,,,,,,,,,,,,,,,,,,,,,,,,,,,,,,,,,,,,,,44490.000000,1691673429.715105,0.000000,0.000000,0.000000,0.000000,0.000000,0.000000
1691673429.739788,0.388253,-0.029869,-0.000018,-30.269315,0.010000,-0.000008,0.066240,-0.000005,0.000046,0.008091,10.756669,0.000653,0.000000,39.294612,-0.000653,0.099360,4.592862,0.002042,-1.891000,-0.047727,-0.004000,0.023337,1.226727,0.003545,-1.652000,-0.003727,0.002000,0.108560,-0.000184,0.000138,-0.933143,-0.074515,-0.000038,22736.000000,1691673429.713459,0.835886,-1.569998,0.000048,0.073600,0.000153,-0.000048,,,,,,,,,
1691673429.745143,,,,,,,,,,,,,,,,,,,,,,,,,,,,,,,,,,,,,,,,,,,44491.000000,1691673429.725165,0.000000,0.000000,0.000000,0.000000,0.000000,0.000000
1691673429.751276,1.358885,-0.030253,-0.000018,-29.687213,0.010000,-0.000008,0.016560,0.000000,0.000046,0.008091,10.756669,0.000653,-0.005394,39.294612,-0.000653,-0.154560,4.592851,-0.003392,-1.896000,-0.051319,-0.017999,0.022929,1.227318,0.003545,-1.651000,-0.003319,0.006000,0.086480,-0.000184,0.000138,-1.012000,-0.074510,0.000038,22737.000000,1691673429.733461,0.636114,-1.569998,0.000048,-0.015771,0.000153,-0.000048,,,,,,,,,
1691673429.759559,,,,,,,,,,,,,,,,,,,,,,,,,,,,,,,,,,,,,,,,,,,44493.000000,1691673429.745031,0.000000,0.000000,0.000000,0.000000,0.000000,0.000000
1691673429.769098,,,,,,,,,,,,,,,,,,,,,,,,,,,,,,,,,,,,,,,,,,,44494.000000,1691673429.755022,0.000000,0.000000,0.000000,0.000000,0.000000,0.000000
1691673429.769153,0.517670,-0.029869,-0.000028,-29.687213,0.010000,-0.000008,-0.071760,0.000000,0.000046,0.010788,10.756669,0.000653,-0.005394,39.294612,-0.000653,-0.463680,4.592862,0.003131,-1.896000,-0.051319,-0.017999,0.021700,1.227318,0.005909,-1.651000,-0.003319,0.006000,0.060720,-0.000184,0.000138,-0.979143,-0.074506,0.000038,22738.000000,1691673429.753468,0.725486,-1.569998,0.000048,-0.042057,0.000153,-0.000048,,,,,,,,,
1691673429.786955,,,,,,,,,,,,,,,,,,,,,,,,,,,,,,,,,,,,,,,,,,,44495.000000,1691673429.766790,0.000000,0.000000,0.000000,0.000000,0.000000,0.000000
1691673429.789440,0.630911,-0.029869,-0.000525,-29.978264,0.010000,-0.000008,0.149040,0.000005,0.000046,0.013485,10.756649,-0.001306,-0.002697,39.294612,-0.000653,-0.529920,4.592862,0.003110,-1.894000,-0.049727,-0.013000,0.022929,1.226727,0.002954,-1.651000,-0.002728,0.006000,0.112240,-0.000184,0.000138,-1.005429,-0.074506,0.000038,22739.000000,1691673429.773467,0.720229,-1.569998,0.000048,0.010514,0.000153,-0.000048,,,,,,,,,
1691673429.795785,,,,,,,,,,,,,,,,,,,,,,,,,,,,,,,,,,,,,,,,,,,44496.000000,1691673429.774939,0.000000,0.000000,0.000000,0.000000,0.000000,0.000000
1691673429.803196,,,,,,,,,,,,,,,,,,,,,,,,,,,,,,,,,,,,,,,,,,,44497.000000,1691673429.785057,0.000000,0.000000,0.000000,0.000000,0.000000,0.000000
1691673429.806904,,,,,,,,,,,,,,,,,,,,,,,,,,,,,,,,,,,,,,,,,,,44498.000000,1691673429.795203,0.000000,0.000000,0.000000,0.000000,0.000000,0.000000
1691673429.811858,1.326531,-0.030253,-0.000313,-30.269315,0.010001,0.000356,0.011040,0.000005,0.000046,0.000000,10.756649,-0.001642,-0.010788,39.294612,-0.000653,-0.055200,4.592841,-0.001246,-1.894000,-0.049136,-0.013000,0.022517,1.226136,0.000000,-1.651000,-0.003136,0.006000,0.068080,-0.000184,0.000138,-0.749143,-0.074515,-0.000038,22740.000000,1691673429.793459,0.741257,-1.569998,0.000048,-0.042057,0.000153,-0.000048,,,,,,,,,
1691673429.818989,,,,,,,,,,,,,,,,,,,,,,,,,,,,,,,,,,,,,,,,,,,44499.000000,1691673429.805029,0.000000,0.000000,0.000000,0.000000,0.000000,0.000000
1691673429.827704,,,,,,,,,,,,,,,,,,,,,,,,,,,,,,,,,,,,,,,,,,,44500.000000,1691673429.815020,0.000000,0.000000,0.000000,0.000000,0.000000,0.000000
1691673429.827721,0.242658,-0.029869,-0.000018,-29.687213,0.010001,0.000525,0.093840,0.000005,0.000046,0.010788,10.756669,0.000653,-0.008091,39.294612,-0.000653,-0.552000,4.592851,-0.002680,-1.894000,-0.047773,-0.013000,0.024975,1.223772,-0.002954,-1.649000,-0.000772,-0.004000,0.090160,-0.000169,0.000414,-0.972571,-0.074510,0.000038,22741.000000,1691673429.813461,0.693943,-1.569998,0.000048,-0.084114,0.000153,-0.000048,,,,,,,,,
1691673429.830560,,,,,,,,,,,,,,,,,,,,,,,,,,,,,,,,,,,,,,,,,,0.000000,,,,,,,,
1691673429.838400,,,,,,,,,,,,,,,,,,,,,,,,,,,,,,,,,,,,,,,,,,,44501.000000,1691673429.825021,0.000000,0.000000,0.000000,0.000000,0.000000,0.000000
1691673429.847738,0.533848,-0.030253,0.000115,-29.687213,0.010000,-0.000008,-0.104880,0.000005,0.000046,0.010788,10.756669,0.000653,-0.002697,39.294612,-0.000653,-0.055200,4.592841,-0.000649,-1.898000,-0.049772,-0.026000,0.018834,1.223772,-0.011227,-1.649000,-0.000772,0.001000,0.062560,-0.000169,0.000138,-0.874000,-0.074510,0.000038,22742.000000,1691673429.833460,0.767543,-1.569998,0.000048,0.036800,0.000153,-0.000048,,,,,,,,,
1691673429.847829,,,,,,,,,,,,,,,,,,,,,,,,,,,,,,,,,,,,,,,,,,,44502.000000,1691673429.835387,0.000000,0.000000,0.000000,0.000000,0.000000,0.000000
1691673429.859246,,,,,,,,,,,,,,,,,,,,,,,,,,,,,,,,,,,,,,,,,,,44503.000000,1691673429.845025,0.000000,0.000000,0.000000,0.000000,0.000000,0.000000
1691673429.870737,,,,,,,,,,,,,,,,,,,,,,,,,,,,,,,,,,,,,,,,,,,44504.000000,1691673429.854939,0.000000,0.000000,0.000000,0.000000,0.000000,0.000000
1691673429.870861,0.954455,-0.030253,0.000385,-29.687213,0.010000,-0.000009,0.093840,0.000005,0.000046,0.000000,10.756669,0.000653,-0.010788,39.294612,-0.000653,-0.132480,4.592841,-0.000691,-1.901000,-0.051364,-0.024000,0.024566,1.224363,-0.011227,-1.646000,0.000637,0.014999,0.112240,-0.000169,0.000138,-0.913429,-0.074515,-0.000038,22743.000000,1691673429.853464,0.730743,-1.569998,0.000048,0.015771,0.000153,-0.000048,,,,,,,,,
1691673429.883409,,,,,,,,,,,,,,,,,,,,,,,,,,,,,,,,,,,,,,,,,,,44505.000000,1691673429.865188,0.000000,0.000000,0.000000,0.000000,0.000000,0.000000
1691673429.891011,0.161772,-0.029869,-0.000121,-29.105111,0.010000,-0.000200,-0.005520,0.000005,0.000046,0.005394,10.756669,0.000969,0.002697,39.294612,-0.000653,-0.496800,4.592851,0.002869,-1.891000,-0.045363,0.014000,0.020880,1.224363,-0.008272,-1.646000,-0.000364,0.004999,0.130640,-0.000154,0.000598,-0.834571,-0.074510,0.000038,22744.000000,1691673429.873467,0.636114,-1.569998,0.000048,-0.047314,0.000153,-0.000048,,,,,,,,,
1691673429.893214,,,,,,,,,,,,,,,,,,,,,,,,,,,,,,,,,,,,,,,,,,,44506.000000,1691673429.876653,0.000000,0.000000,0.000000,0.000000,0.000000,0.000000
1691673429.905391,,,,,,,,,,,,,,,,,,,,,,,,,,,,,,,,,,,,,,,,,,,44507.000000,1691673429.889284,0.000000,0.000000,0.000000,0.000000,0.000000,0.000000
1691673429.912946,0.776506,-0.029869,-0.000254,-29.687213,0.010000,-0.000008,-0.022080,0.000005,0.000046,0.013485,10.756669,0.000653,-0.005394,39.294612,-0.000653,-0.441600,4.592841,-0.004136,-1.891000,-0.045363,0.004000,0.018834,1.224363,-0.008272,-1.646000,-0.000364,0.004999,0.114080,-0.000154,0.000138,-0.998857,-0.074510,0.000038,22745.000000,1691673429.893466,0.688686,-1.569998,0.000048,-0.063086,0.000153,-0.000048,,,,,,,,,
1691673429.920053,,,,,,,,,,,,,,,,,,,,,,,,,,,,,,,,,,,,,,,,,,,44508.000000,1691673429.894938,0.000000,0.000000,0.000000,0.000000,0.000000,0.000000
1691673429.923641,,,,,,,,,,,,,,,,,,,,,,,,,,,,,,,,,,,,,,,,,,,44510.000000,1691673429.915045,0.000000,0.000000,0.000000,0.000000,0.000000,0.000000
1691673429.931816,1.019164,-0.030253,-0.000018,-29.105111,0.010000,-0.000008,0.033120,0.000005,0.000046,0.010788,10.756669,0.000653,-0.008091,39.294612,-0.000653,-0.287040,4.592841,-0.003225,-1.889000,-0.043955,0.013000,0.022109,1.224954,-0.005318,-1.646000,-0.000955,0.004999,0.119600,-0.000154,0.000138,-0.821429,-0.074510,0.000038,22746.000000,1691673429.913465,0.573029,-1.570003,-0.000048,-0.052571,0.000153,-0.000048,,,,,,,,,
1691673429.939000,,,,,,,,,,,,,,,,,,,,,,,,,,,,,,,,,,,,,,,,,,,44511.000000,1691673429.925023,0.000000,0.000000,0.000000,0.000000,0.000000,0.000000
1691673429.944247,,,,,,,,,,,,,,,,,,,,,,,,,,,,,,,,,,,,,,,,,,0.000000,,,,,,,,
1691673429.961533,,,,,,,,,,,,,,,,,,,,,,,,,,,,,,,,,,,,,,,,,,,44512.000000,1691673429.935169,0.000000,0.000000,0.000000,0.000000,0.000000,0.000000
1691673429.961544,0.663265,-0.029869,-0.000018,-28.814060,0.010000,-0.000008,-0.033120,0.000005,0.000046,0.010788,10.756669,0.001583,-0.005394,39.294612,-0.000653,-0.419520,4.592851,-0.004335,-1.883000,-0.040954,0.032000,0.022109,1.224954,-0.005318,-1.646000,-0.000955,0.004999,0.123280,-0.000154,0.000138,-0.972571,-0.074510,0.000038,22747.000000,1691673429.933463,0.672914,-1.570003,-0.000048,-0.084114,0.000153,-0.000048,,,,,,,,,
1691673429.975838,,,,,,,,,,,,,,,,,,,,,,,,,,,,,,,,,,,,,,,,,,,44514.000000,1691673429.956342,0.000000,0.000000,0.000000,0.000000,0.000000,0.000000
1691673429.978627,0.161772,-0.029869,-0.000282,-29.105111,0.010000,-0.000008,-0.060720,0.000005,0.000046,0.016182,10.756669,0.001781,-0.002697,39.294612,-0.000653,-0.132480,4.592851,0.002282,-1.883000,-0.040954,0.025000,0.024566,1.224954,-0.005318,-1.648000,-0.000955,0.004999,0.110400,-0.000154,0.000138,-0.512571,-0.074510,0.000038,22748.000000,1691673429.953485,0.709714,-1.570003,-0.000048,-0.015771,0.000153,-0.000048,,,,,,,,,
1691673429.978645,,,,,,,,,,,,,,,,,,,,,,,,,,,,,,,,,,,,,,,,,,,44515.000000,1691673429.965046,0.000000,0.000000,0.000000,0.000000,0.000000,0.000000
1691673429.997574,,,,,,,,,,,,,,,,,,,,,,,,,,,,,,,,,,,,,,,,,,,44516.000000,1691673429.975072,0.000000,0.000000,0.000000,0.000000,0.000000,0.000000
1691673429.998268,0.485316,-0.030253,-0.000363,-30.851417,0.010000,-0.000410,-0.049680,0.000005,0.000046,0.002697,10.756669,0.001009,-0.005394,39.294612,-0.000653,0.242880,4.592862,0.009822,-1.883000,-0.040954,0.023000,0.020880,1.224954,-0.005318,-1.649000,-0.001954,0.000000,0.121440,-0.000154,0.000138,-1.150000,-0.074515,-0.000038,22749.000000,1691673429.973473,0.820114,-1.570003,-0.000048,0.021029,0.000153,-0.000048,,,,,,,,,
1691673430.005419,,,,,,,,,,,,,,,,,,,,,,,,,,,,,,,,,,,,,,,,,,,44518.000000,1691673429.994935,0.000000,0.000000,0.000000,0.000000,0.000000,0.000000
1691673430.009739,0.080886,-0.029869,-0.000060,-29.978264,0.010001,0.000008,-0.055200,0.000005,0.000046,0.005394,10.756669,0.001207,-0.005394,39.294612,-0.000653,0.000000,4.592862,0.004701,-1.886000,-0.043545,0.010999,0.021288,1.225545,-0.002363,-1.649000,-0.002545,0.000000,0.119600,-0.000138,0.000138,-0.742571,-0.074515,-0.000038,22750.000000,1691673429.993466,0.793829,-1.570003,-0.000048,-0.042057,0.000153,-0.000048,,,,,,,,,
1691673430.018852,,,,,,,,,,,,,,,,,,,,,,,,,,,,,,,,,,,,,,,,,,,44519.000000,1691673430.006338,0.000000,0.000000,0.000000,0.000000,0.000000,0.000000
1691673430.034769,,,,,,,,,,,,,,,,,,,,,,,,,,,,,,,,,,,,,,,,,,,44520.000000,1691673430.014966,0.000000,0.000000,0.000000,0.000000,0.000000,0.000000
1691673430.041573,1.229467,-0.030253,-0.000052,-31.433519,0.010001,0.000008,-0.082800,0.000005,0.000046,0.010788,10.756669,0.000653,-0.008091,39.294612,-0.000653,-0.386400,4.592862,0.003864,-1.889000,-0.046137,0.010999,0.023337,1.226136,-0.002363,-1.659000,-0.010137,0.000000,0.112240,-0.000138,0.000138,-0.841143,-0.074515,-0.000790,22751.000000,1691673430.013464,0.720229,-1.570003,-0.000048,0.000000,0.000153,-0.000048,,,,,,,,,
1691673430.045256,,,,,,,,,,,,,,,,,,,,,,,,,,,,,,,,,,,,,,,,,,,44521.000000,1691673430.025280,0.000000,0.000000,0.000000,0.000000,0.000000,0.000000
1691673430.048005,,,,,,,,,,,,,,,,,,,,,,,,,,,,,,,,,,,,,,,,,,0.000000,,,,,,,,
1691673430.049553,0.016177,-0.029869,-0.000199,-30.269315,0.010001,0.000008,-0.027600,0.000005,0.000046,0.013485,10.756669,0.001108,-0.002697,39.294612,-0.000653,-0.088320,4.592851,0.004764,-1.888000,-0.044136,0.001000,0.023337,1.226136,0.000590,-1.659000,-0.009136,-0.035000,0.125120,-0.000123,0.001165,-1.005429,-0.074515,-0.000304,22752.000000,1691673430.023481,0.736000,-1.570003,-0.000048,-0.021029,0.000153,-0.000048,,,,,,,,,
1691673430.050625,,,,,,,,,,,,,,,,,,,,,,,,,,,,,,,,,,,,,,,,,,,44522.000000,1691673430.035020,0.000000,0.000000,0.000000,0.000000,0.000000,0.000000
1691673430.057636,,,,,,,,,,,,,,,,,,,,,,,,,,,,,,,,,,,,,,,,,,,44523.000000,1691673430.045043,0.000000,0.000000,0.000000,0.000000,0.000000,0.000000
1691673430.066771,,,,,,,,,,,,,,,,,,,,,,,,,,,,,,,,,,,,,,,,,,,44524.000000,1691673430.054931,0.000000,0.000000,0.000000,0.000000,0.000000,0.000000
1691673430.075284,-0.048532,-0.029869,-0.000018,-31.724571,0.010001,0.000008,-0.121440,0.000005,0.000046,0.013485,10.756669,0.000653,0.000000,39.294612,-0.000653,-0.022080,4.592841,0.002848,-1.889000,-0.044727,0.009999,0.022517,1.226727,0.002954,-1.661000,-0.007728,-0.027000,0.145360,-0.000123,0.000138,-0.992286,-0.074510,0.001468,22753.000000,1691673430.053463,0.646629,-1.570003,-0.000048,-0.073600,0.000153,-0.000048,,,,,,,,,
1691673430.077529,,,,,,,,,,,,,,,,,,,,,,,,,,,,,,,,,,,,,,,,,,,44525.000000,1691673430.067295,0.000000,0.000000,0.000000,0.000000,0.000000,0.000000
1691673430.084401,,,,,,,,,,,,,,,,,,,,,,,,,,,,,,,,,,,,,,,,,,,44526.000000,1691673430.075187,0.000000,0.000000,0.000000,0.000000,0.000000,0.000000
1691673430.085281,0.064709,-0.029869,-0.000832,-32.015622,0.010001,0.000008,-0.077280,0.000005,0.000046,0.005394,10.756669,0.001088,0.000000,39.294612,-0.000653,-0.187680,4.592851,0.005330,-1.891000,-0.045728,0.004999,0.023337,1.226727,0.002954,-1.661000,-0.007728,-0.016000,0.143520,-0.000123,0.000138,-0.985714,-0.074510,0.000038,22754.000000,1691673430.073460,0.599314,-1.570003,-0.000048,-0.105143,0.000153,-0.000048,,,,,,,,,
1691673430.096077,,,,,,,,,,,,,,,,,,,,,,,,,,,,,,,,,,,,,,,,,,,44527.000000,1691673430.085033,0.000000,0.000000,0.000000,0.000000,0.000000,0.000000
1691673430.108295,,,,,,,,,,,,,,,,,,,,,,,,,,,,,,,,,,,,,,,,,,,44528.000000,1691673430.094932,0.000000,0.000000,0.000000,0.000000,0.000000,0.000000
1691673430.108311,1.714783,-0.030253,0.000147,-32.306673,0.010001,0.000008,-0.093840,0.000005,0.000046,0.010788,10.756669,0.000653,0.000000,39.294612,-0.000653,-0.342240,4.592841,-0.009068,-1.894000,-0.048728,0.000000,0.022517,1.226727,0.002954,-1.661000,-0.007728,-0.016000,0.149040,-0.000123,0.000138,-0.979143,-0.074510,0.000038,22755.000000,1691673430.093457,0.693943,-1.570003,-0.000048,-0.063086,0.000153,-0.000048,,,,,,,,,
1691673430.118822,,,,,,,,,,,,,,,,,,,,,,,,,,,,,,,,,,,,,,,,,,,44529.000000,1691673430.105340,0.000000,0.000000,0.000000,0.000000,0.000000,0.000000
1691673430.129114,,,,,,,,,,,,,,,,,,,,,,,,,,,,,,,,,,,,,,,,,,,44530.000000,1691673430.116502,0.000000,0.000000,0.000000,0.000000,0.000000,0.000000
1691673430.129128,1.019164,-0.029869,-0.000678,-33.761928,0.010001,0.000008,-0.154560,0.000000,-0.000046,0.008091,10.756669,0.001207,-0.002697,39.294612,-0.000653,-0.033120,4.592851,0.001120,-1.898000,-0.050137,-0.008999,0.020880,1.226136,0.000000,-1.664000,-0.007137,-0.016000,0.128800,-0.000123,0.000138,-1.077714,-0.074510,0.000038,22756.000000,1691673430.113470,0.714971,-1.570003,-0.000048,-0.052571,0.000153,-0.000048,,,,,,,,,
1691673430.138509,,,,,,,,,,,,,,,,,,,,,,,,,,,,,,,,,,,,,,,,,,,44531.000000,1691673430.125138,0.000000,0.000000,0.000000,0.000000,0.000000,0.000000
1691673430.147697,,,,,,,,,,,,,,,,,,,,,,,,,,,,,,,,,,,,,,,,,,,44532.000000,1691673430.135067,0.000000,0.000000,0.000000,0.000000,0.000000,0.000000
1691673430.147706,0.857392,-0.029869,-0.000638,-32.888775,0.010000,-0.000008,-0.132480,0.000000,-0.000046,0.018879,10.756669,0.001979,-0.008091,39.294612,-0.000653,-0.099360,4.592841,-0.001528,-1.899000,-0.050137,-0.017999,0.021288,1.226136,0.000000,-1.662000,-0.006136,-0.010999,0.149040,-0.000108,0.004371,-0.998857,-0.074510,0.000038,22757.000000,1691673430.133465,0.830629,-1.570003,-0.000048,0.063086,0.000153,-0.000048,,,,,,,,,
1691673430.160518,,,,,,,,,,,,,,,,,,,,,,,,,,,,,,,,,,,,,,,,,,,44533.000000,1691673430.145432,0.000000,0.000000,0.000000,0.000000,0.000000,0.000000
1691673430.160534,,,,,,,,,,,,,,,,,,,,,,,,,,,,,,,,,,,,,,,,,,0.000000,,,,,,,,
1691673430.166859,-0.097063,-0.029869,-0.000018,-32.306673,0.010000,-0.000008,-0.143520,0.000000,-0.000046,0.008091,10.756669,0.000692,-0.008091,39.294612,-0.000653,-0.165600,4.592841,-0.004136,-1.898000,-0.050137,-0.017999,0.019242,1.226136,0.000000,-1.656000,-0.002137,-0.010999,0.165600,-0.000108,0.000138,-0.946286,-0.074510,0.000038,22758.000000,1691673430.153472,0.714971,-1.570003,-0.000048,0.063086,-0.000228,-0.000048,,,,,,,,,
1691673430.168528,,,,,,,,,,,,,,,,,,,,,,,,,,,,,,,,,,,,,,,,,,,44534.000000,1691673430.155021,0.000000,0.000000,0.000000,0.000000,0.000000,0.000000
1691673430.182089,,,,,,,,,,,,,,,,,,,,,,,,,,,,,,,,,,,,,,,,,,,44535.000000,1691673430.165027,0.000000,0.000000,0.000000,0.000000,0.000000,0.000000
1691673430.187853,0.647088,-0.030253,0.000026,-32.015622,0.010000,-0.000008,-0.126960,0.000000,-0.000046,0.013485,10.756669,0.000653,-0.005394,39.294612,-0.000653,-0.187680,4.592851,0.001623,-1.894000,-0.047136,-0.003000,0.018834,1.226136,0.000000,-1.656000,-0.002137,0.008999,0.172960,-0.000108,0.000138,-0.880571,-0.074510,0.000038,22759.000000,1691673430.173460,0.620343,-1.570003,-0.000048,0.105143,-0.000228,-0.000048,,,,,,,,,
1691673430.189457,,,,,,,,,,,,,,,,,,,,,,,,,,,,,,,,,,,,,,,,,,,44536.000000,1691673430.174963,0.000000,0.000000,0.000000,0.000000,0.000000,0.000000
1691673430.200185,,,,,,,,,,,,,,,,,,,,,,,,,,,,,,,,,,,,,,,,,,,44537.000000,1691673430.185702,0.000000,0.000000,0.000000,0.000000,0.000000,0.000000
1691673430.214087,,,,,,,,,,,,,,,,,,,,,,,,,,,,,,,,,,,,,,,,,,,44538.000000,1691673430.195179,0.000000,0.000000,0.000000,0.000000,0.000000,0.000000
1691673430.214255,1.326531,-0.029869,0.001191,-32.888775,0.010000,-0.000008,-0.171120,0.000000,-0.000046,0.008091,10.756669,0.000653,-0.002697,39.294612,-0.000653,-0.110400,4.592841,-0.003979,-1.894000,-0.046545,-0.003000,0.018834,1.225545,-0.002954,-1.654000,-0.001546,0.008999,0.143520,-0.000108,0.000138,-1.058000,-0.074510,0.000038,22760.000000,1691673430.193460,0.762286,-1.570003,-0.000048,-0.026286,0.000153,-0.000048,,,,,,,,,
1691673430.224422,,,,,,,,,,,,,,,,,,,,,,,,,,,,,,,,,,,,,,,,,,,44539.000000,1691673430.205063,0.000000,0.000000,0.000000,0.000000,0.000000,0.000000
1691673430.227895,,,,,,,,,,,,,,,,,,,,,,,,,,,,,,,,,,,,,,,,,,,44540.000000,1691673430.215094,0.000000,0.000000,0.000000,0.000000,0.000000,0.000000
1691673430.229391,0.032354,-0.029869,-0.000034,-31.724571,0.010000,-0.000008,0.005520,0.000000,-0.000046,0.008091,10.756669,0.000653,-0.002697,39.294632,0.003562,-0.353280,4.592851,0.003183,-1.894000,-0.046545,-0.003000,0.022109,1.225545,-0.002954,-1.651000,0.000454,0.008999,0.182160,-0.000108,0.000138,-1.018571,-0.074515,-0.002233,22761.000000,1691673430.213462,0.778057,-1.570003,-0.000048,-0.031543,0.000153,-0.000048,,,,,,,,,
1691673430.236492,,,,,,,,,,,,,,,,,,,,,,,,,,,,,,,,,,,,,,,,,,,44541.000000,1691673430.225060,0.000000,0.000000,0.000000,0.000000,0.000000,0.000000
1691673430.247754,,,,,,,,,,,,,,,,,,,,,,,,,,,,,,,,,,,,,,,,,,,44542.000000,1691673430.235151,0.000000,0.000000,0.000000,0.000000,0.000000,0.000000
1691673430.254486,0.129418,-0.029869,-0.000018,-32.015622,0.010000,-0.000008,-0.077280,-0.000005,-0.000046,0.010788,10.756649,-0.003562,-0.008091,39.294612,-0.000653,-0.463680,4.592841,-0.003110,-1.889000,-0.043545,-0.003000,0.023337,1.225545,-0.002954,-1.654000,-0.001546,0.013000,0.141680,-0.000092,0.000138,-0.959429,-0.074510,0.000038,22762.000000,1691673430.233464,0.746514,-1.570003,-0.000048,-0.047314,0.000153,-0.004488,,,,,,,,,
1691673430.259686,,,,,,,,,,,,,,,,,,,,,,,,,,,,,,,,,,,,,,,,,,,44543.000000,1691673430.245186,0.000000,0.000000,0.000000,0.000000,0.000000,0.000000
1691673430.267308,,,,,,,,,,,,,,,,,,,,,,,,,,,,,,,,,,,,,,,,,,0.000000,,,,,,,,
1691673430.268226,,,,,,,,,,,,,,,,,,,,,,,,,,,,,,,,,,,,,,,,,,,44544.000000,1691673430.255494,0.000000,0.000000,0.000000,0.000000,0.000000,0.000000
1691673430.268312,0.177949,-0.029869,-0.000412,-31.724571,0.010000,-0.000008,-0.071760,-0.000005,-0.000046,0.323640,10.768882,0.871182,0.145638,39.307100,0.857109,0.000000,4.592998,0.013446,-1.889000,-0.043955,0.012000,0.024154,1.224954,-0.002954,-1.654000,-0.002954,0.008000,0.147200,-0.000092,0.000138,-1.005429,-0.074510,0.000038,22763.000000,1691673430.253469,0.799086,-1.570003,-0.000048,-0.015771,0.000153,-0.000048,,,,,,,,,
1691673430.280179,,,,,,,,,,,,,,,,,,,,,,,,,,,,,,,,,,,,,,,,,,,44545.000000,1691673430.265182,0.000000,0.000000,0.000000,0.000000,0.000000,0.000000
1691673430.292265,,,,,,,,,,,,,,,,,,,,,,,,,,,,,,,,,,,,,,,,,,,44546.000000,1691673430.275339,0.000000,0.000000,0.000000,0.000000,0.000000,0.000000
1691673430.294396,-0.145595,-0.029869,-0.000018,-31.433519,0.010000,-0.000008,-0.149040,-0.000005,-0.000046,0.989799,10.797641,1.709923,0.310155,39.336376,1.735595,-0.927360,4.593574,0.027656,-1.891000,-0.046545,0.007000,0.024154,1.225545,-0.005318,-1.654000,-0.003545,-0.002000,0.020240,0.000292,0.029544,-1.018571,-0.074510,0.000038,22764.000000,1691673430.273468,0.709714,-1.570003,-0.000048,-0.110400,0.000153,-0.000612,,,,,,,,,
1691673430.298848,,,,,,,,,,,,,,,,,,,,,,,,,,,,,,,,,,,,,,,,,,,44547.000000,1691673430.285211,0.000000,0.000000,0.000000,0.000000,0.000000,0.000000
1691673430.312129,,,,,,,,,,,,,,,,,,,,,,,,,,,,,,,,,,,,,,,,,,,44548.000000,1691673430.295036,0.000000,0.000000,0.000000,0.000000,0.000000,0.000000
1691673430.312159,-0.145595,-0.029869,-0.000018,-31.724571,0.010000,-0.000008,0.011040,-0.000005,-0.000046,0.811797,10.842374,2.565390,2.082084,39.377228,2.036156,0.761760,4.594234,0.018462,-1.898000,-0.050546,-0.007000,0.023746,1.225545,-0.002363,-1.654000,-0.003545,-0.002000,0.093840,0.000460,-0.001687,-0.939714,-0.074515,-0.000038,22765.000000,1691673430.293459,0.762286,-1.570003,-0.000048,-0.063086,0.000153,-0.000048,,,,,,,,,
1691673430.321852,,,,,,,,,,,,,,,,,,,,,,,,,,,,,,,,,,,,,,,,,,,44549.000000,1691673430.305180,0.000000,0.000000,0.000000,0.000000,0.000000,0.000000
1691673430.327258,,,,,,,,,,,,,,,,,,,,,,,,,,,,,,,,,,,,,,,,,,,44550.000000,1691673430.316658,0.000000,0.000000,0.000000,0.000000,0.000000,0.000000
1691673430.327268,0.194126,-0.029869,-0.001631,-31.433519,0.010000,-0.000008,-0.038640,-0.000005,-0.000046,1.815081,10.903912,3.338892,1.192074,39.412992,1.788483,0.463680,4.593343,-0.050317,-1.901000,-0.052136,-0.024000,0.019242,1.226136,0.000590,-1.654000,-0.004136,-0.006000,0.176640,0.000307,-0.025694,-0.900286,-0.074515,-0.000038,22766.000000,1691673430.313466,0.793829,-1.570003,-0.000048,-0.120914,0.000153,-0.000048,,,,,,,,,
1691673430.337833,,,,,,,,,,,,,,,,,,,,,,,,,,,,,,,,,,,,,,,,,,,44551.000000,1691673430.325140,0.000000,0.000000,0.000000,0.000000,0.000000,0.000000
1691673430.345895,,,,,,,,,,,,,,,,,,,,,,,,,,,,,,,,,,,,,,,,,,,44552.000000,1691673430.334946,0.000000,0.000000,0.000000,0.000000,0.000000,0.000000
1691673430.347347,2.685416,-0.031788,0.005287,-30.560366,0.010000,-0.000008,-0.684480,0.000164,-0.032873,1.863627,10.970773,3.380913,1.011375,39.448780,1.846378,1.313760,4.591197,-0.099986,-1.901000,-0.051137,-0.017000,0.022109,1.226136,0.000590,-1.661000,-0.008136,-0.029999,0.189520,-0.000460,-0.005322,-0.992286,-0.074515,-0.000038,22767.000000,1691673430.333462,0.746514,-1.570003,-0.000048,0.073600,-0.000228,-0.000048,,,,,,,,,
1691673430.355565,,,,,,,,,,,,,,,,,,,,,,,,,,,,,,,,,,,,,,,,,,,44553.000000,1691673430.345413,0.000000,0.000000,0.000000,0.000000,0.000000,0.000000
