__time,/hsrb/wrist_wrench/compensated/header/seq,/hsrb/wrist_wrench/compensated/header/stamp,/hsrb/wrist_wrench/compensated/wrench/force/x,/hsrb/wrist_wrench/compensated/wrench/force/y,/hsrb/wrist_wrench/compensated/wrench/force/z,/hsrb/wrist_wrench/compensated/wrench/torque/x,/hsrb/wrist_wrench/compensated/wrench/torque/y,/hsrb/wrist_wrench/compensated/wrench/torque/z,/rosout/header/seq,/rosout/header/stamp,/rosout/level,/rosout/line,/rosout_agg/header/seq,/rosout_agg/header/stamp,/rosout_agg/level,/rosout_agg/line
1697105439.770101,,,,,,,,,538.000000,1697105439.769853,2.000000,30.000000,,,,
1697105439.782617,,,,,,,,,539.000000,1697105439.782119,2.000000,30.000000,,,,
1697105439.784099,,,,,,,,,,,,,1522.000000,1697105439.769853,2.000000,30.000000
1697105439.806386,,,,,,,,,,,,,1523.000000,1697105439.782119,2.000000,30.000000
1697105439.806820,,,,,,,,,540.000000,1697105439.806563,2.000000,30.000000,,,,
1697105439.817626,,,,,,,,,,,,,1524.000000,1697105439.806563,2.000000,30.000000
1697105439.820036,,,,,,,,,541.000000,1697105439.819746,2.000000,30.000000,,,,
1697105439.829185,,,,,,,,,,,,,1525.000000,1697105439.819746,2.000000,30.000000
1697105439.838354,,,,,,,,,542.000000,1697105439.838201,2.000000,209.000000,,,,
1697105439.865846,,,,,,,,,543.000000,1697105439.865576,2.000000,30.000000,,,,
1697105439.867423,,,,,,,,,,,,,1526.000000,1697105439.838201,2.000000,209.000000
1697105439.877096,,,,,,,,,,,,,1527.000000,1697105439.865576,2.000000,30.000000
1697105439.877451,,,,,,,,,544.000000,1697105439.877292,4.000000,34.000000,,,,
1697105439.888556,,,,,,,,,,,,,1528.000000,1697105439.877292,4.000000,34.000000
1697105439.890667,,,,,,,,,545.000000,1697105439.890471,4.000000,34.000000,,,,
1697105439.910012,,,,,,,,,,,,,1529.000000,1697105439.890471,4.000000,34.000000
1697105441.983111,,,,,,,,,546.000000,1697105441.982805,2.000000,30.000000,,,,
1697105442.024054,,,,,,,,,,,,,1530.000000,1697105441.982805,2.000000,30.000000
1697105442.024668,,,,,,,,,547.000000,1697105442.024367,2.000000,30.000000,,,,
1697105442.047791,,,,,,,,,,,,,1531.000000,1697105442.024367,2.000000,30.000000
1697105442.048704,,,,,,,,,548.000000,1697105442.048243,2.000000,30.000000,,,,
1697105442.070113,,,,,,,,,549.000000,1697105442.069803,2.000000,30.000000,,,,
1697105442.070680,,,,,,,,,,,,,1532.000000,1697105442.048243,2.000000,30.000000
1697105442.082140,,,,,,,,,,,,,1533.000000,1697105442.069803,2.000000,30.000000
1697105442.084212,,,,,,,,,550.000000,1697105442.083219,2.000000,30.000000,,,,
1697105442.102104,,,,,,,,,,,,,1534.000000,1697105442.083219,2.000000,30.000000
1697105442.144834,,,,,,,,,551.000000,1697105442.144586,2.000000,30.000000,,,,
1697105442.162401,,,,,,,,,,,,,1535.000000,1697105442.144586,2.000000,30.000000
1697105442.163283,,,,,,,,,552.000000,1697105442.163028,2.000000,30.000000,,,,
1697105442.177824,,,,,,,,,,,,,1536.000000,1697105442.163028,2.000000,30.000000
1697105442.178251,,,,,,,,,553.000000,1697105442.177958,2.000000,30.000000,,,,
1697105442.200979,,,,,,,,,,,,,1537.000000,1697105442.177958,2.000000,30.000000
1697105442.201689,,,,,,,,,554.000000,1697105442.201515,2.000000,30.000000,,,,
1697105442.223318,,,,,,,,,,,,,1538.000000,1697105442.201515,2.000000,30.000000
1697105442.331119,,,,,,,,,555.000000,1697105442.330876,2.000000,30.000000,,,,
1697105442.340432,,,,,,,,,,,,,1539.000000,1697105442.330876,2.000000,30.000000
1697105442.340811,,,,,,,,,556.000000,1697105442.340597,2.000000,30.000000,,,,
1697105442.355367,,,,,,,,,,,,,1540.000000,1697105442.340597,2.000000,30.000000
1697105442.356473,,,,,,,,,557.000000,1697105442.355690,2.000000,30.000000,,,,
1697105442.373677,,,,,,,,,,,,,1541.000000,1697105442.355690,2.000000,30.000000
1697105442.376433,,,,,,,,,558.000000,1697105442.375625,2.000000,30.000000,,,,
1697105442.394192,,,,,,,,,,,,,1542.000000,1697105442.375625,2.000000,30.000000
1697105442.394830,,,,,,,,,559.000000,1697105442.394412,2.000000,30.000000,,,,
1697105442.418158,,,,,,,,,,,,,1543.000000,1697105442.394412,2.000000,30.000000
1697105442.749274,,,,,,,,,560.000000,1697105442.748597,2.000000,30.000000,,,,
1697105442.774637,,,,,,,,,561.000000,1697105442.774094,2.000000,30.000000,,,,
1697105442.775893,,,,,,,,,,,,,1544.000000,1697105442.748597,2.000000,30.000000
1697105442.793612,,,,,,,,,,,,,1545.000000,1697105442.774094,2.000000,30.000000
1697105442.802456,,,,,,,,,562.000000,1697105442.802033,2.000000,30.000000,,,,
1697105442.822574,,,,,,,,,,,,,1546.000000,1697105442.802033,2.000000,30.000000
1697105443.266671,,,,,,,,,563.000000,1697105443.266318,2.000000,30.000000,,,,
1697105443.289801,,,,,,,,,,,,,1547.000000,1697105443.266318,2.000000,30.000000
1697105443.290209,,,,,,,,,564.000000,1697105443.289905,2.000000,30.000000,,,,
1697105443.304339,,,,,,,,,,,,,1548.000000,1697105443.289905,2.000000,30.000000
1697105443.318118,,,,,,,,,28.000000,1697105443.306613,4.000000,357.000000,,,,
1697105443.318203,,,,,,,,,,,,,1549.000000,1697105443.306613,4.000000,357.000000
1697105443.320450,,,,,,,,,565.000000,1697105443.320103,2.000000,30.000000,,,,
1697105443.341876,,,,,,,,,,,,,1550.000000,1697105443.320103,2.000000,30.000000
1697105443.341957,,,,,,,,,29.000000,1697105443.327948,4.000000,82.000000,,,,
1697105443.342052,,,,,,,,,,,,,1551.000000,1697105443.327948,4.000000,82.000000
1697105443.342422,,,,,,,,,566.000000,1697105443.342180,2.000000,30.000000,,,,
1697105443.372865,,,,,,,,,,,,,1552.000000,1697105443.342180,2.000000,30.000000
1697105444.189483,,,,,,,,,567.000000,1697105444.189224,2.000000,30.000000,,,,
1697105444.208479,,,,,,,,,,,,,1553.000000,1697105444.189224,2.000000,30.000000
1697105444.228875,,,,,,,,,568.000000,1697105444.228488,2.000000,30.000000,,,,
1697105444.257670,,,,,,,,,,,,,1554.000000,1697105444.228488,2.000000,30.000000
1697105444.258352,,,,,,,,,569.000000,1697105444.258172,4.000000,34.000000,,,,
1697105444.275453,,,,,,,,,,,,,1555.000000,1697105444.258172,4.000000,34.000000
1697105444.277431,,,,,,,,,570.000000,1697105444.276976,4.000000,34.000000,,,,
1697105444.297418,,,,,,,,,,,,,1556.000000,1697105444.276976,4.000000,34.000000
1697105444.298025,,,,,,,,,571.000000,1697105444.297850,4.000000,34.000000,,,,
1697105444.330362,,,,,,,,,572.000000,1697105444.329950,4.000000,34.000000,,,,
1697105444.330476,,,,,,,,,,,,,1557.000000,1697105444.297850,4.000000,34.000000
1697105444.366781,,,,,,,,,,,,,1558.000000,1697105444.329950,4.000000,34.000000
1697105444.367297,,,,,,,,,573.000000,1697105444.366510,2.000000,30.000000,,,,
1697105444.391081,,,,,,,,,,,,,1559.000000,1697105444.366510,2.000000,30.000000
1697105444.392734,,,,,,,,,574.000000,1697105444.391214,4.000000,34.000000,,,,
1697105444.409810,,,,,,,,,,,,,1560.000000,1697105444.391214,4.000000,34.000000
1697105446.417412,,,,,,,,,575.000000,1697105446.417084,2.000000,30.000000,,,,
1697105446.437284,,,,,,,,,,,,,1561.000000,1697105446.417084,2.000000,30.000000
1697105446.437920,,,,,,,,,576.000000,1697105446.437433,2.000000,30.000000,,,,
1697105446.456254,,,,,,,,,,,,,1562.000000,1697105446.437433,2.000000,30.000000
1697105446.456619,,,,,,,,,577.000000,1697105446.456406,2.000000,30.000000,,,,
1697105446.472182,,,,,,,,,,,,,1563.000000,1697105446.456406,2.000000,30.000000
1697105446.472474,,,,,,,,,578.000000,1697105446.472325,2.000000,30.000000,,,,
1697105446.488994,,,,,,,,,,,,,1564.000000,1697105446.472325,2.000000,30.000000
1697105446.491720,,,,,,,,,579.000000,1697105446.491094,2.000000,30.000000,,,,
1697105446.514485,,,,,,,,,,,,,1565.000000,1697105446.491094,2.000000,30.000000
1697105446.518849,,,,,,,,,580.000000,1697105446.518447,2.000000,30.000000,,,,
1697105446.540207,,,,,,,,,,,,,1566.000000,1697105446.518447,2.000000,30.000000
1697105446.541013,,,,,,,,,581.000000,1697105446.540660,4.000000,34.000000,,,,
1697105446.560519,,,,,,,,,,,,,1567.000000,1697105446.540660,4.000000,34.000000
1697105446.578245,,,,,,,,,582.000000,1697105446.576750,4.000000,34.000000,,,,
1697105446.633381,,,,,,,,,,,,,1568.000000,1697105446.576750,4.000000,34.000000
1697105919.087936,260741.000000,1697105919.073313,0.000000,0.000000,0.000000,0.000000,0.000000,0.000000,,,,,,,,
1697105919.092329,260742.000000,1697105919.083304,0.000000,0.000000,0.000000,0.000000,0.000000,0.000000,,,,,,,,
1697105919.101574,260743.000000,1697105919.093142,0.000000,0.000000,0.000000,0.000000,0.000000,0.000000,,,,,,,,
1697105919.109156,260744.000000,1697105919.103125,0.000000,0.000000,0.000000,0.000000,0.000000,0.000000,,,,,,,,
1697105919.122027,260745.000000,1697105919.113164,0.000000,0.000000,0.000000,0.000000,0.000000,0.000000,,,,,,,,
1697105919.135156,260746.000000,1697105919.123169,0.000000,0.000000,0.000000,0.000000,0.000000,0.000000,,,,,,,,
1697105919.143774,260747.000000,1697105919.133345,0.000000,0.000000,0.000000,0.000000,0.000000,0.000000,,,,,,,,
1697105919.151231,260748.000000,1697105919.143296,0.000000,0.000000,0.000000,0.000000,0.000000,0.000000,,,,,,,,
1697105919.170802,260749.000000,1697105919.153077,0.000000,0.000000,0.000000,0.000000,0.000000,0.000000,,,,,,,,
1697105919.182827,260750.000000,1697105919.163239,0.000000,0.000000,0.000000,0.000000,0.000000,0.000000,,,,,,,,
1697105919.186945,260751.000000,1697105919.174196,0.000000,0.000000,0.000000,0.000000,0.000000,0.000000,,,,,,,,
1697105919.195215,260752.000000,1697105919.183557,0.000000,0.000000,0.000000,0.000000,0.000000,0.000000,,,,,,,,
1697105919.204740,260753.000000,1697105919.193189,0.000000,0.000000,0.000000,0.000000,0.000000,0.000000,,,,,,,,
1697105919.214386,260754.000000,1697105919.203560,0.000000,0.000000,0.000000,0.000000,0.000000,0.000000,,,,,,,,
1697105919.223868,260755.000000,1697105919.214921,0.000000,0.000000,0.000000,0.000000,0.000000,0.000000,,,,,,,,
1697105919.237439,260756.000000,1697105919.223301,0.000000,0.000000,0.000000,0.000000,0.000000,0.000000,,,,,,,,
1697105919.248462,260757.000000,1697105919.233733,0.000000,0.000000,0.000000,0.000000,0.000000,0.000000,,,,,,,,
1697105919.257684,260758.000000,1697105919.243423,0.000000,0.000000,0.000000,0.000000,0.000000,0.000000,,,,,,,,
1697105919.277165,260759.000000,1697105919.253189,0.000000,0.000000,0.000000,0.000000,0.000000,0.000000,,,,,,,,
1697105919.281185,260760.000000,1697105919.263236,0.000000,0.000000,0.000000,0.000000,0.000000,0.000000,,,,,,,,
1697105919.295236,260761.000000,1697105919.273706,0.000000,0.000000,0.000000,0.000000,0.000000,0.000000,,,,,,,,
1697105919.299039,260762.000000,1697105919.283238,0.000000,0.000000,0.000000,0.000000,0.000000,0.000000,,,,,,,,
1697105919.314865,260764.000000,1697105919.303271,0.000000,0.000000,0.000000,0.000000,0.000000,0.000000,,,,,,,,
1697105919.327847,260765.000000,1697105919.314081,0.000000,0.000000,0.000000,0.000000,0.000000,0.000000,,,,,,,,
1697105919.342628,260766.000000,1697105919.323137,0.000000,0.000000,0.000000,0.000000,0.000000,0.000000,,,,,,,,
1697105919.351393,260768.000000,1697105919.343273,0.000000,0.000000,0.000000,0.000000,0.000000,0.000000,,,,,,,,
1697105919.365387,260769.000000,1697105919.353314,0.000000,0.000000,0.000000,0.000000,0.000000,0.000000,,,,,,,,
1697105919.374767,260770.000000,1697105919.364079,0.000000,0.000000,0.000000,0.000000,0.000000,0.000000,,,,,,,,
1697105919.384440,260771.000000,1697105919.373183,0.000000,0.000000,0.000000,0.000000,0.000000,0.000000,,,,,,,,
1697105919.399095,260772.000000,1697105919.383378,0.000000,0.000000,0.000000,0.000000,0.000000,0.000000,,,,,,,,
1697105919.406866,260773.000000,1697105919.393147,0.000000,0.000000,0.000000,0.000000,0.000000,0.000000,,,,,,,,
1697105919.416106,260774.000000,1697105919.403293,0.000000,0.000000,0.000000,0.000000,0.000000,0.000000,,,,,,,,
1697105919.426275,260775.000000,1697105919.413178,0.000000,0.000000,0.000000,0.000000,0.000000,0.000000,,,,,,,,
1697105919.436851,260776.000000,1697105919.423252,0.000000,0.000000,0.000000,0.000000,0.000000,0.000000,,,,,,,,
1697105919.448203,260777.000000,1697105919.433259,0.000000,0.000000,0.000000,0.000000,0.000000,0.000000,,,,,,,,
1697105919.455555,260778.000000,1697105919.443369,0.000000,0.000000,0.000000,0.000000,0.000000,0.000000,,,,,,,,
1697105919.467698,260779.000000,1697105919.456761,0.000000,0.000000,0.000000,0.000000,0.000000,0.000000,,,,,,,,
1697105919.478128,260780.000000,1697105919.463410,0.000000,0.000000,0.000000,0.000000,0.000000,0.000000,,,,,,,,
1697105919.490487,260781.000000,1697105919.481413,0.000000,0.000000,0.000000,0.000000,0.000000,0.000000,,,,,,,,
1697105919.493050,260782.000000,1697105919.483435,0.000000,0.000000,0.000000,0.000000,0.000000,0.000000,,,,,,,,
1697105919.504498,260783.000000,1697105919.493658,0.000000,0.000000,0.000000,0.000000,0.000000,0.000000,,,,,,,,
1697105919.521321,260784.000000,1697105919.504368,0.000000,0.000000,0.000000,0.000000,0.000000,0.000000,,,,,,,,
1697105919.530588,260785.000000,1697105919.513177,0.000000,0.000000,0.000000,0.000000,0.000000,0.000000,,,,,,,,
1697105919.540411,260786.000000,1697105919.523297,0.000000,0.000000,0.000000,0.000000,0.000000,0.000000,,,,,,,,
1697105919.549340,260787.000000,1697105919.533130,0.000000,0.000000,0.000000,0.000000,0.000000,0.000000,,,,,,,,
1697105919.559722,260788.000000,1697105919.543272,0.000000,0.000000,0.000000,0.000000,0.000000,0.000000,,,,,,,,
1697105919.565421,260789.000000,1697105919.553171,0.000000,0.000000,0.000000,0.000000,0.000000,0.000000,,,,,,,,
1697105919.584525,260790.000000,1697105919.563552,0.000000,0.000000,0.000000,0.000000,0.000000,0.000000,,,,,,,,
1697105919.592873,260791.000000,1697105919.573123,0.000000,0.000000,0.000000,0.000000,0.000000,0.000000,,,,,,,,
1697105919.600744,260792.000000,1697105919.583704,0.000000,0.000000,0.000000,0.000000,0.000000,0.000000,,,,,,,,
1697105919.607715,260793.000000,1697105919.593378,0.000000,0.000000,0.000000,0.000000,0.000000,0.000000,,,,,,,,
1697105919.614278,260794.000000,1697105919.603138,0.000000,0.000000,0.000000,0.000000,0.000000,0.000000,,,,,,,,
1697105919.623408,260795.000000,1697105919.613187,0.000000,0.000000,0.000000,0.000000,0.000000,0.000000,,,,,,,,
1697105919.635234,260796.000000,1697105919.623137,0.000000,0.000000,0.000000,0.000000,0.000000,0.000000,,,,,,,,
1697105919.646823,260797.000000,1697105919.633164,0.000000,0.000000,0.000000,0.000000,0.000000,0.000000,,,,,,,,
1697105919.657160,260798.000000,1697105919.643183,0.000000,0.000000,0.000000,0.000000,0.000000,0.000000,,,,,,,,
1697105919.666363,260799.000000,1697105919.653297,0.000000,0.000000,0.000000,0.000000,0.000000,0.000000,,,,,,,,
1697105919.679189,260800.000000,1697105919.663304,0.000000,0.000000,0.000000,0.000000,0.000000,0.000000,,,,,,,,
1697105919.684044,260801.000000,1697105919.673193,0.000000,0.000000,0.000000,0.000000,0.000000,0.000000,,,,,,,,
1697105919.700086,260802.000000,1697105919.683135,0.000000,0.000000,0.000000,0.000000,0.000000,0.000000,,,,,,,,
1697105919.710740,260803.000000,1697105919.693186,0.000000,0.000000,0.000000,0.000000,0.000000,0.000000,,,,,,,,
1697105919.721249,260804.000000,1697105919.706788,0.000000,0.000000,0.000000,0.000000,0.000000,0.000000,,,,,,,,
1697105919.725531,260805.000000,1697105919.713598,0.000000,0.000000,0.000000,0.000000,0.000000,0.000000,,,,,,,,
1697105919.755378,260806.000000,1697105919.740884,0.000000,0.000000,0.000000,0.000000,0.000000,0.000000,,,,,,,,
1697105919.755421,260808.000000,1697105919.744450,0.000000,0.000000,0.000000,0.000000,0.000000,0.000000,,,,,,,,
1697105919.770113,260809.000000,1697105919.754181,0.000000,0.000000,0.000000,0.000000,0.000000,0.000000,,,,,,,,
1697105919.778619,260810.000000,1697105919.769400,0.000000,0.000000,0.000000,0.000000,0.000000,0.000000,,,,,,,,
1697105919.791432,260811.000000,1697105919.774411,0.000000,0.000000,0.000000,0.000000,0.000000,0.000000,,,,,,,,
1697105919.802618,260812.000000,1697105919.783599,0.000000,0.000000,0.000000,0.000000,0.000000,0.000000,,,,,,,,
1697105919.813150,260813.000000,1697105919.793375,0.000000,0.000000,0.000000,0.000000,0.000000,0.000000,,,,,,,,
1697105919.822092,260814.000000,1697105919.803382,0.000000,0.000000,0.000000,0.000000,0.000000,0.000000,,,,,,,,
1697105919.830376,260815.000000,1697105919.813296,0.000000,0.000000,0.000000,0.000000,0.000000,0.000000,,,,,,,,
1697105919.841849,260816.000000,1697105919.823179,0.000000,0.000000,0.000000,0.000000,0.000000,0.000000,,,,,,,,
1697105919.843326,260817.000000,1697105919.833834,0.000000,0.000000,0.000000,0.000000,0.000000,0.000000,,,,,,,,
1697105919.856358,260818.000000,1697105919.843166,0.000000,0.000000,0.000000,0.000000,0.000000,0.000000,,,,,,,,
1697105919.869771,260819.000000,1697105919.853507,0.000000,0.000000,0.000000,0.000000,0.000000,0.000000,,,,,,,,
1697105919.880510,260820.000000,1697105919.865114,0.000000,0.000000,0.000000,0.000000,0.000000,0.000000,,,,,,,,
1697105919.885865,260821.000000,1697105919.873294,0.000000,0.000000,0.000000,0.000000,0.000000,0.000000,,,,,,,,
1697105919.900957,260822.000000,1697105919.884054,0.000000,0.000000,0.000000,0.000000,0.000000,0.000000,,,,,,,,
1697105919.913940,260823.000000,1697105919.893313,0.000000,0.000000,0.000000,0.000000,0.000000,0.000000,,,,,,,,
1697105919.927444,260825.000000,1697105919.913165,0.000000,0.000000,0.000000,0.000000,0.000000,0.000000,,,,,,,,
1697105919.943710,260826.000000,1697105919.923260,0.000000,0.000000,0.000000,0.000000,0.000000,0.000000,,,,,,,,
1697105919.955822,260828.000000,1697105919.943251,0.000000,0.000000,0.000000,0.000000,0.000000,0.000000,,,,,,,,
1697105919.969230,260829.000000,1697105919.953065,0.000000,0.000000,0.000000,0.000000,0.000000,0.000000,,,,,,,,
1697105919.982685,260830.000000,1697105919.970927,0.000000,0.000000,0.000000,0.000000,0.000000,0.000000,,,,,,,,
1697105919.992680,260831.000000,1697105919.973370,0.000000,0.000000,0.000000,0.000000,0.000000,0.000000,,,,,,,,
1697105919.999451,260832.000000,1697105919.983213,0.000000,0.000000,0.000000,0.000000,0.000000,0.000000,,,,,,,,
1697105920.015558,260833.000000,1697105919.993180,0.000000,0.000000,0.000000,0.000000,0.000000,0.000000,,,,,,,,
1697105920.023396,260835.000000,1697105920.013254,0.000000,0.000000,0.000000,0.000000,0.000000,0.000000,,,,,,,,
1697105920.040694,260836.000000,1697105920.023185,0.000000,0.000000,0.000000,0.000000,0.000000,0.000000,,,,,,,,
1697105920.054990,260837.000000,1697105920.033175,0.000000,0.000000,0.000000,0.000000,0.000000,0.000000,,,,,,,,
1697105920.063687,260838.000000,1697105920.043371,0.000000,0.000000,0.000000,0.000000,0.000000,0.000000,,,,,,,,
1697105920.064924,260839.000000,1697105920.053200,0.000000,0.000000,0.000000,0.000000,0.000000,0.000000,,,,,,,,
1697105920.073055,260840.000000,1697105920.064556,0.000000,0.000000,0.000000,0.000000,0.000000,0.000000,,,,,,,,
1697105920.094901,260841.000000,1697105920.074159,0.000000,0.000000,0.000000,0.000000,0.000000,0.000000,,,,,,,,
1697105920.101919,260843.000000,1697105920.093344,0.000000,0.000000,0.000000,0.000000,0.000000,0.000000,,,,,,,,
1697105920.114902,260844.000000,1697105920.103170,0.000000,0.000000,0.000000,0.000000,0.000000,0.000000,,,,,,,,
1697105920.126439,260845.000000,1697105920.113378,0.000000,0.000000,0.000000,0.000000,0.000000,0.000000,,,,,,,,
1697105920.129819,260846.000000,1697105920.123097,0.000000,0.000000,0.000000,0.000000,0.000000,0.000000,,,,,,,,
1697105920.140492,260847.000000,1697105920.133185,0.000000,0.000000,0.000000,0.000000,0.000000,0.000000,,,,,,,,
1697105920.152559,260848.000000,1697105920.143169,0.000000,0.000000,0.000000,0.000000,0.000000,0.000000,,,,,,,,
1697105920.160010,260849.000000,1697105920.153255,0.000000,0.000000,0.000000,0.000000,0.000000,0.000000,,,,,,,,
1697105920.171564,260850.000000,1697105920.163316,0.000000,0.000000,0.000000,0.000000,0.000000,0.000000,,,,,,,,
1697105920.182468,260851.000000,1697105920.173171,0.000000,0.000000,0.000000,0.000000,0.000000,0.000000,,,,,,,,
1697105920.191483,260852.000000,1697105920.183368,0.000000,0.000000,0.000000,0.000000,0.000000,0.000000,,,,,,,,
1697105920.202077,260853.000000,1697105920.193086,0.000000,0.000000,0.000000,0.000000,0.000000,0.000000,,,,,,,,
1697105920.216422,260854.000000,1697105920.203254,0.000000,0.000000,0.000000,0.000000,0.000000,0.000000,,,,,,,,
1697105920.225008,260855.000000,1697105920.213406,0.000000,0.000000,0.000000,0.000000,0.000000,0.000000,,,,,,,,
1697105920.236282,260856.000000,1697105920.223413,0.000000,0.000000,0.000000,0.000000,0.000000,0.000000,,,,,,,,
1697105920.244135,260857.000000,1697105920.234707,0.000000,0.000000,0.000000,0.000000,0.000000,0.000000,,,,,,,,
1697105920.252214,260858.000000,1697105920.243180,0.000000,0.000000,0.000000,0.000000,0.000000,0.000000,,,,,,,,
1697105920.264129,260859.000000,1697105920.253282,0.000000,0.000000,0.000000,0.000000,0.000000,0.000000,,,,,,,,
1697105920.332576,260860.000000,1697105920.267200,0.000000,0.000000,0.000000,0.000000,0.000000,0.000000,,,,,,,,
1697105920.335826,260862.000000,1697105920.283173,0.000000,0.000000,0.000000,0.000000,0.000000,0.000000,,,,,,,,
1697105920.341059,260866.000000,1697105920.323704,0.000000,0.000000,0.000000,0.000000,0.000000,0.000000,,,,,,,,
1697105920.351850,260867.000000,1697105920.333065,0.000000,0.000000,0.000000,0.000000,0.000000,0.000000,,,,,,,,
1697105920.354269,260868.000000,1697105920.343354,0.000000,0.000000,0.000000,0.000000,0.000000,0.000000,,,,,,,,
1697105920.354884,260869.000000,1697105920.353496,0.000000,0.000000,0.000000,0.000000,0.000000,0.000000,,,,,,,,
1697105920.372635,260870.000000,1697105920.363181,0.000000,0.000000,0.000000,0.000000,0.000000,0.000000,,,,,,,,
1697105920.379808,260871.000000,1697105920.373207,0.000000,0.000000,0.000000,0.000000,0.000000,0.000000,,,,,,,,
1697105920.391637,260872.000000,1697105920.383208,0.000000,0.000000,0.000000,0.000000,0.000000,0.000000,,,,,,,,
1697105920.403764,260873.000000,1697105920.393328,0.000000,0.000000,0.000000,0.000000,0.000000,0.000000,,,,,,,,
1697105920.414363,260874.000000,1697105920.403245,0.000000,0.000000,0.000000,0.000000,0.000000,0.000000,,,,,,,,
1697105920.428319,260875.000000,1697105920.413145,0.000000,0.000000,0.000000,0.000000,0.000000,0.000000,,,,,,,,
1697105920.439320,260876.000000,1697105920.423420,0.000000,0.000000,0.000000,0.000000,0.000000,0.000000,,,,,,,,
1697105920.450339,260877.000000,1697105920.434458,0.000000,0.000000,0.000000,0.000000,0.000000,0.000000,,,,,,,,
1697105920.454568,260878.000000,1697105920.443239,0.000000,0.000000,0.000000,0.000000,0.000000,0.000000,,,,,,,,
1697105920.465963,260879.000000,1697105920.453205,0.000000,0.000000,0.000000,0.000000,0.000000,0.000000,,,,,,,,
1697105920.475881,260880.000000,1697105920.463295,0.000000,0.000000,0.000000,0.000000,0.000000,0.000000,,,,,,,,
1697105920.484756,260881.000000,1697105920.473236,0.000000,0.000000,0.000000,0.000000,0.000000,0.000000,,,,,,,,
1697105920.497106,260882.000000,1697105920.483118,0.000000,0.000000,0.000000,0.000000,0.000000,0.000000,,,,,,,,
1697105920.503986,260883.000000,1697105920.493495,0.000000,0.000000,0.000000,0.000000,0.000000,0.000000,,,,,,,,
1697105920.514461,260884.000000,1697105920.503162,0.000000,0.000000,0.000000,0.000000,0.000000,0.000000,,,,,,,,
1697105920.526075,260885.000000,1697105920.513366,0.000000,0.000000,0.000000,0.000000,0.000000,0.000000,,,,,,,,
1697105920.538085,260886.000000,1697105920.525160,0.000000,0.000000,0.000000,0.000000,0.000000,0.000000,,,,,,,,
1697105920.545079,260887.000000,1697105920.533284,0.000000,0.000000,0.000000,0.000000,0.000000,0.000000,,,,,,,,
1697105920.557187,260888.000000,1697105920.544476,0.000000,0.000000,0.000000,0.000000,0.000000,0.000000,,,,,,,,
1697105920.568302,260889.000000,1697105920.553258,0.000000,0.000000,0.000000,0.000000,0.000000,0.000000,,,,,,,,
1697105920.582112,260890.000000,1697105920.574312,0.000000,0.000000,0.000000,0.000000,0.000000,0.000000,,,,,,,,
1697105920.596032,260892.000000,1697105920.583252,0.000000,0.000000,0.000000,0.000000,0.000000,0.000000,,,,,,,,
1697105920.613261,260893.000000,1697105920.603752,0.000000,0.000000,0.000000,0.000000,0.000000,0.000000,,,,,,,,
1697105920.626873,260894.000000,1697105920.614842,0.000000,0.000000,0.000000,0.000000,0.000000,0.000000,,,,,,,,
1697105920.644475,260895.000000,1697105920.623338,0.000000,0.000000,0.000000,0.000000,0.000000,0.000000,,,,,,,,
1697105920.661859,260896.000000,1697105920.643856,0.000000,0.000000,0.000000,0.000000,0.000000,0.000000,,,,,,,,
1697105920.675807,260897.000000,1697105920.654318,0.000000,0.000000,0.000000,0.000000,0.000000,0.000000,,,,,,,,
1697105920.690226,260899.000000,1697105920.674889,0.000000,0.000000,0.000000,0.000000,0.000000,0.000000,,,,,,,,
1697105920.706422,260900.000000,1697105920.683166,0.000000,0.000000,0.000000,0.000000,0.000000,0.000000,,,,,,,,
1697105920.713042,260901.000000,1697105920.693173,0.000000,0.000000,0.000000,0.000000,0.000000,0.000000,,,,,,,,
1697105920.719875,260902.000000,1697105920.705075,0.000000,0.000000,0.000000,0.000000,0.000000,0.000000,,,,,,,,
1697105920.730251,260903.000000,1697105920.713131,0.000000,0.000000,0.000000,0.000000,0.000000,0.000000,,,,,,,,
1697105920.741218,260904.000000,1697105920.723248,0.000000,0.000000,0.000000,0.000000,0.000000,0.000000,,,,,,,,
1697105920.750733,260905.000000,1697105920.733266,0.000000,0.000000,0.000000,0.000000,0.000000,0.000000,,,,,,,,
1697105920.771153,260906.000000,1697105920.743245,0.000000,0.000000,0.000000,0.000000,0.000000,0.000000,,,,,,,,
1697105920.790063,260907.000000,1697105920.753175,0.000000,0.000000,0.000000,0.000000,0.000000,0.000000,,,,,,,,
1697105920.790081,260908.000000,1697105920.763165,0.000000,0.000000,0.000000,0.000000,0.000000,0.000000,,,,,,,,
1697105920.795777,260909.000000,1697105920.773364,0.000000,0.000000,0.000000,0.000000,0.000000,0.000000,,,,,,,,
1697105920.805326,260910.000000,1697105920.783146,0.000000,0.000000,0.000000,0.000000,0.000000,0.000000,,,,,,,,
1697105920.813564,260911.000000,1697105920.793179,0.000000,0.000000,0.000000,0.000000,0.000000,0.000000,,,,,,,,
1697105920.813943,260912.000000,1697105920.803158,0.000000,0.000000,0.000000,0.000000,0.000000,0.000000,,,,,,,,
1697105920.826022,260913.000000,1697105920.813177,0.000000,0.000000,0.000000,0.000000,0.000000,0.000000,,,,,,,,
1697105920.837639,260914.000000,1697105920.823339,0.000000,0.000000,0.000000,0.000000,0.000000,0.000000,,,,,,,,
1697105920.847149,260915.000000,1697105920.833306,0.000000,0.000000,0.000000,0.000000,0.000000,0.000000,,,,,,,,
1697105920.860296,260916.000000,1697105920.843290,0.000000,0.000000,0.000000,0.000000,0.000000,0.000000,,,,,,,,
1697105920.884391,260917.000000,1697105920.853264,0.000000,0.000000,0.000000,0.000000,0.000000,0.000000,,,,,,,,
1697105920.887729,260918.000000,1697105920.863432,0.000000,0.000000,0.000000,0.000000,0.000000,0.000000,,,,,,,,
1697105920.890202,260919.000000,1697105920.873416,0.000000,0.000000,0.000000,0.000000,0.000000,0.000000,,,,,,,,
1697105920.895494,260920.000000,1697105920.883158,0.000000,0.000000,0.000000,0.000000,0.000000,0.000000,,,,,,,,
1697105920.914200,260921.000000,1697105920.893200,0.000000,0.000000,0.000000,0.000000,0.000000,0.000000,,,,,,,,
1697105920.922764,260922.000000,1697105920.903364,0.000000,0.000000,0.000000,0.000000,0.000000,0.000000,,,,,,,,
1697105920.922778,260923.000000,1697105920.913301,0.000000,0.000000,0.000000,0.000000,0.000000,0.000000,,,,,,,,
1697105920.944962,260924.000000,1697105920.923158,0.000000,0.000000,0.000000,0.000000,0.000000,0.000000,,,,,,,,
1697105920.954953,260926.000000,1697105920.943151,0.000000,0.000000,0.000000,0.000000,0.000000,0.000000,,,,,,,,
1697105920.969285,260927.000000,1697105920.953270,0.000000,0.000000,0.000000,0.000000,0.000000,0.000000,,,,,,,,
1697105920.982386,260928.000000,1697105920.965075,0.000000,0.000000,0.000000,0.000000,0.000000,0.000000,,,,,,,,
1697105920.996374,260929.000000,1697105920.973275,0.000000,0.000000,0.000000,0.000000,0.000000,0.000000,,,,,,,,
1697105921.001055,260930.000000,1697105920.983504,0.000000,0.000000,0.000000,0.000000,0.000000,0.000000,,,,,,,,
1697105921.007030,260931.000000,1697105920.993125,0.000000,0.000000,0.000000,0.000000,0.000000,0.000000,,,,,,,,
1697105921.017194,260932.000000,1697105921.003361,0.000000,0.000000,0.000000,0.000000,0.000000,0.000000,,,,,,,,
1697105921.029384,260933.000000,1697105921.013416,0.000000,0.000000,0.000000,0.000000,0.000000,0.000000,,,,,,,,
1697105921.044365,260934.000000,1697105921.023162,0.000000,0.000000,0.000000,0.000000,0.000000,0.000000,,,,,,,,
1697105921.051610,260936.000000,1697105921.043287,-0.000755,0.000793,0.000133,-0.000024,0.000005,0.000001,,,,,,,,
1697105921.064147,260937.000000,1697105921.053441,-0.006359,0.006731,0.001175,-0.000199,0.000039,0.000007,,,,,,,,
1697105921.075956,260938.000000,1697105921.063276,-0.012542,0.013395,0.002413,-0.000393,0.000076,0.000014,,,,,,,,
1697105921.087228,260939.000000,1697105921.073155,-0.018181,0.019605,0.003682,-0.000571,0.000109,0.000022,,,,,,,,
1697105921.095881,260940.000000,1697105921.083406,-0.022436,0.024387,0.004834,-0.000707,0.000134,0.000030,,,,,,,,
1697105921.100589,260941.000000,1697105921.093183,-0.025209,0.027485,0.005737,-0.000794,0.000151,0.000036,,,,,,,,
1697105921.110585,260942.000000,1697105921.103154,-0.027266,0.029700,0.006465,-0.000855,0.000163,0.000042,,,,,,,,
1697105921.122581,260943.000000,1697105921.113171,-0.029204,0.031827,0.007198,-0.000913,0.000174,0.000047,,,,,,,,
1697105921.132867,260944.000000,1697105921.123282,-0.029868,0.032699,0.007659,-0.000935,0.000179,0.000051,,,,,,,,
1697105921.144780,260945.000000,1697105921.134570,-0.028771,0.031750,0.007652,-0.000904,0.000175,0.000052,,,,,,,,
1697105921.157267,260946.000000,1697105921.143722,-0.027318,0.030425,0.007529,-0.000863,0.000168,0.000053,,,,,,,,
1697105921.166282,260947.000000,1697105921.153435,-0.026540,0.029796,0.007546,-0.000842,0.000164,0.000054,,,,,,,,
1697105921.177277,260948.000000,1697105921.164165,-0.026268,0.029744,0.007613,-0.000838,0.000163,0.000055,,,,,,,,
1697105921.190595,260949.000000,1697105921.182947,-0.025703,0.029462,0.007517,-0.000826,0.000161,0.000055,,,,,,,,
1697105921.198178,260950.000000,1697105921.184487,-0.024866,0.028937,0.007346,-0.000808,0.000157,0.000054,,,,,,,,
1697105921.211793,260951.000000,1697105921.193263,-0.024624,0.029149,0.007432,-0.000809,0.000158,0.000055,,,,,,,,
1697105921.224388,260952.000000,1697105921.203163,-0.024465,0.029548,0.007637,-0.000814,0.000160,0.000057,,,,,,,,
1697105921.226509,260953.000000,1697105921.213127,-0.022865,0.028224,0.007441,-0.000774,0.000155,0.000055,,,,,,,,
1697105921.236004,260954.000000,1697105921.223536,-0.020140,0.025387,0.006867,-0.000693,0.000142,0.000050,,,,,,,,
1697105921.247263,260955.000000,1697105921.233361,-0.017475,0.022475,0.006239,-0.000611,0.000128,0.000045,,,,,,,,
1697105921.258603,260956.000000,1697105921.243279,-0.014922,0.019606,0.005569,-0.000530,0.000113,0.000040,,,,,,,,
1697105921.271705,260957.000000,1697105921.253427,-0.012686,0.017055,0.004919,-0.000458,0.000100,0.000035,,,,,,,,
1697105921.280663,260958.000000,1697105921.263377,-0.011106,0.015267,0.004392,-0.000407,0.000091,0.000032,,,,,,,,
1697105921.297400,260959.000000,1697105921.273155,-0.009750,0.013687,0.003865,-0.000362,0.000082,0.000029,,,,,,,,
1697105921.304301,260960.000000,1697105921.283457,-0.008121,0.011631,0.003208,-0.000305,0.000070,0.000024,,,,,,,,
1697105921.311017,260961.000000,1697105921.293459,-0.006348,0.009251,0.002501,-0.000241,0.000056,0.000020,,,,,,,,
1697105921.314937,260962.000000,1697105921.303281,-0.004829,0.007130,0.001914,-0.000184,0.000043,0.000015,,,,,,,,
1697105921.323424,260963.000000,1697105921.313292,-0.003636,0.005412,0.001469,-0.000139,0.000033,0.000012,,,,,,,,
1697105921.341104,260964.000000,1697105921.323516,-0.002799,0.004175,0.001158,-0.000107,0.000026,0.000009,,,,,,,,
1697105921.356059,260965.000000,1697105921.333246,-0.002241,0.003329,0.000945,-0.000085,0.000021,0.000007,,,,,,,,
1697105921.356117,260966.000000,1697105921.343168,-0.001174,0.001729,0.000503,-0.000044,0.000011,0.000004,,,,,,,,
1697105921.373098,260967.000000,1697105921.354517,0.000000,0.000000,0.000000,0.000000,0.000000,0.000000,,,,,,,,
1697105921.380734,260968.000000,1697105921.364259,0.000000,0.000000,0.000000,0.000000,0.000000,0.000000,,,,,,,,
1697105921.385244,260969.000000,1697105921.373270,0.000000,0.000000,0.000000,0.000000,0.000000,0.000000,,,,,,,,
1697105921.396005,260970.000000,1697105921.383487,0.000000,0.000000,0.000000,0.000000,0.000000,0.000000,,,,,,,,
1697105921.407267,260971.000000,1697105921.393395,0.000000,0.000000,0.000000,0.000000,0.000000,0.000000,,,,,,,,
1697105921.418165,260972.000000,1697105921.403230,0.000000,0.000000,0.000000,0.000000,0.000000,0.000000,,,,,,,,
1697105921.426463,260973.000000,1697105921.413268,0.000000,0.000000,0.000000,0.000000,0.000000,0.000000,,,,,,,,
1697105921.445461,260974.000000,1697105921.423335,0.000000,0.000000,0.000000,0.000000,0.000000,0.000000,,,,,,,,
1697105921.456216,260976.000000,1697105921.443234,0.000000,0.000000,0.000000,0.000000,0.000000,0.000000,,,,,,,,
1697105921.467685,260977.000000,1697105921.454121,0.000000,0.000000,0.000000,0.000000,0.000000,0.000000,,,,,,,,
1697105921.477804,260978.000000,1697105921.464203,0.000000,0.000000,0.000000,0.000000,0.000000,0.000000,,,,,,,,
1697105921.497670,260979.000000,1697105921.473561,0.000000,0.000000,0.000000,0.000000,0.000000,0.000000,,,,,,,,
1697105921.512542,260981.000000,1697105921.497277,0.000000,0.000000,0.000000,0.000000,0.000000,0.000000,,,,,,,,
1697105921.531931,260983.000000,1697105921.513299,0.000000,0.000000,0.000000,0.000000,0.000000,0.000000,,,,,,,,
1697105921.538424,260984.000000,1697105921.523290,0.000000,0.000000,0.000000,0.000000,0.000000,0.000000,,,,,,,,
1697105921.549028,260985.000000,1697105921.533182,0.000000,0.000000,0.000000,0.000000,0.000000,0.000000,,,,,,,,
1697105921.572178,260986.000000,1697105921.543772,0.000000,0.000000,0.000000,0.000000,0.000000,0.000000,,,,,,,,
1697105921.572966,260987.000000,1697105921.554044,0.000000,0.000000,0.000000,0.000000,0.000000,0.000000,,,,,,,,
1697105921.590457,260988.000000,1697105921.563284,0.000000,0.000000,0.000000,0.000000,0.000000,0.000000,,,,,,,,
1697105921.598897,260989.000000,1697105921.573267,0.000000,0.000000,0.000000,0.000000,0.000000,0.000000,,,,,,,,
1697105921.607890,260991.000000,1697105921.593294,0.000000,0.000000,0.000000,0.000000,0.000000,0.000000,,,,,,,,
1697105921.617810,260992.000000,1697105921.603387,0.000000,0.000000,0.000000,0.000000,0.000000,0.000000,,,,,,,,
1697105921.624390,260993.000000,1697105921.613133,0.000000,0.000000,0.000000,0.000000,0.000000,0.000000,,,,,,,,
1697105921.632209,260994.000000,1697105921.623260,0.000000,0.000000,0.000000,0.000000,0.000000,0.000000,,,,,,,,
1697105921.640661,260995.000000,1697105921.633350,0.000000,0.000000,0.000000,0.000000,0.000000,0.000000,,,,,,,,
1697105921.664638,260996.000000,1697105921.655522,0.000000,0.000000,0.000000,0.000000,0.000000,0.000000,,,,,,,,
1697105921.673154,260998.000000,1697105921.663269,0.000000,0.000000,0.000000,0.000000,0.000000,0.000000,,,,,,,,
1697105921.684872,260999.000000,1697105921.676637,0.000000,0.000000,0.000000,0.000000,0.000000,0.000000,,,,,,,,
1697105921.695806,261000.000000,1697105921.683901,0.000000,0.000000,0.000000,0.000000,0.000000,0.000000,,,,,,,,
1697105921.704506,261001.000000,1697105921.693386,0.000000,0.000000,0.000000,0.000000,0.000000,0.000000,,,,,,,,
1697105921.714360,261002.000000,1697105921.703264,0.000000,0.000000,0.000000,0.000000,0.000000,0.000000,,,,,,,,
1697105921.726160,261003.000000,1697105921.713392,0.000000,0.000000,0.000000,0.000000,0.000000,0.000000,,,,,,,,
1697105921.733131,261004.000000,1697105921.723984,0.000000,0.000000,0.000000,0.000000,0.000000,0.000000,,,,,,,,
1697105921.743159,261005.000000,1697105921.734391,0.000000,0.000000,0.000000,0.000000,0.000000,0.000000,,,,,,,,
1697105921.758299,261006.000000,1697105921.748284,0.000000,0.000000,0.000000,0.000000,0.000000,0.000000,,,,,,,,
1697105921.766019,261007.000000,1697105921.753164,0.000000,0.000000,0.000000,0.000000,0.000000,0.000000,,,,,,,,
1697105921.775314,261008.000000,1697105921.763237,0.000000,0.000000,0.000000,0.000000,0.000000,0.000000,,,,,,,,
1697105921.787640,261009.000000,1697105921.773498,0.000000,0.000000,0.000000,0.000000,0.000000,0.000000,,,,,,,,
1697105921.793331,261010.000000,1697105921.783273,0.000000,0.000000,0.000000,0.000000,0.000000,0.000000,,,,,,,,
1697105921.804080,261011.000000,1697105921.793153,0.000000,0.000000,0.000000,0.000000,0.000000,0.000000,,,,,,,,
1697105921.811512,261012.000000,1697105921.803280,0.000000,0.000000,0.000000,0.000000,0.000000,0.000000,,,,,,,,
1697105921.824800,261013.000000,1697105921.813392,0.000000,0.000000,0.000000,0.000000,0.000000,0.000000,,,,,,,,
1697105921.841368,261014.000000,1697105921.823265,0.000000,0.000000,0.000000,0.000000,0.000000,0.000000,,,,,,,,
1697105921.852478,261015.000000,1697105921.833238,0.000000,0.000000,0.000000,0.000000,0.000000,0.000000,,,,,,,,
1697105921.854798,261016.000000,1697105921.843501,0.000000,0.000000,0.000000,0.000000,0.000000,0.000000,,,,,,,,
1697105921.867920,261017.000000,1697105921.853260,0.000000,0.000000,0.000000,0.000000,0.000000,0.000000,,,,,,,,
1697105921.874877,261018.000000,1697105921.863234,0.000000,0.000000,0.000000,0.000000,0.000000,0.000000,,,,,,,,
1697105921.882696,261019.000000,1697105921.873226,0.000000,0.000000,0.000000,0.000000,0.000000,0.000000,,,,,,,,
1697105921.891665,261020.000000,1697105921.883379,0.000000,0.000000,0.000000,0.000000,0.000000,0.000000,,,,,,,,
1697105921.907573,261021.000000,1697105921.893243,0.000000,0.000000,0.000000,0.000000,0.000000,0.000000,,,,,,,,
1697105921.917193,261022.000000,1697105921.903154,0.000000,0.000000,0.000000,0.000000,0.000000,0.000000,,,,,,,,
1697105921.928577,261023.000000,1697105921.913249,0.000000,0.000000,0.000000,0.000000,0.000000,0.000000,,,,,,,,
1697105921.941411,261024.000000,1697105921.923481,0.000000,0.000000,0.000000,0.000000,0.000000,0.000000,,,,,,,,
1697105921.945918,261025.000000,1697105921.933268,0.000000,0.000000,0.000000,0.000000,0.000000,0.000000,,,,,,,,
1697105921.962668,261026.000000,1697105921.943450,0.000000,0.000000,0.000000,0.000000,0.000000,0.000000,,,,,,,,
1697105921.975081,261028.000000,1697105921.963295,0.000000,0.000000,0.000000,0.000000,0.000000,0.000000,,,,,,,,
1697105921.986729,261029.000000,1697105921.976467,0.000000,0.000000,0.000000,0.000000,0.000000,0.000000,,,,,,,,
1697105921.996955,261030.000000,1697105921.983441,0.000000,0.000000,0.000000,0.000000,0.000000,0.000000,,,,,,,,
1697105922.004025,261031.000000,1697105921.994253,0.000000,0.000000,0.000000,0.000000,0.000000,0.000000,,,,,,,,
1697105922.012590,261032.000000,1697105922.003276,0.000000,0.000000,0.000000,0.000000,0.000000,0.000000,,,,,,,,
1697105922.027449,261033.000000,1697105922.015175,0.000000,0.000000,0.000000,0.000000,0.000000,0.000000,,,,,,,,
1697105922.039260,261034.000000,1697105922.023281,0.000000,0.000000,0.000000,0.000000,0.000000,0.000000,,,,,,,,
1697105922.055351,261035.000000,1697105922.033365,0.000000,0.000000,0.000000,0.000000,0.000000,0.000000,,,,,,,,
1697105922.055364,261036.000000,1697105922.043272,0.000000,0.000000,0.000000,0.000000,0.000000,0.000000,,,,,,,,
1697105922.065912,261037.000000,1697105922.053205,0.000000,0.000000,0.000000,0.000000,0.000000,0.000000,,,,,,,,
1697105922.075154,261038.000000,1697105922.063695,0.000000,0.000000,0.000000,0.000000,0.000000,0.000000,,,,,,,,
1697105922.085580,261039.000000,1697105922.073674,0.000000,0.000000,0.000000,0.000000,0.000000,0.000000,,,,,,,,
1697105922.099816,261040.000000,1697105922.083449,0.000000,0.000000,0.000000,0.000000,0.000000,0.000000,,,,,,,,
1697105922.108958,261041.000000,1697105922.093349,0.000000,0.000000,0.000000,0.000000,0.000000,0.000000,,,,,,,,
1697105922.118865,261042.000000,1697105922.103273,0.000000,0.000000,0.000000,0.000000,0.000000,0.000000,,,,,,,,
1697105922.128295,261043.000000,1697105922.113270,0.000000,0.000000,0.000000,0.000000,0.000000,0.000000,,,,,,,,
1697105922.137401,261044.000000,1697105922.123385,0.000000,0.000000,0.000000,0.000000,0.000000,0.000000,,,,,,,,
1697105922.147173,261045.000000,1697105922.133139,0.000000,0.000000,0.000000,0.000000,0.000000,0.000000,,,,,,,,
1697105922.161099,261046.000000,1697105922.143432,0.000000,0.000000,0.000000,0.000000,0.000000,0.000000,,,,,,,,
1697105922.170881,261047.000000,1697105922.153277,0.000000,0.000000,0.000000,0.000000,0.000000,0.000000,,,,,,,,
1697105922.172723,261048.000000,1697105922.163318,0.000000,0.000000,0.000000,0.000000,0.000000,0.000000,,,,,,,,
1697105922.183534,261049.000000,1697105922.173353,0.000000,0.000000,0.000000,0.000000,0.000000,0.000000,,,,,,,,
1697105922.194560,261050.000000,1697105922.183351,0.000000,0.000000,0.000000,0.000000,0.000000,0.000000,,,,,,,,
1697105922.205544,261051.000000,1697105922.193364,0.000000,0.000000,0.000000,0.000000,0.000000,0.000000,,,,,,,,
1697105922.216170,261052.000000,1697105922.203169,0.000000,0.000000,0.000000,0.000000,0.000000,0.000000,,,,,,,,
1697105922.226115,261053.000000,1697105922.213806,0.000000,0.000000,0.000000,0.000000,0.000000,0.000000,,,,,,,,
1697105922.242337,261054.000000,1697105922.224648,0.000000,0.000000,0.000000,0.000000,0.000000,0.000000,,,,,,,,
1697105922.248619,261055.000000,1697105922.233281,0.000000,0.000000,0.000000,0.000000,0.000000,0.000000,,,,,,,,
1697105922.264757,261057.000000,1697105922.253260,0.000000,0.000000,0.000000,0.000000,0.000000,0.000000,,,,,,,,
1697105922.277356,261058.000000,1697105922.265158,0.000000,0.000000,0.000000,0.000000,0.000000,0.000000,,,,,,,,
1697105922.285106,261059.000000,1697105922.273235,0.000000,0.000000,0.000000,0.000000,0.000000,0.000000,,,,,,,,
1697105922.296825,261060.000000,1697105922.284767,0.000000,0.000000,0.000000,0.000000,0.000000,0.000000,,,,,,,,
1697105922.305716,261061.000000,1697105922.296580,0.000000,0.000000,0.000000,0.000000,0.000000,0.000000,,,,,,,,
1697105922.313774,261062.000000,1697105922.303213,0.000000,0.000000,0.000000,0.000000,0.000000,0.000000,,,,,,,,
1697105922.325764,261063.000000,1697105922.313237,0.000000,0.000000,0.000000,0.000000,0.000000,0.000000,,,,,,,,
1697105922.336880,261064.000000,1697105922.323276,0.000000,0.000000,0.000000,0.000000,0.000000,0.000000,,,,,,,,
1697105922.388714,261065.000000,1697105922.379223,0.000000,0.000000,0.000000,0.000000,0.000000,0.000000,,,,,,,,
1697105922.399370,261066.000000,1697105922.382145,0.000000,0.000000,0.000000,0.000000,0.000000,0.000000,,,,,,,,
1697105922.409460,261067.000000,1697105922.392516,0.000000,0.000000,0.000000,0.000000,0.000000,0.000000,,,,,,,,
1697105922.433768,261068.000000,1697105922.400723,0.000000,0.000000,0.000000,0.000000,0.000000,0.000000,,,,,,,,
1697105922.437809,261069.000000,1697105922.410724,0.000000,0.000000,0.000000,0.000000,0.000000,0.000000,,,,,,,,
1697105922.444098,261071.000000,1697105922.430759,0.000000,0.000000,0.000000,0.000000,0.000000,0.000000,,,,,,,,
1697105922.460875,261072.000000,1697105922.440779,0.000000,0.000000,0.000000,0.000000,0.000000,0.000000,,,,,,,,
1697105922.473602,261073.000000,1697105922.450522,0.000000,0.000000,0.000000,0.000000,0.000000,0.000000,,,,,,,,
1697105922.478313,261074.000000,1697105922.460721,0.000000,0.000000,0.000000,0.000000,0.000000,0.000000,,,,,,,,
1697105922.489240,261075.000000,1697105922.473352,0.000000,0.000000,0.000000,0.000000,0.000000,0.000000,,,,,,,,
1697105922.503108,261076.000000,1697105922.481039,0.000000,0.000000,0.000000,0.000000,0.000000,0.000000,,,,,,,,
1697105922.512309,261077.000000,1697105922.490757,0.000000,0.000000,0.000000,0.000000,0.000000,0.000000,,,,,,,,
1697105922.513701,261078.000000,1697105922.500848,0.000000,0.000000,0.000000,0.000000,0.000000,0.000000,,,,,,,,
1697105922.519683,261079.000000,1697105922.510764,0.000000,0.000000,0.000000,0.000000,0.000000,0.000000,,,,,,,,
1697105922.528327,261080.000000,1697105922.520700,0.000000,0.000000,0.000000,0.000000,0.000000,0.000000,,,,,,,,
1697105922.537861,261081.000000,1697105922.530758,0.000000,0.000000,0.000000,0.000000,0.000000,0.000000,,,,,,,,
1697105922.554042,261082.000000,1697105922.540987,0.000000,0.000000,0.000000,0.000000,0.000000,0.000000,,,,,,,,
1697105922.563759,261083.000000,1697105922.550653,0.000000,0.000000,0.000000,0.000000,0.000000,0.000000,,,,,,,,
1697105922.572731,261084.000000,1697105922.560759,0.000000,0.000000,0.000000,0.000000,0.000000,0.000000,,,,,,,,
1697105922.582958,261085.000000,1697105922.570788,0.000000,0.000000,0.000000,0.000000,0.000000,0.000000,,,,,,,,
1697105922.591304,261086.000000,1697105922.581090,0.000000,0.000000,0.000000,0.000000,0.000000,0.000000,,,,,,,,
1697105922.602592,261087.000000,1697105922.590636,0.000000,0.000000,0.000000,0.000000,0.000000,0.000000,,,,,,,,
1697105922.611458,261088.000000,1697105922.600729,0.000000,0.000000,0.000000,0.000000,0.000000,0.000000,,,,,,,,
1697105922.619594,261089.000000,1697105922.610978,0.000000,0.000000,0.000000,0.000000,0.000000,0.000000,,,,,,,,
1697105922.631350,261090.000000,1697105922.620987,0.000000,0.000000,0.000000,0.000000,0.000000,0.000000,,,,,,,,
1697105922.639675,261091.000000,1697105922.632515,0.000000,0.000000,0.000000,0.000000,0.000000,0.000000,,,,,,,,
1697105922.648610,261092.000000,1697105922.640657,0.000000,0.000000,0.000000,0.000000,0.000000,0.000000,,,,,,,,
1697105922.661581,261093.000000,1697105922.650981,0.000000,0.000000,0.000000,0.000000,0.000000,0.000000,,,,,,,,
1697105922.675556,261094.000000,1697105922.660769,0.000000,0.000000,0.000000,0.000000,0.000000,0.000000,,,,,,,,
1697105922.681921,261095.000000,1697105922.670749,0.000000,0.000000,0.000000,0.000000,0.000000,0.000000,,,,,,,,
1697105922.691736,261096.000000,1697105922.680974,0.000000,0.000000,0.000000,0.000000,0.000000,0.000000,,,,,,,,
1697105922.701514,261097.000000,1697105922.692825,0.000000,0.000000,0.000000,0.000000,0.000000,0.000000,,,,,,,,
1697105922.712741,261098.000000,1697105922.700763,0.000000,0.000000,0.000000,0.000000,0.000000,0.000000,,,,,,,,
1697105922.722574,261099.000000,1697105922.710780,0.000000,0.000000,0.000000,0.000000,0.000000,0.000000,,,,,,,,
1697105922.742229,261100.000000,1697105922.730758,0.000000,0.000000,0.000000,0.000000,0.000000,0.000000,,,,,,,,
1697105922.742989,261101.000000,1697105922.732520,0.000000,0.000000,0.000000,0.000000,0.000000,0.000000,,,,,,,,
1697105922.754253,261102.000000,1697105922.740687,0.000000,0.000000,0.000000,0.000000,0.000000,0.000000,,,,,,,,
1697105922.765119,261103.000000,1697105922.750867,0.000000,0.000000,0.000000,0.000000,0.000000,0.000000,,,,,,,,
1697105922.777737,261104.000000,1697105922.760855,0.000000,0.000000,0.000000,0.000000,0.000000,0.000000,,,,,,,,
1697105922.790395,261105.000000,1697105922.770658,0.000000,0.000000,0.000000,0.000000,0.000000,0.000000,,,,,,,,
1697105922.797065,261106.000000,1697105922.781174,0.000000,0.000000,0.000000,0.000000,0.000000,0.000000,,,,,,,,
1697105922.800908,261107.000000,1697105922.791854,0.000000,0.000000,0.000000,0.000000,0.000000,0.000000,,,,,,,,
1697105922.810457,261108.000000,1697105922.802269,0.000000,0.000000,0.000000,0.000000,0.000000,0.000000,,,,,,,,
1697105922.822389,261109.000000,1697105922.813062,0.000000,0.000000,0.000000,0.000000,0.000000,0.000000,,,,,,,,
1697105922.831889,261110.000000,1697105922.820976,0.000000,0.000000,0.000000,0.000000,0.000000,0.000000,,,,,,,,
1697105922.844309,261111.000000,1697105922.830760,0.000000,0.000000,0.000000,0.000000,0.000000,0.000000,,,,,,,,
1697105922.851096,261112.000000,1697105922.840783,0.000000,0.000000,0.000000,0.000000,0.000000,0.000000,,,,,,,,
1697105922.858419,261113.000000,1697105922.851271,0.000000,0.000000,0.000000,0.000000,0.000000,0.000000,,,,,,,,
1697105922.871896,261114.000000,1697105922.860748,0.000000,0.000000,0.000000,0.000000,0.000000,0.000000,,,,,,,,
1697105922.882881,261115.000000,1697105922.870776,0.000000,0.000000,0.000000,0.000000,0.000000,0.000000,,,,,,,,
1697105922.900140,261116.000000,1697105922.882858,0.000000,0.000000,0.000000,0.000000,0.000000,0.000000,,,,,,,,
1697105922.910177,261118.000000,1697105922.900738,0.000000,0.000000,0.000000,0.000000,0.000000,0.000000,,,,,,,,
1697105922.922313,261119.000000,1697105922.912284,0.000000,0.000000,0.000000,0.000000,0.000000,0.000000,,,,,,,,
1697105922.929331,261120.000000,1697105922.921508,0.000000,0.000000,0.000000,0.000000,0.000000,0.000000,,,,,,,,
1697105922.937510,261121.000000,1697105922.930653,0.000000,0.000000,0.000000,0.000000,0.000000,0.000000,,,,,,,,
1697105922.958165,261122.000000,1697105922.940723,0.000000,0.000000,0.000000,0.000000,0.000000,0.000000,,,,,,,,
1697105922.967480,261123.000000,1697105922.950732,0.000000,0.000000,0.000000,0.000000,0.000000,0.000000,,,,,,,,
1697105922.979462,261124.000000,1697105922.960875,0.000000,0.000000,0.000000,0.000000,0.000000,0.000000,,,,,,,,
1697105922.979497,261125.000000,1697105922.970519,0.000000,0.000000,0.000000,0.000000,0.000000,0.000000,,,,,,,,
1697105922.987305,261126.000000,1697105922.980721,0.000000,0.000000,0.000000,0.000000,0.000000,0.000000,,,,,,,,
1697105922.998059,261127.000000,1697105922.990955,0.000000,0.000000,0.000000,0.000000,0.000000,0.000000,,,,,,,,
1697105923.006759,261128.000000,1697105923.000628,0.000000,0.000000,0.000000,0.000000,0.000000,0.000000,,,,,,,,
1697105923.022195,261129.000000,1697105923.010721,0.000000,0.000000,0.000000,0.000000,0.000000,0.000000,,,,,,,,
1697105923.033990,261130.000000,1697105923.020724,0.000000,0.000000,0.000000,0.000000,0.000000,0.000000,,,,,,,,
1697105923.044060,261131.000000,1697105923.030750,0.000000,0.000000,0.000000,0.000000,0.000000,0.000000,,,,,,,,
1697105923.058326,261132.000000,1697105923.040507,0.000000,0.000000,0.000000,0.000000,0.000000,0.000000,,,,,,,,
1697105923.067573,261133.000000,1697105923.050727,0.000000,0.000000,0.000000,0.000000,0.000000,0.000000,,,,,,,,
1697105923.083901,261134.000000,1697105923.060973,0.000000,0.000000,0.000000,0.000000,0.000000,0.000000,,,,,,,,
1697105923.087312,261135.000000,1697105923.070640,0.000000,0.000000,0.000000,0.000000,0.000000,0.000000,,,,,,,,
1697105923.093455,261136.000000,1697105923.080855,0.000000,0.000000,0.000000,0.000000,0.000000,0.000000,,,,,,,,
1697105923.103088,261137.000000,1697105923.092384,0.000000,0.000000,0.000000,0.000000,0.000000,0.000000,,,,,,,,
1697105923.114065,261138.000000,1697105923.100729,0.000000,0.000000,0.000000,0.000000,0.000000,0.000000,,,,,,,,
1697105923.121701,261139.000000,1697105923.110732,0.000000,0.000000,0.000000,0.000000,0.000000,0.000000,,,,,,,,
1697105923.133797,261140.000000,1697105923.120757,0.000000,0.000000,0.000000,0.000000,0.000000,0.000000,,,,,,,,
1697105923.139677,261141.000000,1697105923.130991,0.000000,0.000000,0.000000,0.000000,0.000000,0.000000,,,,,,,,
1697105923.146817,261142.000000,1697105923.140896,0.000000,0.000000,0.000000,0.000000,0.000000,0.000000,,,,,,,,
1697105923.163954,261143.000000,1697105923.150775,0.000000,0.000000,0.000000,0.000000,0.000000,0.000000,,,,,,,,
1697105923.176396,261144.000000,1697105923.161845,0.000000,0.000000,0.000000,0.000000,0.000000,0.000000,,,,,,,,
1697105923.186697,261145.000000,1697105923.170781,0.000000,0.000000,0.000000,0.000000,0.000000,0.000000,,,,,,,,
1697105923.198195,261146.000000,1697105923.180811,0.000000,0.000000,0.000000,0.000000,0.000000,0.000000,,,,,,,,
1697105923.211018,261147.000000,1697105923.190816,0.000000,0.000000,0.000000,0.000000,0.000000,0.000000,,,,,,,,
1697105923.214571,261148.000000,1697105923.200978,0.000000,0.000000,0.000000,0.000000,0.000000,0.000000,,,,,,,,
1697105923.222287,261149.000000,1697105923.210611,0.000000,0.000000,0.000000,0.000000,0.000000,0.000000,,,,,,,,
1697105923.236985,261150.000000,1697105923.221289,0.000000,0.000000,0.000000,0.000000,0.000000,0.000000,,,,,,,,
1697105923.248487,261151.000000,1697105923.230743,0.000000,0.000000,0.000000,0.000000,0.000000,0.000000,,,,,,,,
1697105923.251037,261152.000000,1697105923.240759,0.000000,0.000000,0.000000,0.000000,0.000000,0.000000,,,,,,,,
1697105923.258615,261153.000000,1697105923.251083,0.000000,0.000000,0.000000,0.000000,0.000000,0.000000,,,,,,,,
1697105923.274139,261154.000000,1697105923.260865,0.000000,0.000000,0.000000,0.000000,0.000000,0.000000,,,,,,,,
1697105923.284019,261155.000000,1697105923.271007,0.000000,0.000000,0.000000,0.000000,0.000000,0.000000,,,,,,,,
1697105923.291846,261156.000000,1697105923.280628,0.000000,0.000000,0.000000,0.000000,0.000000,0.000000,,,,,,,,
1697105923.300430,261157.000000,1697105923.290785,0.000000,0.000000,0.000000,0.000000,0.000000,0.000000,,,,,,,,
1697105923.310835,261158.000000,1697105923.301118,0.000000,0.000000,0.000000,0.000000,0.000000,0.000000,,,,,,,,
1697105923.321568,261159.000000,1697105923.311198,0.000000,0.000000,0.000000,0.000000,0.000000,0.000000,,,,,,,,
1697105923.335983,261160.000000,1697105923.320633,0.000000,0.000000,0.000000,0.000000,0.000000,0.000000,,,,,,,,
1697105923.346445,261161.000000,1697105923.330749,0.000000,0.000000,0.000000,0.000000,0.000000,0.000000,,,,,,,,
1697105923.352616,261162.000000,1697105923.340962,0.000000,0.000000,0.000000,0.000000,0.000000,0.000000,,,,,,,,
1697105923.361320,261163.000000,1697105923.350798,0.000000,0.000000,0.000000,0.000000,0.000000,0.000000,,,,,,,,
1697105923.371506,261164.000000,1697105923.360751,0.000000,0.000000,0.000000,0.000000,0.000000,0.000000,,,,,,,,
1697105923.384008,261165.000000,1697105923.370729,0.000000,0.000000,0.000000,0.000000,0.000000,0.000000,,,,,,,,
1697105923.395617,261166.000000,1697105923.380764,0.000000,0.000000,0.000000,0.000000,0.000000,0.000000,,,,,,,,
1697105923.409515,261167.000000,1697105923.390610,0.000000,0.000000,0.000000,0.000000,0.000000,0.000000,,,,,,,,
1697105923.418086,261168.000000,1697105923.400717,0.000000,0.000000,0.000000,0.000000,0.000000,0.000000,,,,,,,,
1697105923.425909,261169.000000,1697105923.410840,0.000000,0.000000,0.000000,0.000000,0.000000,0.000000,,,,,,,,
1697105923.436716,261170.000000,1697105923.420723,0.000000,0.000000,0.000000,0.000000,0.000000,0.000000,,,,,,,,
1697105923.447732,261171.000000,1697105923.430855,0.000000,0.000000,0.000000,0.000000,0.000000,0.000000,,,,,,,,
1697105923.459905,261172.000000,1697105923.440965,0.000000,0.000000,0.000000,0.000000,0.000000,0.000000,,,,,,,,
1697105923.470628,261173.000000,1697105923.450762,0.000000,0.000000,0.000000,0.000000,0.000000,0.000000,,,,,,,,
1697105923.480755,261174.000000,1697105923.460756,0.000000,0.000000,0.000000,0.000000,0.000000,0.000000,,,,,,,,
1697105923.492694,261175.000000,1697105923.473759,0.000000,0.000000,0.000000,0.000000,0.000000,0.000000,,,,,,,,
1697105923.493285,261176.000000,1697105923.480866,0.000000,0.000000,0.000000,0.000000,0.000000,0.000000,,,,,,,,
1697105923.501681,261177.000000,1697105923.492233,0.000000,0.000000,0.000000,0.000000,0.000000,0.000000,,,,,,,,
1697105923.511169,261178.000000,1697105923.500803,0.000000,0.000000,0.000000,0.000000,0.000000,0.000000,,,,,,,,
1697105923.523181,261179.000000,1697105923.511269,0.000000,0.000000,0.000000,0.000000,0.000000,0.000000,,,,,,,,
1697105923.530257,261180.000000,1697105923.521153,0.000000,0.000000,0.000000,0.000000,0.000000,0.000000,,,,,,,,
1697105923.539880,261181.000000,1697105923.530712,0.000000,0.000000,0.000000,0.000000,0.000000,0.000000,,,,,,,,
1697105923.552939,261182.000000,1697105923.540625,0.000000,0.000000,0.000000,0.000000,0.000000,0.000000,,,,,,,,
1697105923.561786,261183.000000,1697105923.550757,0.000000,0.000000,0.000000,0.000000,0.000000,0.000000,,,,,,,,
1697105923.570395,261184.000000,1697105923.561267,0.000000,0.000000,0.000000,0.000000,0.000000,0.000000,,,,,,,,
1697105923.582192,261185.000000,1697105923.570760,0.000000,0.000000,0.000000,0.000000,0.000000,0.000000,,,,,,,,
1697105923.594909,261186.000000,1697105923.582270,0.000000,0.000000,0.000000,0.000000,0.000000,0.000000,,,,,,,,
1697105923.603205,261187.000000,1697105923.592353,0.000000,0.000000,0.000000,0.000000,0.000000,0.000000,,,,,,,,
1697105923.615441,261188.000000,1697105923.606721,0.000000,0.000000,0.000000,0.000000,0.000000,0.000000,,,,,,,,
1697105923.621310,261189.000000,1697105923.610950,0.000000,0.000000,0.000000,0.000000,0.000000,0.000000,,,,,,,,
1697105923.635033,261190.000000,1697105923.620748,0.000000,0.000000,0.000000,0.000000,0.000000,0.000000,,,,,,,,
1697105923.641536,261191.000000,1697105923.630748,0.000000,0.000000,0.000000,0.000000,0.000000,0.000000,,,,,,,,
1697105923.649718,261192.000000,1697105923.640719,0.000000,0.000000,0.000000,0.000000,0.000000,0.000000,,,,,,,,
1697105923.656387,261193.000000,1697105923.650969,0.000000,0.000000,0.000000,0.000000,0.000000,0.000000,,,,,,,,
1697105923.674346,261194.000000,1697105923.660664,0.000000,0.000000,0.000000,0.000000,0.000000,0.000000,,,,,,,,
1697105923.682483,261195.000000,1697105923.670723,0.000000,0.000000,0.000000,0.000000,0.000000,0.000000,,,,,,,,
1697105923.691043,261196.000000,1697105923.680761,0.000000,0.000000,0.000000,0.000000,0.000000,0.000000,,,,,,,,
1697105923.701838,261197.000000,1697105923.690768,0.000000,0.000000,0.000000,0.000000,0.000000,0.000000,,,,,,,,
1697105923.711461,261198.000000,1697105923.701238,0.000000,0.000000,0.000000,0.000000,0.000000,0.000000,,,,,,,,
1697105923.725785,261199.000000,1697105923.711355,0.000000,0.000000,0.000000,0.000000,0.000000,0.000000,,,,,,,,
1697105923.737814,261200.000000,1697105923.721653,0.000000,0.000000,0.000000,0.000000,0.000000,0.000000,,,,,,,,
1697105923.757404,261201.000000,1697105923.730681,0.000000,0.000000,0.000000,0.000000,0.000000,0.000000,,,,,,,,
1697105923.769851,261203.000000,1697105923.750756,0.000000,0.000000,0.000000,0.000000,0.000000,0.000000,,,,,,,,
1697105923.782810,261204.000000,1697105923.760773,0.000000,0.000000,0.000000,0.000000,0.000000,0.000000,,,,,,,,
1697105923.793729,261206.000000,1697105923.780717,0.000000,0.000000,0.000000,0.000000,0.000000,0.000000,,,,,,,,
1697105923.808489,261207.000000,1697105923.790864,0.000000,0.000000,0.000000,0.000000,0.000000,0.000000,,,,,,,,
1697105923.822826,261208.000000,1697105923.801107,0.000000,0.000000,0.000000,0.000000,0.000000,0.000000,,,,,,,,
1697105923.831607,261210.000000,1697105923.820766,0.000000,0.000000,0.000000,0.000000,0.000000,0.000000,,,,,,,,
1697105923.840382,261211.000000,1697105923.830709,0.000000,0.000000,0.000000,0.000000,0.000000,0.000000,,,,,,,,
1697105923.850880,261212.000000,1697105923.840718,0.000000,0.000000,0.000000,0.000000,0.000000,0.000000,,,,,,,,
1697105923.864064,261213.000000,1697105923.850724,0.000000,0.000000,0.000000,0.000000,0.000000,0.000000,,,,,,,,
1697105923.879801,261214.000000,1697105923.860976,0.000000,0.000000,0.000000,0.000000,0.000000,0.000000,,,,,,,,
1697105923.887560,261216.000000,1697105923.880772,0.000000,0.000000,0.000000,0.000000,0.000000,0.000000,,,,,,,,
1697105923.906961,261217.000000,1697105923.892148,0.000000,0.000000,0.000000,0.000000,0.000000,0.000000,,,,,,,,
1697105923.913612,261218.000000,1697105923.900707,0.000000,0.000000,0.000000,0.000000,0.000000,0.000000,,,,,,,,
1697105923.925101,261219.000000,1697105923.910756,0.000000,0.000000,0.000000,0.000000,0.000000,0.000000,,,,,,,,
1697105923.937298,261220.000000,1697105923.920772,0.000000,0.000000,0.000000,0.000000,0.000000,0.000000,,,,,,,,
1697105923.960873,261222.000000,1697105923.940569,0.000000,0.000000,0.000000,0.000000,0.000000,0.000000,,,,,,,,
1697105923.971975,261224.000000,1697105923.960753,0.000000,0.000000,0.000000,0.000000,0.000000,0.000000,,,,,,,,
1697105923.981421,261225.000000,1697105923.970997,0.000000,0.000000,0.000000,0.000000,0.000000,0.000000,,,,,,,,
1697105923.991866,261226.000000,1697105923.980753,0.000000,0.000000,0.000000,0.000000,0.000000,0.000000,,,,,,,,
1697105924.009825,261227.000000,1697105923.990770,0.000000,0.000000,0.000000,0.000000,0.000000,0.000000,,,,,,,,
1697105924.017998,261229.000000,1697105924.010592,0.000000,0.000000,0.000000,0.000000,0.000000,0.000000,,,,,,,,
1697105924.034094,261230.000000,1697105924.022712,0.000000,0.000000,0.000000,0.000000,0.000000,0.000000,,,,,,,,
1697105924.053056,261231.000000,1697105924.031108,0.000000,0.000000,0.000000,0.000000,0.000000,0.000000,,,,,,,,
1697105924.056501,261232.000000,1697105924.040723,0.000000,0.000000,0.000000,0.000000,0.000000,0.000000,,,,,,,,
1697105924.065175,261233.000000,1697105924.050630,0.000000,0.000000,0.000000,0.000000,0.000000,0.000000,,,,,,,,
1697105924.078296,261234.000000,1697105924.061125,0.000000,0.000000,0.000000,0.000000,0.000000,0.000000,,,,,,,,
1697105924.084584,261235.000000,1697105924.070906,0.000000,0.000000,0.000000,0.000000,0.000000,0.000000,,,,,,,,
