__time,/hsrb/joint_states/arm_flex_joint/effort,/hsrb/joint_states/arm_flex_joint/position,/hsrb/joint_states/arm_flex_joint/velocity,/hsrb/joint_states/arm_lift_joint/effort,/hsrb/joint_states/arm_lift_joint/position,/hsrb/joint_states/arm_lift_joint/velocity,/hsrb/joint_states/arm_roll_joint/effort,/hsrb/joint_states/arm_roll_joint/position,/hsrb/joint_states/arm_roll_joint/velocity,/hsrb/joint_states/base_l_drive_wheel_joint/effort,/hsrb/joint_states/base_l_drive_wheel_joint/position,/hsrb/joint_states/base_l_drive_wheel_joint/velocity,/hsrb/joint_states/base_r_drive_wheel_joint/effort,/hsrb/joint_states/base_r_drive_wheel_joint/position,/hsrb/joint_states/base_r_drive_wheel_joint/velocity,/hsrb/joint_states/base_roll_joint/effort,/hsrb/joint_states/base_roll_joint/position,/hsrb/joint_states/base_roll_joint/velocity,/hsrb/joint_states/hand_l_spring_proximal_joint/effort,/hsrb/joint_states/hand_l_spring_proximal_joint/position,/hsrb/joint_states/hand_l_spring_proximal_joint/velocity,/hsrb/joint_states/hand_motor_joint/effort,/hsrb/joint_states/hand_motor_joint/position,/hsrb/joint_states/hand_motor_joint/velocity,/hsrb/joint_states/hand_r_spring_proximal_joint/effort,/hsrb/joint_states/hand_r_spring_proximal_joint/position,/hsrb/joint_states/hand_r_spring_proximal_joint/velocity,/hsrb/joint_states/head_pan_joint/effort,/hsrb/joint_states/head_pan_joint/position,/hsrb/joint_states/head_pan_joint/velocity,/hsrb/joint_states/head_tilt_joint/effort,/hsrb/joint_states/head_tilt_joint/position,/hsrb/joint_states/head_tilt_joint/velocity,/hsrb/joint_states/header/seq,/hsrb/joint_states/header/stamp,/hsrb/joint_states/wrist_flex_joint/effort,/hsrb/joint_states/wrist_flex_joint/position,/hsrb/joint_states/wrist_flex_joint/velocity,/hsrb/joint_states/wrist_roll_joint/effort,/hsrb/joint_states/wrist_roll_joint/position,/hsrb/joint_states/wrist_roll_joint/velocity,/hsrb/pressure_sensor/data,/hsrb/wrist_wrench/compensated/header/seq,/hsrb/wrist_wrench/compensated/header/stamp,/hsrb/wrist_wrench/compensated/wrench/force/x,/hsrb/wrist_wrench/compensated/wrench/force/y,/hsrb/wrist_wrench/compensated/wrench/force/z,/hsrb/wrist_wrench/compensated/wrench/torque/x,/hsrb/wrist_wrench/compensated/wrench/torque/y,/hsrb/wrist_wrench/compensated/wrench/torque/z
1692617765.824144,,,,,,,,,,,,,,,,,,,,,,,,,,,,,,,,,,,,,,,,,,,86094.000000,1692617765.811163,-0.005027,0.022627,0.008048,-0.000299,0.000925,0.000412
1692617765.839758,,,,,,,,,,,,,,,,,,,,,,,,,,,,,,,,,,,,,,,,,,,86095.000000,1692617765.821072,-0.004904,0.022094,0.007767,-0.000292,0.000903,0.000403
1692617765.847497,,,,,,,,,,,,,,,,,,,,,,,,,,,,,,,,,,,,,,,,,,,86096.000000,1692617765.833000,-0.004274,0.019108,0.006696,-0.000253,0.000784,0.000350
1692617765.847665,1.488303,-0.091612,0.000018,56.463915,0.156077,0.000008,-0.143520,-0.047256,0.000046,0.016182,-0.139641,-0.000653,0.000000,0.404654,-0.000653,1.048800,-1.180589,0.002911,-1.944000,-0.054728,0.012000,-0.001225,1.395727,0.002363,-1.758000,-0.024727,-0.007000,0.126960,-0.000015,0.000138,-1.393143,0.000002,-0.000038,43553.000000,1692617765.833915,1.167086,-1.479526,0.000048,-0.105143,0.004373,0.000048,,,,,,,,,
1692617765.849171,,,,,,,,,,,,,,,,,,,,,,,,,,,,,,,,,,,,,,,,,,0.000000,,,,,,,,
1692617765.852014,,,,,,,,,,,,,,,,,,,,,,,,,,,,,,,,,,,,,,,,,,,86097.000000,1692617765.841998,-0.003540,0.015571,0.005477,-0.000207,0.000642,0.000287
1692617765.859318,,,,,,,,,,,,,,,,,,,,,,,,,,,,,,,,,,,,,,,,,,,86098.000000,1692617765.850940,-0.002748,0.011851,0.004202,-0.000158,0.000492,0.000220
1692617765.862232,0.177949,-0.091228,0.000654,57.337068,0.156076,-0.000008,-0.093840,-0.047256,0.000046,0.018879,-0.139641,-0.000653,-0.008091,0.404654,-0.000653,1.126080,-1.180589,0.002136,-1.940000,-0.052727,0.012000,0.001637,1.395727,0.002363,-1.759000,-0.024727,-0.006000,0.095680,-0.000015,0.000138,-1.320857,0.000002,-0.000038,43554.000000,1692617765.853921,1.261714,-1.479526,0.000048,-0.084114,0.004760,0.000048,,,,,,,,,
1692617765.867356,,,,,,,,,,,,,,,,,,,,,,,,,,,,,,,,,,,,,,,,,,,86099.000000,1692617765.861304,-0.001695,0.007208,0.002593,-0.000096,0.000302,0.000135
1692617765.876519,,,,,,,,,,,,,,,,,,,,,,,,,,,,,,,,,,,,,,,,,,,86100.000000,1692617765.871260,-0.000386,0.001629,0.000600,-0.000022,0.000069,0.000031
1692617765.893535,,,,,,,,,,,,,,,,,,,,,,,,,,,,,,,,,,,,,,,,,,,86101.000000,1692617765.882518,0.000000,0.000000,0.000000,0.000000,0.000000,0.000000
1692617765.893863,1.245645,-0.091228,0.000018,57.628119,0.156076,-0.000008,-0.060720,-0.047256,0.000046,0.016182,-0.139641,-0.000653,0.000000,0.404654,-0.000653,1.280640,-1.180589,0.002481,-1.939000,-0.053727,0.019999,-0.000408,1.395727,0.002363,-1.758000,-0.024727,-0.004999,0.106720,-0.000015,0.000138,-1.274857,0.000002,-0.000038,43555.000000,1692617765.873921,1.293257,-1.479526,0.000048,-0.036800,0.004373,0.000048,,,,,,,,,
1692617765.899924,,,,,,,,,,,,,,,,,,,,,,,,,,,,,,,,,,,,,,,,,,,86102.000000,1692617765.891074,0.000000,0.000000,0.000000,0.000000,0.000000,0.000000
1692617765.908999,1.957442,-0.091612,0.000535,57.337068,0.156076,-0.000008,-0.226320,-0.047256,0.000046,0.016182,-0.139641,-0.000653,-0.008091,0.404654,-0.000653,1.324800,-1.180600,-0.003979,-1.940000,-0.054728,0.014000,0.000408,1.395727,0.002363,-1.761000,-0.025727,-0.008999,0.069920,-0.000015,0.000138,-1.412857,0.000002,-0.000038,43556.000000,1692617765.893913,1.193371,-1.479526,0.000048,-0.042057,0.004373,0.000048,,,,,,,,,
1692617765.911863,,,,,,,,,,,,,,,,,,,,,,,,,,,,,,,,,,,,,,,,,,,86103.000000,1692617765.901078,0.000000,0.000000,0.000000,0.000000,0.000000,0.000000
1692617765.930612,,,,,,,,,,,,,,,,,,,,,,,,,,,,,,,,,,,,,,,,,,,86104.000000,1692617765.911661,0.000000,0.000000,0.000000,0.000000,0.000000,0.000000
1692617765.930676,0.258835,-0.091228,0.000018,57.337068,0.156076,-0.000008,-0.231840,-0.047256,0.000046,0.013485,-0.139641,-0.000653,-0.008091,0.404654,-0.000653,1.302720,-1.180589,0.002282,-1.944000,-0.058727,-0.010999,0.002046,1.395727,0.002363,-1.761000,-0.025727,-0.008000,0.082800,-0.000015,0.000138,-1.419429,0.000002,-0.000038,43557.000000,1692617765.913917,1.272229,-1.479526,0.000048,-0.063086,0.004373,0.000048,,,,,,,,,
1692617765.946107,,,,,,,,,,,,,,,,,,,,,,,,,,,,,,,,,,,,,,,,,,,86105.000000,1692617765.921081,0.000000,0.000000,0.000000,0.000000,0.000000,0.000000
1692617765.955811,,,,,,,,,,,,,,,,,,,,,,,,,,,,,,,,,,,,,,,,,,,86106.000000,1692617765.931168,0.000000,0.000000,0.000000,0.000000,0.000000,0.000000
1692617765.958388,1.375062,-0.091612,0.001034,57.337068,0.156076,-0.000008,-0.193200,-0.047256,0.000046,0.016182,-0.139641,-0.000653,-0.008091,0.404654,-0.000653,1.413120,-1.180579,0.008314,-1.945000,-0.059728,-0.010999,0.000817,1.395727,0.002363,-1.761000,-0.025727,-0.012000,0.106720,-0.000015,0.000138,-1.445714,0.000002,-0.000038,43558.000000,1692617765.933915,1.214400,-1.479526,0.000048,0.005257,0.004760,0.000048,,,,,,,,,
1692617765.958429,,,,,,,,,,,,,,,,,,,,,,,,,,,,,,,,,,,,,,,,,,,86107.000000,1692617765.941255,0.000000,0.000000,0.000000,0.000000,0.000000,0.000000
1692617765.959058,,,,,,,,,,,,,,,,,,,,,,,,,,,,,,,,,,,,,,,,,,0.000000,,,,,,,,
1692617765.961610,,,,,,,,,,,,,,,,,,,,,,,,,,,,,,,,,,,,,,,,,,,86108.000000,1692617765.951100,0.000000,0.000000,0.000000,0.000000,0.000000,0.000000
1692617765.967024,,,,,,,,,,,,,,,,,,,,,,,,,,,,,,,,,,,,,,,,,,,86109.000000,1692617765.961079,0.000000,0.000000,0.000000,0.000000,0.000000,0.000000
1692617765.967048,2.103036,-0.091612,0.000018,57.046017,0.156076,-0.000008,-0.220800,-0.047256,0.000046,0.016182,-0.139641,-0.000653,-0.008091,0.404654,-0.000653,1.424160,-1.180589,0.002827,-1.947000,-0.060727,-0.018999,0.000000,1.395727,0.002363,-1.761000,-0.025727,-0.012000,0.023920,-0.000015,0.000138,-1.399714,0.000002,-0.000038,43559.000000,1692617765.953916,1.104000,-1.479526,0.000048,0.000000,0.004760,0.000048,,,,,,,,,
1692617765.978657,,,,,,,,,,,,,,,,,,,,,,,,,,,,,,,,,,,,,,,,,,,86110.000000,1692617765.971092,0.000000,0.000000,0.000000,0.000000,0.000000,0.000000
1692617765.986750,2.653061,-0.091612,0.000018,57.337068,0.156076,-0.000008,-0.143520,-0.047256,0.000046,0.016182,-0.139641,-0.000653,-0.002697,0.404654,-0.000653,0.949440,-1.180589,-0.006220,-1.952000,-0.063727,-0.023000,0.000000,1.395727,0.002363,-1.764000,-0.025727,-0.016000,0.071760,-0.000015,0.000138,-1.294571,0.000006,0.000038,43560.000000,1692617765.973919,1.188114,-1.479526,0.000048,-0.105143,0.004760,0.000048,,,,,,,,,
1692617765.987656,,,,,,,,,,,,,,,,,,,,,,,,,,,,,,,,,,,,,,,,,,,86111.000000,1692617765.981145,0.000000,0.000000,0.000000,0.000000,0.000000,0.000000
1692617766.000413,,,,,,,,,,,,,,,,,,,,,,,,,,,,,,,,,,,,,,,,,,,86112.000000,1692617765.991045,0.000000,0.000000,0.000000,0.000000,0.000000,0.000000
1692617766.003322,1.019164,-0.091612,0.000311,57.628119,0.156076,-0.000008,-0.209760,-0.047256,0.000046,0.016182,-0.139641,-0.000653,0.000000,0.404654,-0.000653,1.092960,-1.180579,0.001319,-1.953000,-0.063727,-0.030999,0.001637,1.395727,0.002363,-1.766000,-0.027727,-0.010999,0.084640,-0.000015,0.000138,-1.294571,0.000006,0.000038,43561.000000,1692617765.993915,1.309029,-1.479526,0.000048,-0.126171,0.004760,0.000048,,,,,,,,,
1692617766.011659,,,,,,,,,,,,,,,,,,,,,,,,,,,,,,,,,,,,,,,,,,,86113.000000,1692617766.001073,0.000000,0.000000,0.000000,0.000000,0.000000,0.000000
1692617766.029826,,,,,,,,,,,,,,,,,,,,,,,,,,,,,,,,,,,,,,,,,,,86114.000000,1692617766.011600,0.000000,0.000000,0.000000,0.000000,0.000000,0.000000
1692617766.035331,2.507466,-0.091612,0.000254,57.628119,0.156076,-0.000008,-0.198720,-0.047256,0.000046,0.013485,-0.139641,-0.000653,-0.008091,0.404654,-0.000653,1.302720,-1.180589,-0.000094,-1.952000,-0.060727,-0.013000,0.001225,1.395727,0.002363,-1.769000,-0.028728,-0.018999,0.036800,-0.000015,0.000138,-1.432571,0.000006,0.000038,43562.000000,1692617766.013916,1.293257,-1.479526,0.000048,-0.057829,0.004760,0.000048,,,,,,,,,
1692617766.038672,,,,,,,,,,,,,,,,,,,,,,,,,,,,,,,,,,,,,,,,,,,86116.000000,1692617766.031081,0.000000,0.000000,0.000000,0.000000,0.000000,0.000000
1692617766.052962,,,,,,,,,,,,,,,,,,,,,,,,,,,,,,,,,,,,,,,,,,,86117.000000,1692617766.041070,0.000000,0.000000,0.000000,0.000000,0.000000,0.000000
1692617766.053013,1.957442,-0.091612,0.000208,57.337068,0.156076,-0.000008,-0.270480,-0.047256,0.000046,0.010788,-0.139641,-0.000653,0.000000,0.404654,-0.000653,1.148160,-1.180589,-0.000324,-1.950000,-0.057727,-0.013000,-0.006549,1.395727,0.002363,-1.766000,-0.025727,-0.023000,0.051520,-0.000015,0.000138,-1.419429,0.000006,0.000038,43563.000000,1692617766.033918,1.224914,-1.479526,0.000048,-0.052571,0.004760,0.000048,,,,,,,,,
1692617766.066054,2.653061,-0.091612,0.000022,57.919170,0.156076,-0.000008,-0.160080,-0.047262,-0.000046,0.010788,-0.139641,-0.000653,-0.008091,0.404654,-0.000653,1.258560,-1.180589,-0.003078,-1.950000,-0.059137,0.002000,0.001637,1.395136,0.002363,-1.763000,-0.023137,-0.007000,0.040480,-0.000015,0.000138,-1.570571,0.000006,0.000038,43564.000000,1692617766.043926,1.288000,-1.479526,0.000048,-0.105143,0.004760,0.000048,,,,,,,,,
1692617766.066073,,,,,,,,,,,,,,,,,,,,,,,,,,,,,,,,,,,,,,,,,,,86118.000000,1692617766.051097,0.000000,0.000000,0.000000,0.000000,0.000000,0.000000
1692617766.067996,,,,,,,,,,,,,,,,,,,,,,,,,,,,,,,,,,,,,,,,,,0.000000,,,,,,,,
1692617766.074830,,,,,,,,,,,,,,,,,,,,,,,,,,,,,,,,,,,,,,,,,,,86119.000000,1692617766.061068,0.000000,0.000000,0.000000,0.000000,0.000000,0.000000
1692617766.082556,,,,,,,,,,,,,,,,,,,,,,,,,,,,,,,,,,,,,,,,,,,86120.000000,1692617766.071075,0.000000,0.000000,0.000000,0.000000,0.000000,0.000000
1692617766.087178,2.313340,-0.091612,-0.000018,57.628119,0.156076,-0.000008,-0.077280,-0.047262,-0.000046,0.013485,-0.139641,-0.000653,-0.008091,0.404654,-0.000653,1.413120,-1.180589,0.003947,-1.945000,-0.054728,0.010999,0.000408,1.395727,-0.000590,-1.763000,-0.022727,-0.002000,0.115920,-0.000015,0.000138,-1.498286,0.000006,0.000038,43565.000000,1692617766.073915,1.214400,-1.479526,0.000048,-0.136686,0.004760,0.000048,,,,,,,,,
1692617766.095416,,,,,,,,,,,,,,,,,,,,,,,,,,,,,,,,,,,,,,,,,,,86121.000000,1692617766.082096,0.000000,0.000000,0.000000,0.000000,0.000000,0.000000
1692617766.103043,,,,,,,,,,,,,,,,,,,,,,,,,,,,,,,,,,,,,,,,,,,86122.000000,1692617766.091049,0.000000,0.000000,0.000000,0.000000,0.000000,0.000000
1692617766.105092,1.536834,-0.091612,0.000054,57.628119,0.156076,-0.000008,-0.033120,-0.047262,-0.000046,0.016182,-0.139641,-0.000653,-0.002697,0.404654,-0.000653,1.457280,-1.180589,0.005518,-1.945000,-0.054728,0.014999,-0.001225,1.395727,0.002363,-1.763000,-0.022727,0.008000,0.068080,-0.000015,0.000138,-1.393143,0.000006,0.000038,43566.000000,1692617766.093918,1.282743,-1.479526,0.000048,-0.047314,0.004760,0.000048,,,,,,,,,
1692617766.110376,,,,,,,,,,,,,,,,,,,,,,,,,,,,,,,,,,,,,,,,,,,86123.000000,1692617766.101654,0.000000,0.000000,0.000000,0.000000,0.000000,0.000000
1692617766.118520,1.828024,-0.091612,0.000032,57.046017,0.156076,-0.000008,-0.093840,-0.047262,-0.000046,0.013485,-0.139641,-0.000653,-0.005394,0.404654,-0.000653,1.457280,-1.180579,0.010168,-1.944000,-0.053546,0.014999,-0.000408,1.394545,0.002363,-1.763000,-0.022546,0.008000,0.079120,-0.000015,0.000138,-1.314286,0.000006,0.000038,43567.000000,1692617766.103928,1.303771,-1.479526,0.000048,-0.110400,0.004760,0.000048,,,,,,,,,
1692617766.118541,,,,,,,,,,,,,,,,,,,,,,,,,,,,,,,,,,,,,,,,,,,86124.000000,1692617766.111435,0.000000,0.000000,0.000000,0.000000,0.000000,0.000000
1692617766.129735,,,,,,,,,,,,,,,,,,,,,,,,,,,,,,,,,,,,,,,,,,,86125.000000,1692617766.121185,0.000000,0.000000,0.000000,0.000000,0.000000,0.000000
1692617766.137958,1.439771,-0.091228,-0.000945,57.919170,0.156076,-0.000008,-0.132480,-0.047262,-0.000046,0.016182,-0.139641,-0.000653,-0.008091,0.404654,-0.000653,1.280640,-1.180579,0.000911,-1.944000,-0.055727,0.018999,0.000000,1.395727,0.002363,-1.764000,-0.024727,-0.003000,0.042320,-0.000015,0.000138,-1.334000,0.000006,0.000038,43568.000000,1692617766.123937,1.293257,-1.479526,0.000048,-0.094629,0.004760,0.000048,,,,,,,,,
1692617766.145903,,,,,,,,,,,,,,,,,,,,,,,,,,,,,,,,,,,,,,,,,,,86126.000000,1692617766.131189,0.000000,0.000000,0.000000,0.000000,0.000000,0.000000
1692617766.152611,,,,,,,,,,,,,,,,,,,,,,,,,,,,,,,,,,,,,,,,,,,86127.000000,1692617766.141050,0.000000,0.000000,0.000000,0.000000,0.000000,0.000000
1692617766.159528,,,,,,,,,,,,,,,,,,,,,,,,,,,,,,,,,,,,,,,,,,,86128.000000,1692617766.152907,0.000000,0.000000,0.000000,0.000000,0.000000,0.000000
1692617766.162518,2.620707,-0.091612,-0.000561,57.337068,0.156076,-0.000008,-0.099360,-0.047262,-0.000046,0.018879,-0.139641,-0.000653,-0.005394,0.404654,-0.000653,1.335840,-1.180589,-0.003769,-1.942000,-0.054137,0.008999,-0.000408,1.395136,0.002363,-1.766000,-0.026137,-0.003000,0.075440,-0.000015,0.000138,-1.452286,0.000006,0.000038,43569.000000,1692617766.143929,1.140800,-1.479526,0.000048,0.015771,0.004760,0.000048,,,,,,,,,
1692617766.176401,,,,,,,,,,,,,,,,,,,,,,,,,,,,,,,,,,,,,,,,,,,86129.000000,1692617766.160954,0.000000,0.000000,0.000000,0.000000,0.000000,0.000000
1692617766.176416,,,,,,,,,,,,,,,,,,,,,,,,,,,,,,,,,,,,,,,,,,0.000000,,,,,,,,
1692617766.188486,,,,,,,,,,,,,,,,,,,,,,,,,,,,,,,,,,,,,,,,,,,86130.000000,1692617766.171696,0.000000,0.000000,0.000000,0.000000,0.000000,0.000000
1692617766.188506,2.685416,-0.091612,0.001631,57.337068,0.156076,-0.000008,-0.038640,-0.047262,-0.000046,0.013485,-0.139641,-0.000653,-0.002697,0.404654,-0.000653,1.148160,-1.180579,0.000565,-1.945000,-0.057136,-0.004000,0.000817,1.395136,-0.000590,-1.764000,-0.024136,-0.002000,0.110400,-0.000015,0.000138,-1.445714,0.000006,0.000038,43570.000000,1692617766.173915,1.130286,-1.479526,0.000048,-0.084114,0.004760,0.000048,,,,,,,,,
1692617766.191361,,,,,,,,,,,,,,,,,,,,,,,,,,,,,,,,,,,,,,,,,,,86131.000000,1692617766.181049,0.000000,0.000000,0.000000,0.000000,0.000000,0.000000
1692617766.199025,,,,,,,,,,,,,,,,,,,,,,,,,,,,,,,,,,,,,,,,,,,86132.000000,1692617766.191077,0.000000,0.000000,0.000000,0.000000,0.000000,0.000000
1692617766.205462,2.086859,-0.091612,0.001631,57.628119,0.156076,-0.000008,-0.049680,-0.047262,-0.000046,0.016182,-0.139641,-0.000653,-0.005394,0.404654,-0.000653,1.203360,-1.180579,0.001068,-1.945000,-0.056545,-0.008000,0.000817,1.394545,-0.002954,-1.761000,-0.022546,0.003000,0.077280,-0.000015,0.000138,-1.432571,0.000006,0.000038,43571.000000,1692617766.193919,1.198629,-1.479526,0.000048,-0.068343,0.004760,0.000048,,,,,,,,,
1692617766.215209,,,,,,,,,,,,,,,,,,,,,,,,,,,,,,,,,,,,,,,,,,,86133.000000,1692617766.201391,0.000000,0.000000,0.000000,0.000000,0.000000,0.000000
1692617766.223459,,,,,,,,,,,,,,,,,,,,,,,,,,,,,,,,,,,,,,,,,,,86134.000000,1692617766.211055,0.000000,0.000000,0.000000,0.000000,0.000000,0.000000
1692617766.223522,2.151568,-0.091612,0.000024,57.628119,0.156076,-0.000008,-0.049680,-0.047262,-0.000046,0.021576,-0.139641,-0.000653,-0.008091,0.404654,-0.000653,0.982560,-1.180589,-0.007131,-1.942000,-0.054545,0.007000,0.000817,1.394545,0.000000,-1.763000,-0.023545,0.003000,0.086480,-0.000015,0.000138,-1.347143,0.000006,0.000038,43572.000000,1692617766.213916,1.303771,-1.479526,0.000048,-0.057829,0.004760,0.000048,,,,,,,,,
1692617766.242487,,,,,,,,,,,,,,,,,,,,,,,,,,,,,,,,,,,,,,,,,,,86135.000000,1692617766.221303,0.000000,0.000000,0.000000,0.000000,0.000000,0.000000
1692617766.251119,,,,,,,,,,,,,,,,,,,,,,,,,,,,,,,,,,,,,,,,,,,86136.000000,1692617766.230981,0.000000,0.000000,0.000000,0.000000,0.000000,0.000000
1692617766.255978,2.944251,-0.091612,0.000094,57.919170,0.156076,-0.000008,-0.060720,-0.047262,-0.000046,0.018879,-0.139641,-0.000653,-0.002697,0.404654,-0.000653,1.104000,-1.180589,-0.000816,-1.939000,-0.052545,0.007000,-0.005732,1.394545,-0.002954,-1.764000,-0.023545,-0.002000,0.044160,-0.000015,0.000138,-1.314286,0.000006,0.000038,43573.000000,1692617766.233917,1.224914,-1.479526,0.000048,-0.126171,0.004373,0.000048,,,,,,,,,
1692617766.259248,,,,,,,,,,,,,,,,,,,,,,,,,,,,,,,,,,,,,,,,,,,86137.000000,1692617766.243957,0.000000,0.000000,0.000000,0.000000,0.000000,0.000000
1692617766.260628,,,,,,,,,,,,,,,,,,,,,,,,,,,,,,,,,,,,,,,,,,,86138.000000,1692617766.251446,0.000000,0.000000,0.000000,0.000000,0.000000,0.000000
1692617766.266040,2.361872,-0.091612,0.000054,57.628119,0.156076,-0.000008,-0.027600,-0.047262,-0.000046,0.018879,-0.139641,-0.000653,-0.005394,0.404654,-0.000653,1.479360,-1.180589,0.001612,-1.937000,-0.052545,0.010999,-0.001225,1.394545,-0.002954,-1.764000,-0.024545,-0.002000,0.095680,-0.000015,0.000138,-1.478571,0.000006,0.000038,43574.000000,1692617766.253917,1.140800,-1.479526,0.000048,-0.015771,0.004760,0.000048,,,,,,,,,
1692617766.269190,,,,,,,,,,,,,,,,,,,,,,,,,,,,,,,,,,,,,,,,,,,86139.000000,1692617766.261136,0.000000,0.000000,0.000000,0.000000,0.000000,0.000000
1692617766.283849,,,,,,,,,,,,,,,,,,,,,,,,,,,,,,,,,,,,,,,,,,,86140.000000,1692617766.271115,0.000000,0.000000,0.000000,0.000000,0.000000,0.000000
1692617766.283860,,,,,,,,,,,,,,,,,,,,,,,,,,,,,,,,,,,,,,,,,,0.000000,,,,,,,,
1692617766.287607,2.458935,-0.091612,0.000018,57.628119,0.156076,-0.000008,-0.022080,-0.047262,-0.000046,0.018879,-0.139641,-0.000653,-0.002697,0.404654,-0.000653,1.170240,-1.180579,0.003906,-1.944000,-0.057955,-0.014000,0.000000,1.393954,-0.002954,-1.768000,-0.025954,-0.004999,0.031280,-0.000015,0.000138,-1.491714,0.000006,0.000038,43575.000000,1692617766.273919,1.224914,-1.479526,0.000048,-0.110400,0.004760,0.000048,,,,,,,,,
1692617766.299085,,,,,,,,,,,,,,,,,,,,,,,,,,,,,,,,,,,,,,,,,,,86141.000000,1692617766.282301,0.000000,0.000000,0.000000,0.000000,0.000000,0.000000
1692617766.310881,1.633897,-0.091612,0.000525,57.919170,0.156076,-0.000008,0.038640,-0.047262,-0.000046,0.018879,-0.139641,-0.000653,0.000000,0.404654,-0.000653,1.015680,-1.180589,-0.001392,-1.944000,-0.057955,-0.014000,0.001225,1.393954,-0.005318,-1.771000,-0.025954,-0.014000,0.025760,-0.000015,0.000138,-1.458857,0.000002,-0.000038,43576.000000,1692617766.293918,1.203886,-1.479526,0.000048,-0.052571,0.004373,0.000048,,,,,,,,,
1692617766.313729,,,,,,,,,,,,,,,,,,,,,,,,,,,,,,,,,,,,,,,,,,,86143.000000,1692617766.301795,0.000000,0.000000,0.000000,0.000000,0.000000,0.000000
1692617766.328739,,,,,,,,,,,,,,,,,,,,,,,,,,,,,,,,,,,,,,,,,,,86144.000000,1692617766.320808,0.000000,0.000000,0.000000,0.000000,0.000000,0.000000
1692617766.331924,2.733947,-0.091612,-0.000026,57.046017,0.156076,-0.000008,-0.060720,-0.047262,-0.000046,0.018879,-0.139641,-0.000653,-0.002697,0.404654,-0.000653,1.435200,-1.180600,-0.002576,-1.949000,-0.060546,-0.013000,0.001225,1.394545,-0.004727,-1.769000,-0.026545,-0.014000,0.060720,-0.000015,0.000138,-1.320857,0.000002,-0.000038,43577.000000,1692617766.313919,1.219657,-1.479526,0.000048,-0.073600,0.004373,0.000048,,,,,,,,,
1692617766.358814,,,,,,,,,,,,,,,,,,,,,,,,,,,,,,,,,,,,,,,,,,,86146.000000,1692617766.331928,0.000000,0.000000,0.000000,0.000000,0.000000,0.000000
1692617766.364908,1.601543,-0.091612,0.000345,57.628119,0.156076,-0.000008,0.011040,-0.047262,-0.000046,0.018879,-0.139641,-0.000653,-0.002697,0.404654,-0.000653,1.137120,-1.180579,0.006890,-1.950000,-0.060727,-0.010999,0.002046,1.395727,0.004136,-1.771000,-0.027727,-0.014000,0.047840,-0.000015,0.000138,-1.314286,0.000002,-0.000038,43578.000000,1692617766.333919,1.209143,-1.479526,0.000048,-0.010514,0.004760,-0.002512,,,,,,,,,
1692617766.369926,,,,,,,,,,,,,,,,,,,,,,,,,,,,,,,,,,,,,,,,,,,86148.000000,1692617766.351724,0.000000,0.000000,0.000000,0.000000,0.000000,0.000000
1692617766.379369,,,,,,,,,,,,,,,,,,,,,,,,,,,,,,,,,,,,,,,,,,,86149.000000,1692617766.361285,0.000000,0.000000,0.000000,0.000000,0.000000,0.000000
1692617766.384483,3.057491,-0.091612,0.000018,57.919170,0.156076,-0.000008,-0.055200,-0.047256,0.000046,0.018879,-0.139641,-0.000653,-0.008091,0.404654,-0.000653,1.115040,-1.180589,-0.004754,-1.950000,-0.059728,-0.018999,0.000000,1.395727,0.004136,-1.774000,-0.028728,-0.014000,0.047840,-0.000015,0.000138,-1.537714,0.000002,-0.000038,43580.000000,1692617766.363924,1.256457,-1.479526,0.000048,-0.057829,0.004373,-0.000048,,,,,,,,,
1692617766.384503,,,,,,,,,,,,,,,,,,,,,,,,,,,,,,,,,,,,,,,,,,,86150.000000,1692617766.371400,0.000000,0.000000,0.000000,0.000000,0.000000,0.000000
1692617766.404139,,,,,,,,,,,,,,,,,,,,,,,,,,,,,,,,,,,,,,,,,,,86151.000000,1692617766.381035,0.000000,0.000000,0.000000,0.000000,0.000000,0.000000
1692617766.404159,,,,,,,,,,,,,,,,,,,,,,,,,,,,,,,,,,,,,,,,,,0.000000,,,,,,,,
1692617766.410134,1.908910,-0.091228,-0.000056,58.210221,0.156076,-0.000008,-0.033120,-0.047256,0.000046,0.018879,-0.139641,-0.000653,-0.005394,0.404654,-0.000653,1.523520,-1.180589,-0.001748,-1.953000,-0.061728,-0.014000,-0.000408,1.395727,0.004136,-1.764000,-0.020727,0.016000,0.046000,-0.000015,0.000138,-1.380000,0.000002,-0.000038,43581.000000,1692617766.393915,1.235429,-1.479526,0.000048,0.015771,0.004373,-0.000048,,,,,,,,,
1692617766.410155,,,,,,,,,,,,,,,,,,,,,,,,,,,,,,,,,,,,,,,,,,,86153.000000,1692617766.401080,0.000000,0.000000,0.000000,0.000000,0.000000,0.000000
1692617766.430305,,,,,,,,,,,,,,,,,,,,,,,,,,,,,,,,,,,,,,,,,,,86154.000000,1692617766.411030,0.000000,0.000000,0.000000,0.000000,0.000000,0.000000
1692617766.434734,3.154555,-0.091612,0.000018,58.210221,0.156076,-0.000008,-0.121440,-0.047256,0.000046,0.018879,-0.139641,-0.000653,-0.005394,0.404654,-0.000653,1.622880,-1.180579,0.003623,-1.952000,-0.058727,-0.013000,-0.000817,1.395727,0.004136,-1.763000,-0.020727,0.018999,0.022080,-0.000015,0.000138,-1.445714,0.000002,-0.000038,43582.000000,1692617766.413915,1.272229,-1.479526,0.000048,-0.141943,0.004373,-0.000048,,,,,,,,,
1692617766.452713,,,,,,,,,,,,,,,,,,,,,,,,,,,,,,,,,,,,,,,,,,,86156.000000,1692617766.431274,0.000000,0.000000,0.000000,0.000000,0.000000,0.000000
1692617766.462635,2.863365,-0.091612,0.000032,57.337068,0.156076,-0.000008,-0.044160,-0.047256,0.000046,0.018879,-0.139641,-0.000653,-0.005394,0.404654,-0.000653,1.512480,-1.180579,0.006503,-1.953000,-0.059318,-0.007000,0.000408,1.396318,0.004136,-1.763000,-0.022319,0.018999,0.073600,-0.000015,0.000138,-1.439143,0.000002,-0.000038,43583.000000,1692617766.433932,1.172343,-1.479526,0.000048,-0.063086,0.003992,-0.000048,,,,,,,,,
1692617766.462689,,,,,,,,,,,,,,,,,,,,,,,,,,,,,,,,,,,,,,,,,,,86157.000000,1692617766.441094,0.000000,0.000000,0.000000,0.000000,0.000000,0.000000
1692617766.475372,,,,,,,,,,,,,,,,,,,,,,,,,,,,,,,,,,,,,,,,,,,86158.000000,1692617766.450983,0.000000,0.000000,0.000000,0.000000,0.000000,0.000000
1692617766.477964,,,,,,,,,,,,,,,,,,,,,,,,,,,,,,,,,,,,,,,,,,,86159.000000,1692617766.461280,0.000000,0.000000,0.000000,0.000000,0.000000,0.000000
1692617766.478087,2.054505,-0.091612,-0.000018,58.501272,0.156076,-0.000008,-0.044160,-0.047256,0.000046,0.018879,-0.139641,-0.000653,-0.005394,0.404654,-0.000653,1.302720,-1.180589,-0.005215,-1.952000,-0.058318,-0.002000,0.000408,1.396318,0.006499,-1.764000,-0.023318,0.014000,0.090160,-0.000015,0.000138,-1.485143,0.000002,-0.000038,43584.000000,1692617766.453916,1.193371,-1.479526,0.000048,-0.094629,0.004373,-0.000048,,,,,,,,,
1692617766.508441,,,,,,,,,,,,,,,,,,,,,,,,,,,,,,,,,,,,,,,,,,,86160.000000,1692617766.471328,0.000000,0.000000,0.000000,0.000000,0.000000,0.000000
1692617766.525529,0.889746,-0.091228,0.000018,57.628119,0.156076,-0.000008,-0.104880,-0.047256,0.000046,0.018879,-0.139641,-0.000653,0.000000,0.404654,-0.000653,1.159200,-1.180589,-0.006618,-1.947000,-0.054545,0.003000,0.000000,1.394545,0.006499,-1.761000,-0.021545,0.008999,0.064400,-0.000015,0.000138,-1.577143,0.000002,-0.000038,43585.000000,1692617766.463924,1.104000,-1.479526,0.000048,-0.036800,0.004373,-0.000048,,,,,,,,,
1692617766.525552,,,,,,,,,,,,,,,,,,,,,,,,,,,,,,,,,,,,,,,,,,,86161.000000,1692617766.481036,0.000000,0.000000,0.000000,0.000000,0.000000,0.000000
1692617766.529826,,,,,,,,,,,,,,,,,,,,,,,,,,,,,,,,,,,,,,,,,,0.000000,,,,,,,,
1692617766.535432,,,,,,,,,,,,,,,,,,,,,,,,,,,,,,,,,,,,,,,,,,,86162.000000,1692617766.491357,0.000000,0.000000,0.000000,0.000000,0.000000,0.000000
1692617766.535454,1.375062,-0.091228,0.000018,57.919170,0.156076,-0.000008,-0.060720,-0.047256,0.000046,0.016182,-0.139641,-0.000653,-0.002697,0.404654,-0.000653,1.368960,-1.180579,0.004670,-1.945000,-0.055546,0.002000,0.000408,1.394545,-0.002363,-1.758000,-0.021545,0.004000,0.047840,-0.000015,0.000138,-1.380000,0.000002,-0.000038,43586.000000,1692617766.493915,1.193371,-1.479526,0.000048,-0.105143,0.004373,-0.000048,,,,,,,,,
1692617766.536514,,,,,,,,,,,,,,,,,,,,,,,,,,,,,,,,,,,,,,,,,,,86164.000000,1692617766.511181,0.000000,0.000000,0.000000,0.000000,0.000000,0.000000
1692617766.554130,,,,,,,,,,,,,,,,,,,,,,,,,,,,,,,,,,,,,,,,,,,86165.000000,1692617766.522021,0.000000,0.000000,0.000000,0.000000,0.000000,0.000000
1692617766.554141,2.475112,-0.091612,0.000018,57.628119,0.156076,-0.000008,-0.110400,-0.047256,0.000046,0.016182,-0.139641,-0.000653,-0.005394,0.404654,-0.000653,1.424160,-1.180579,0.003717,-1.942000,-0.052136,0.009999,-0.000408,1.395136,-0.002363,-1.764000,-0.025136,0.008000,0.066240,-0.000015,0.000138,-1.472000,0.000002,-0.000038,43587.000000,1692617766.513916,1.198629,-1.479526,0.000048,-0.084114,0.004373,-0.000048,,,,,,,,,
1692617766.560575,0.032354,-0.091228,0.000506,58.210221,0.156076,-0.000008,-0.027600,-0.047256,0.000046,0.018879,-0.139641,-0.000653,-0.008091,0.404654,-0.000653,1.324800,-1.180579,0.003298,-1.942000,-0.054728,0.017000,0.000408,1.395727,0.002954,-1.764000,-0.025727,-0.007000,0.066240,-0.000015,0.000138,-1.366857,0.000002,-0.000038,43588.000000,1692617766.533916,1.198629,-1.479526,0.000048,-0.168229,0.004373,-0.000048,,,,,,,,,
1692617766.560614,,,,,,,,,,,,,,,,,,,,,,,,,,,,,,,,,,,,,,,,,,,86166.000000,1692617766.531277,0.000000,0.000000,0.000000,0.000000,0.000000,0.000000
1692617766.564435,,,,,,,,,,,,,,,,,,,,,,,,,,,,,,,,,,,,,,,,,,,86167.000000,1692617766.548690,0.000000,0.000000,0.000000,0.000000,0.000000,0.000000
1692617766.565818,1.730961,-0.091612,-0.000230,57.919170,0.156076,-0.000008,-0.071760,-0.047256,0.000046,0.021576,-0.139641,-0.000653,-0.005394,0.404654,-0.000653,1.137120,-1.180589,-0.000178,-1.947000,-0.058727,0.012000,-0.002046,1.395727,0.002954,-1.766000,-0.026728,-0.007000,0.062560,-0.000015,0.000138,-1.504857,0.000002,-0.000038,43589.000000,1692617766.553914,1.156571,-1.479526,0.000048,-0.084114,0.004373,-0.000048,,,,,,,,,
1692617766.565838,,,,,,,,,,,,,,,,,,,,,,,,,,,,,,,,,,,,,,,,,,,86168.000000,1692617766.552002,0.000000,0.000000,0.000000,0.000000,0.000000,0.000000
1692617766.570995,,,,,,,,,,,,,,,,,,,,,,,,,,,,,,,,,,,,,,,,,,,86169.000000,1692617766.561290,0.000000,0.000000,0.000000,0.000000,0.000000,0.000000
1692617766.577792,,,,,,,,,,,,,,,,,,,,,,,,,,,,,,,,,,,,,,,,,,,86170.000000,1692617766.571354,0.000000,0.000000,0.000000,0.000000,0.000000,0.000000
1692617766.586988,1.860378,-0.091612,0.000218,57.919170,0.156076,-0.000008,-0.033120,-0.047256,0.000046,0.016182,-0.139641,-0.000653,-0.002697,0.404654,-0.000653,1.004640,-1.180589,-0.002513,-1.945000,-0.056137,-0.003000,-0.001637,1.395136,0.000000,-1.766000,-0.026137,-0.010999,0.031280,-0.000015,0.000138,-1.399714,0.000002,-0.000038,43590.000000,1692617766.573935,1.161829,-1.479526,0.000048,-0.105143,0.004760,-0.000048,,,,,,,,,
1692617766.590095,,,,,,,,,,,,,,,,,,,,,,,,,,,,,,,,,,,,,,,,,,,86171.000000,1692617766.581701,0.000000,0.000000,0.000000,0.000000,0.000000,0.000000
1692617766.607278,,,,,,,,,,,,,,,,,,,,,,,,,,,,,,,,,,,,,,,,,,,86172.000000,1692617766.591089,0.000000,0.000000,0.000000,0.000000,0.000000,0.000000
1692617766.608388,1.763315,-0.091612,0.000018,57.919170,0.156076,-0.000008,-0.055200,-0.047256,0.000046,0.018879,-0.139641,-0.000653,-0.005394,0.404654,-0.000653,1.181280,-1.180579,0.002136,-1.942000,-0.054728,0.006000,0.001225,1.395727,0.000000,-1.766000,-0.025727,-0.010999,0.106720,-0.000015,0.000138,-1.544286,0.000002,-0.000038,43591.000000,1692617766.593925,1.135543,-1.479526,0.000048,-0.115657,0.004373,-0.000048,,,,,,,,,
1692617766.610360,,,,,,,,,,,,,,,,,,,,,,,,,,,,,,,,,,,,,,,,,,0.000000,,,,,,,,
1692617766.617799,,,,,,,,,,,,,,,,,,,,,,,,,,,,,,,,,,,,,,,,,,,86173.000000,1692617766.601286,0.000000,0.000000,0.000000,0.000000,0.000000,0.000000
1692617766.620163,1.116227,-0.091612,0.000032,57.919170,0.156076,-0.000008,-0.121440,-0.047256,0.000046,0.016182,-0.139641,-0.000653,-0.005394,0.404654,-0.000653,1.081920,-1.180589,-0.000094,-1.942000,-0.054728,0.006000,0.001225,1.395727,0.000000,-1.766000,-0.025727,-0.010999,0.040480,-0.000015,0.000138,-1.596857,0.000002,-0.000038,43592.000000,1692617766.603923,1.261714,-1.479526,0.000048,-0.068343,0.004373,-0.000048,,,,,,,,,
1692617766.631396,,,,,,,,,,,,,,,,,,,,,,,,,,,,,,,,,,,,,,,,,,,86174.000000,1692617766.612230,0.000000,0.000000,0.000000,0.000000,0.000000,0.000000
1692617766.634879,,,,,,,,,,,,,,,,,,,,,,,,,,,,,,,,,,,,,,,,,,,86175.000000,1692617766.622012,0.000000,0.000000,0.000000,0.000000,0.000000,0.000000
1692617766.640715,0.420607,-0.091228,0.000018,58.501272,0.156076,-0.000008,-0.160080,-0.047256,0.000046,0.021576,-0.139641,-0.000653,-0.005394,0.404654,-0.000653,1.225440,-1.180579,0.002576,-1.944000,-0.056137,0.000000,0.001225,1.395136,-0.000590,-1.774000,-0.029136,-0.028999,0.058880,-0.000015,0.000138,-1.445714,0.000002,-0.000038,43593.000000,1692617766.623925,1.193371,-1.479526,0.000048,-0.094629,0.004760,-0.000048,,,,,,,,,
1692617766.650335,,,,,,,,,,,,,,,,,,,,,,,,,,,,,,,,,,,,,,,,,,,86176.000000,1692617766.631332,0.000000,0.000000,0.000000,0.000000,0.000000,0.000000
1692617766.664177,,,,,,,,,,,,,,,,,,,,,,,,,,,,,,,,,,,,,,,,,,,86178.000000,1692617766.651036,0.000000,0.000000,0.000000,0.000000,0.000000,0.000000
1692617766.674047,0.679443,-0.091228,-0.000119,58.210221,0.156076,-0.000008,-0.022080,-0.047256,0.000046,0.018879,-0.139641,-0.000653,-0.008091,0.404654,-0.000653,1.523520,-1.180589,-0.003644,-1.942000,-0.056137,0.000000,-0.001225,1.395136,0.002363,-1.773000,-0.026137,-0.010999,0.053360,-0.000015,0.000138,-1.393143,0.000002,-0.000038,43594.000000,1692617766.653917,1.093486,-1.479526,0.000048,-0.078857,0.004760,-0.000048,,,,,,,,,
1692617766.685148,,,,,,,,,,,,,,,,,,,,,,,,,,,,,,,,,,,,,,,,,,,86180.000000,1692617766.671262,0.000000,0.000000,0.000000,0.000000,0.000000,0.000000
1692617766.691215,0.275012,-0.091228,-0.000052,58.210221,0.156076,-0.000008,-0.165600,-0.047256,0.000046,0.016182,-0.139641,-0.000653,-0.008091,0.404654,-0.000653,1.633920,-1.180579,0.003675,-1.942000,-0.056137,0.004999,0.000000,1.395136,-0.000590,-1.771000,-0.025136,-0.006000,0.033120,-0.000015,0.000138,-1.458857,0.000002,-0.000038,43595.000000,1692617766.673914,1.235429,-1.479526,0.000048,-0.078857,0.004760,-0.000048,,,,,,,,,
1692617766.698221,,,,,,,,,,,,,,,,,,,,,,,,,,,,,,,,,,,,,,,,,,,86181.000000,1692617766.681042,0.000000,0.000000,0.000000,0.000000,0.000000,0.000000
1692617766.710238,0.242658,-0.091228,-0.000030,57.919170,0.156076,-0.000008,-0.132480,-0.047256,0.000046,0.018879,-0.139641,-0.000653,-0.005394,0.404654,-0.000653,1.324800,-1.180568,0.003089,-1.940000,-0.056137,0.000000,0.001637,1.395136,-0.000590,-1.776000,-0.029136,-0.001000,0.066240,-0.000015,0.000138,-1.458857,0.000002,-0.000038,43596.000000,1692617766.693916,1.172343,-1.479526,0.000048,-0.068343,0.004373,-0.000048,,,,,,,,,
1692617766.710471,,,,,,,,,,,,,,,,,,,,,,,,,,,,,,,,,,,,,,,,,,,86182.000000,1692617766.691059,0.000000,0.000000,0.000000,0.000000,0.000000,0.000000
1692617766.717512,,,,,,,,,,,,,,,,,,,,,,,,,,,,,,,,,,,,,,,,,,0.000000,,,,,,,,
1692617766.720446,,,,,,,,,,,,,,,,,,,,,,,,,,,,,,,,,,,,,,,,,,,86184.000000,1692617766.711149,0.000000,0.000000,0.000000,0.000000,0.000000,0.000000
1692617766.733393,-0.016177,-0.091228,-0.001486,58.501272,0.156076,-0.000008,-0.044160,-0.047256,0.000046,0.016182,-0.139641,-0.000653,-0.002697,0.404654,-0.000653,1.159200,-1.180568,0.000617,-1.940000,-0.055136,0.004999,-0.000408,1.395136,0.000000,-1.776000,-0.028137,-0.014999,0.082800,-0.000015,0.000138,-1.399714,0.000002,-0.000038,43597.000000,1692617766.713915,1.203886,-1.479526,0.000048,-0.084114,0.004760,-0.000048,,,,,,,,,
1692617766.733518,,,,,,,,,,,,,,,,,,,,,,,,,,,,,,,,,,,,,,,,,,,86185.000000,1692617766.722574,0.000000,0.000000,0.000000,0.000000,0.000000,0.000000
1692617766.743957,,,,,,,,,,,,,,,,,,,,,,,,,,,,,,,,,,,,,,,,,,,86186.000000,1692617766.731387,0.000000,0.000000,0.000000,0.000000,0.000000,0.000000
1692617766.746902,0.663265,-0.091612,0.000044,58.210221,0.156076,-0.000008,-0.176640,-0.047256,0.000046,0.010788,-0.139641,-0.000653,-0.008091,0.404654,-0.000653,1.115040,-1.180568,0.004471,-1.937000,-0.055136,0.004999,-0.005320,1.395136,0.000000,-1.774000,-0.026137,-0.014999,0.092000,-0.000015,0.000138,-1.465429,0.000002,-0.000038,43598.000000,1692617766.733912,1.146057,-1.479526,0.000048,-0.063086,0.004373,-0.000048,,,,,,,,,
1692617766.766184,,,,,,,,,,,,,,,,,,,,,,,,,,,,,,,,,,,,,,,,,,,86187.000000,1692617766.741373,0.000000,0.000000,0.000000,0.000000,0.000000,0.000000
1692617766.774524,,,,,,,,,,,,,,,,,,,,,,,,,,,,,,,,,,,,,,,,,,,86188.000000,1692617766.750946,0.000000,0.000000,0.000000,0.000000,0.000000,0.000000
1692617766.775738,0.048532,-0.091228,-0.000345,58.792323,0.156076,-0.000008,-0.104880,-0.047256,0.000046,0.016182,-0.139641,-0.000653,-0.005394,0.404654,-0.000653,1.622880,-1.180579,0.004136,-1.942000,-0.057545,0.004000,0.000000,1.394545,-0.002954,-1.774000,-0.025546,-0.004999,0.031280,-0.000015,0.000138,-1.439143,0.000002,-0.000038,43599.000000,1692617766.753914,1.172343,-1.479526,0.000048,-0.105143,0.004373,-0.000048,,,,,,,,,
1692617766.787079,,,,,,,,,,,,,,,,,,,,,,,,,,,,,,,,,,,,,,,,,,,86190.000000,1692617766.771064,0.000000,0.000000,0.000000,0.000000,0.000000,0.000000
1692617766.795378,,,,,,,,,,,,,,,,,,,,,,,,,,,,,,,,,,,,,,,,,,,86191.000000,1692617766.781057,0.000000,0.000000,0.000000,0.000000,0.000000,0.000000
1692617766.795734,-0.016177,-0.091228,-0.000018,58.501272,0.156076,-0.000008,-0.099360,-0.047256,0.000046,0.016182,-0.139641,-0.000653,-0.005394,0.404654,-0.000653,1.137120,-1.180579,0.000848,-1.935000,-0.052136,-0.006000,0.000408,1.395136,0.000000,-1.774000,-0.026137,-0.004999,0.090160,-0.000015,0.000138,-1.439143,0.000002,-0.000038,43600.000000,1692617766.773917,1.261714,-1.479526,0.000048,-0.078857,0.004373,-0.000048,,,,,,,,,
1692617766.813641,0.841215,-0.091612,-0.000018,58.501272,0.156076,-0.000008,-0.099360,-0.047256,0.000046,0.016182,-0.139641,-0.000653,-0.005394,0.404654,-0.000653,1.380000,-1.180589,-0.004209,-1.940000,-0.056137,0.018999,-0.002046,1.395136,0.000000,-1.776000,-0.027136,-0.004999,0.068080,-0.000015,0.000138,-1.360286,0.000002,-0.000038,43601.000000,1692617766.793918,1.093486,-1.479526,0.000048,0.000000,0.004373,-0.000048,,,,,,,,,
1692617766.813661,,,,,,,,,,,,,,,,,,,,,,,,,,,,,,,,,,,,,,,,,,,86192.000000,1692617766.792786,0.000000,0.000000,0.000000,0.000000,0.000000,0.000000
1692617766.821473,,,,,,,,,,,,,,,,,,,,,,,,,,,,,,,,,,,,,,,,,,,86194.000000,1692617766.811276,0.000000,0.000000,0.000000,0.000000,0.000000,0.000000
1692617766.827920,,,,,,,,,,,,,,,,,,,,,,,,,,,,,,,,,,,,,,,,,,0.000000,,,,,,,,
1692617766.832743,0.113240,-0.091228,-0.000018,58.501272,0.156076,-0.000008,-0.126960,-0.047256,0.000046,0.016182,-0.139641,-0.000653,-0.002697,0.404654,-0.000653,1.104000,-1.180589,-0.000764,-1.940000,-0.055319,-0.001000,-0.000408,1.396318,0.000000,-1.773000,-0.024319,-0.008999,0.055200,-0.000015,0.000138,-1.419429,0.000002,-0.000038,43602.000000,1692617766.813921,1.130286,-1.479526,0.000048,-0.057829,0.004373,-0.000048,,,,,,,,,
1692617766.840705,,,,,,,,,,,,,,,,,,,,,,,,,,,,,,,,,,,,,,,,,,,86195.000000,1692617766.821055,0.000000,0.000000,0.000000,0.000000,0.000000,0.000000
1692617766.844894,,,,,,,,,,,,,,,,,,,,,,,,,,,,,,,,,,,,,,,,,,,86196.000000,1692617766.831079,0.000000,0.000000,0.000000,0.000000,0.000000,0.000000
1692617766.855692,-0.080886,-0.091228,-0.000533,58.501272,0.156076,-0.000008,-0.060720,-0.047256,0.000046,0.013485,-0.139641,-0.000653,-0.008091,0.404654,-0.000653,0.982560,-1.180589,-0.000094,-1.945000,-0.058318,-0.007000,-0.001637,1.396318,0.004727,-1.774000,-0.025318,0.006000,0.068080,-0.000015,0.000138,-1.399714,0.000002,-0.000038,43603.000000,1692617766.833921,1.198629,-1.479526,0.000048,-0.084114,0.004373,-0.000048,,,,,,,,,
1692617766.862203,,,,,,,,,,,,,,,,,,,,,,,,,,,,,,,,,,,,,,,,,,,86197.000000,1692617766.842320,0.000000,0.000000,0.000000,0.000000,0.000000,0.000000
1692617766.888185,-0.517670,-0.091228,-0.000428,58.501272,0.156076,-0.000008,-0.171120,-0.047256,0.000046,0.008091,-0.139641,-0.000653,-0.005394,0.404654,-0.000653,1.048800,-1.180589,-0.000094,-1.942000,-0.056318,0.003000,0.002454,1.396318,0.004727,-1.774000,-0.025318,0.006000,0.071760,-0.000015,0.000138,-1.412857,0.000002,-0.000038,43604.000000,1692617766.853929,1.140800,-1.479526,0.000048,0.026286,0.003992,0.006609,,,,,,,,,
1692617766.889017,,,,,,,,,,,,,,,,,,,,,,,,,,,,,,,,,,,,,,,,,,,86198.000000,1692617766.851041,0.000000,0.000000,0.000000,0.000000,0.000000,0.000000
1692617766.892431,,,,,,,,,,,,,,,,,,,,,,,,,,,,,,,,,,,,,,,,,,,86199.000000,1692617766.862051,0.000000,0.000000,0.000000,0.000000,0.000000,0.000000
1692617766.908771,,,,,,,,,,,,,,,,,,,,,,,,,,,,,,,,,,,,,,,,,,,86202.000000,1692617766.890939,0.000000,0.000000,0.000000,0.000000,0.000000,0.000000
1692617766.908790,0.097063,-0.091612,-0.000018,58.501272,0.156076,-0.000008,-0.231840,-0.047256,0.000046,0.016182,-0.139641,-0.000653,0.000000,0.404654,-0.000653,0.982560,-1.180579,-0.001288,-1.942000,-0.056728,0.007000,-0.000408,1.395727,0.004727,-1.769000,-0.022727,0.006000,0.062560,-0.000015,0.000138,-1.386571,0.000002,-0.000038,43605.000000,1692617766.873920,1.119771,-1.479526,0.000048,-0.021029,0.004373,0.000048,,,,,,,,,
1692617766.925094,0.048532,-0.091228,-0.000018,58.792323,0.156076,-0.000008,-0.154560,-0.047262,-0.000046,0.016182,-0.139641,-0.000653,0.002697,0.404654,-0.000653,1.457280,-1.180589,-0.002167,-1.942000,-0.056728,0.002000,-0.000817,1.395727,0.001772,-1.773000,-0.025727,0.004999,0.071760,-0.000015,0.000138,-1.426000,0.000002,-0.000038,43606.000000,1692617766.893919,1.119771,-1.479526,0.000048,0.010514,0.004373,0.000048,,,,,,,,,
1692617766.925179,,,,,,,,,,,,,,,,,,,,,,,,,,,,,,,,,,,,,,,,,,,86203.000000,1692617766.901207,0.000000,0.000000,0.000000,0.000000,0.000000,0.000000
1692617766.930590,0.080886,-0.091612,-0.000018,58.210221,0.156076,-0.000008,-0.138000,-0.047262,-0.000046,0.016182,-0.139641,-0.000653,-0.005394,0.404654,-0.000653,1.148160,-1.180589,-0.000178,-1.940000,-0.056728,-0.003000,-0.000408,1.395727,0.001772,-1.771000,-0.025727,0.000000,0.066240,-0.000015,0.000138,-1.458857,0.000002,-0.000038,43607.000000,1692617766.903928,1.161829,-1.479526,0.000048,0.057829,0.004373,0.000048,,,,,,,,,
1692617766.930614,,,,,,,,,,,,,,,,,,,,,,,,,,,,,,,,,,,,,,,,,,,86204.000000,1692617766.911076,0.000000,0.000000,0.000000,0.000000,0.000000,0.000000
1692617766.943322,,,,,,,,,,,,,,,,,,,,,,,,,,,,,,,,,,,,,,,,,,0.000000,,,,,,,,
1692617766.948748,,,,,,,,,,,,,,,,,,,,,,,,,,,,,,,,,,,,,,,,,,,86205.000000,1692617766.921077,0.000000,0.000000,0.000000,0.000000,0.000000,0.000000
1692617766.949350,,,,,,,,,,,,,,,,,,,,,,,,,,,,,,,,,,,,,,,,,,,86206.000000,1692617766.931164,0.000000,0.000000,0.000000,0.000000,0.000000,0.000000
1692617766.949358,-0.307367,-0.091228,-0.000648,58.501272,0.156076,-0.000008,-0.027600,-0.047262,-0.000046,0.013485,-0.139641,-0.000653,-0.002697,0.404654,-0.000653,1.170240,-1.180579,0.000429,-1.942000,-0.056728,-0.003000,-0.000408,1.395727,0.001772,-1.773000,-0.025727,0.000000,0.064400,-0.000015,0.000138,-1.373429,0.000002,-0.000038,43608.000000,1692617766.923923,1.119771,-1.479526,0.000048,-0.105143,0.004373,0.000048,,,,,,,,,
1692617766.951366,,,,,,,,,,,,,,,,,,,,,,,,,,,,,,,,,,,,,,,,,,,86207.000000,1692617766.941038,0.000000,0.000000,0.000000,0.000000,0.000000,0.000000
1692617766.964655,,,,,,,,,,,,,,,,,,,,,,,,,,,,,,,,,,,,,,,,,,,86208.000000,1692617766.951285,0.000000,0.000000,0.000000,0.000000,0.000000,0.000000
1692617766.970818,0.129418,-0.091612,-0.000018,58.210221,0.156076,-0.000008,-0.138000,-0.047262,-0.000046,0.016182,-0.139641,-0.000653,-0.008091,0.404654,-0.000653,1.059840,-1.180589,-0.000209,-1.944000,-0.058727,0.003000,0.000000,1.395727,0.001772,-1.769000,-0.023728,0.008999,0.038640,-0.000015,0.000138,-1.320857,0.000002,-0.000038,43609.000000,1692617766.953920,1.182857,-1.479526,0.000048,-0.110400,0.004373,0.000048,,,,,,,,,
1692617766.976030,,,,,,,,,,,,,,,,,,,,,,,,,,,,,,,,,,,,,,,,,,,86209.000000,1692617766.960965,0.000000,0.000000,0.000000,0.000000,0.000000,0.000000
1692617766.987005,,,,,,,,,,,,,,,,,,,,,,,,,,,,,,,,,,,,,,,,,,,86210.000000,1692617766.971046,0.000000,0.000000,0.000000,0.000000,0.000000,0.000000
1692617766.987017,0.469139,-0.091612,-0.000018,58.501272,0.156076,-0.000008,-0.022080,-0.047262,-0.000046,0.013485,-0.139641,-0.000653,-0.002697,0.404654,-0.000653,1.092960,-1.180579,0.000513,-1.944000,-0.058727,-0.012000,-0.001225,1.395727,0.001772,-1.769000,-0.024727,0.008999,0.068080,-0.000015,0.000138,-1.294571,0.000002,-0.000038,43610.000000,1692617766.973926,1.104000,-1.479526,0.000048,-0.021029,0.004373,0.000048,,,,,,,,,
1692617766.999044,,,,,,,,,,,,,,,,,,,,,,,,,,,,,,,,,,,,,,,,,,,86211.000000,1692617766.981041,0.000000,0.000000,0.000000,0.000000,0.000000,0.000000
1692617767.001190,,,,,,,,,,,,,,,,,,,,,,,,,,,,,,,,,,,,,,,,,,,86212.000000,1692617766.991175,0.000000,0.000000,0.000000,0.000000,0.000000,0.000000
1692617767.006573,0.080886,-0.091612,-0.000708,58.501272,0.156076,-0.000008,-0.060720,-0.047262,-0.000046,0.018879,-0.139641,-0.000653,-0.005394,0.404654,-0.000653,1.148160,-1.180589,-0.000356,-1.945000,-0.057727,-0.012000,-0.002866,1.395727,0.001772,-1.768000,-0.023728,0.004000,0.077280,-0.000015,0.000138,-1.347143,0.000002,-0.000038,43611.000000,1692617766.993917,1.161829,-1.479526,0.000048,-0.068343,0.004373,0.000204,,,,,,,,,
1692617767.008839,,,,,,,,,,,,,,,,,,,,,,,,,,,,,,,,,,,,,,,,,,,86213.000000,1692617767.001055,0.000000,0.000000,0.000000,0.000000,0.000000,0.000000
1692617767.020144,,,,,,,,,,,,,,,,,,,,,,,,,,,,,,,,,,,,,,,,,,,86214.000000,1692617767.011185,0.000000,0.000000,0.000000,0.000000,0.000000,0.000000
1692617767.034405,0.145595,-0.091612,-0.000036,58.501272,0.156076,-0.000008,-0.149040,-0.047262,-0.000046,0.010788,-0.139641,-0.000653,0.000000,0.404654,-0.000653,1.004640,-1.180589,-0.000094,-1.940000,-0.056728,-0.016000,0.000408,1.395727,0.001772,-1.766000,-0.023728,0.008000,0.117760,-0.000015,0.000138,-1.610000,0.000002,-0.000038,43612.000000,1692617767.013916,1.093486,-1.479526,0.000048,-0.157714,0.004373,0.000048,,,,,,,,,
1692617767.035697,,,,,,,,,,,,,,,,,,,,,,,,,,,,,,,,,,,,,,,,,,,86215.000000,1692617767.021865,0.000000,0.000000,0.000000,0.000000,0.000000,0.000000
1692617767.038777,,,,,,,,,,,,,,,,,,,,,,,,,,,,,,,,,,,,,,,,,,0.000000,,,,,,,,
1692617767.044872,-0.485316,-0.091228,-0.000674,57.628119,0.156077,0.000008,-0.132480,-0.047262,-0.000046,0.016182,-0.139641,-0.000653,0.000000,0.404654,-0.000653,0.816960,-1.180579,-0.000502,-1.940000,-0.057319,-0.001000,0.000817,1.396318,0.001772,-1.768000,-0.024319,0.007000,0.046000,-0.000015,0.000138,-1.301143,0.000002,-0.000038,43613.000000,1692617767.033921,1.119771,-1.479526,0.000048,-0.031543,0.004760,0.000048,,,,,,,,,
1692617767.045886,,,,,,,,,,,,,,,,,,,,,,,,,,,,,,,,,,,,,,,,,,,86216.000000,1692617767.032176,0.000000,0.000000,0.000000,0.000000,0.000000,0.000000
1692617767.059477,,,,,,,,,,,,,,,,,,,,,,,,,,,,,,,,,,,,,,,,,,,86217.000000,1692617767.041154,0.000000,0.000000,0.000000,0.000000,0.000000,0.000000
1692617767.062394,,,,,,,,,,,,,,,,,,,,,,,,,,,,,,,,,,,,,,,,,,,86218.000000,1692617767.051286,0.000000,0.000000,0.000000,0.000000,0.000000,0.000000
1692617767.066054,0.129418,-0.091612,-0.000038,56.754966,0.156077,0.000008,-0.055200,-0.047262,-0.000046,0.016182,-0.139641,-0.000653,-0.008091,0.404654,-0.000653,1.004640,-1.180579,0.002094,-1.942000,-0.057319,-0.001000,0.000000,1.396318,0.004136,-1.769000,-0.026318,0.010999,0.053360,-0.000015,0.000138,-1.458857,0.000002,-0.000038,43614.000000,1692617767.053917,1.161829,-1.479526,0.000048,-0.026286,0.004373,0.000048,,,,,,,,,
1692617767.073292,,,,,,,,,,,,,,,,,,,,,,,,,,,,,,,,,,,,,,,,,,,86219.000000,1692617767.061147,0.000000,0.000000,0.000000,0.000000,0.000000,0.000000
1692617767.085255,,,,,,,,,,,,,,,,,,,,,,,,,,,,,,,,,,,,,,,,,,,86220.000000,1692617767.071027,0.000000,0.000000,0.000000,0.000000,0.000000,0.000000
1692617767.085267,0.129418,-0.091612,-0.000018,57.337068,0.156076,-0.000008,-0.011040,-0.047262,-0.000046,0.016182,-0.139641,-0.000653,-0.002697,0.404654,-0.000653,1.214400,-1.180600,-0.005571,-1.942000,-0.056728,-0.009999,0.000000,1.395727,0.001181,-1.771000,-0.025727,-0.004000,0.042320,-0.000015,0.000138,-1.320857,0.000002,-0.000038,43615.000000,1692617767.073918,1.104000,-1.479526,0.000048,-0.057829,0.004760,0.000048,,,,,,,,,
1692617767.102679,,,,,,,,,,,,,,,,,,,,,,,,,,,,,,,,,,,,,,,,,,,86221.000000,1692617767.082891,0.000000,0.000000,0.000000,0.000000,0.000000,0.000000
1692617767.111267,0.032354,-0.091612,-0.000018,57.046017,0.156076,-0.000008,-0.005520,-0.047262,-0.000046,0.013485,-0.139641,-0.000653,-0.008091,0.404654,-0.000653,0.883200,-1.180600,-0.006503,-1.942000,-0.056728,0.004999,-0.002046,1.395727,0.001181,-1.771000,-0.025727,-0.004000,0.088320,-0.000015,0.000138,-1.334000,0.000002,-0.000038,43616.000000,1692617767.093920,1.146057,-1.479526,0.000048,0.000000,0.004760,0.000048,,,,,,,,,
1692617767.114671,,,,,,,,,,,,,,,,,,,,,,,,,,,,,,,,,,,,,,,,,,,86223.000000,1692617767.101082,0.000000,0.000000,0.000000,0.000000,0.000000,0.000000
1692617767.130642,,,,,,,,,,,,,,,,,,,,,,,,,,,,,,,,,,,,,,,,,,,86224.000000,1692617767.111893,0.000000,0.000000,0.000000,0.000000,0.000000,0.000000
1692617767.131464,0.080886,-0.091612,-0.000018,57.337068,0.156076,-0.000008,-0.044160,-0.047262,-0.000046,0.010788,-0.139641,-0.000653,0.000000,0.404654,-0.000653,1.081920,-1.180589,0.000387,-1.947000,-0.059318,0.000000,-0.000817,1.396318,0.001181,-1.769000,-0.024319,-0.004000,0.073600,-0.000015,0.000138,-1.458857,0.000002,-0.000038,43617.000000,1692617767.113921,1.119771,-1.479526,0.000048,-0.036800,0.004760,0.000048,,,,,,,,,
1692617767.136319,,,,,,,,,,,,,,,,,,,,,,,,,,,,,,,,,,,,,,,,,,,86225.000000,1692617767.122275,0.000000,0.000000,0.000000,0.000000,0.000000,0.000000
1692617767.147354,,,,,,,,,,,,,,,,,,,,,,,,,,,,,,,,,,,,,,,,,,,86226.000000,1692617767.131076,0.000000,0.000000,0.000000,0.000000,0.000000,0.000000
1692617767.153590,-0.080886,-0.091612,0.000282,57.337068,0.156076,-0.000008,0.033120,-0.047262,-0.000046,0.016182,-0.139641,-0.000653,-0.005394,0.404654,-0.000653,1.170240,-1.180589,0.001005,-1.947000,-0.058727,-0.009999,0.000000,1.395727,0.003545,-1.766000,-0.022727,0.006000,0.079120,-0.000015,0.000138,-1.347143,0.000002,-0.000038,43618.000000,1692617767.133922,1.177600,-1.479526,0.000048,-0.105143,0.004760,0.000048,,,,,,,,,
1692617767.153610,,,,,,,,,,,,,,,,,,,,,,,,,,,,,,,,,,,,,,,,,,0.000000,,,,,,,,
1692617767.162649,,,,,,,,,,,,,,,,,,,,,,,,,,,,,,,,,,,,,,,,,,,86227.000000,1692617767.141012,0.000000,0.000000,0.000000,0.000000,0.000000,0.000000
1692617767.167652,,,,,,,,,,,,,,,,,,,,,,,,,,,,,,,,,,,,,,,,,,,86228.000000,1692617767.151146,0.000000,0.000000,0.000000,0.000000,0.000000,0.000000
1692617767.172424,0.129418,-0.091612,0.000456,57.046017,0.156076,-0.000008,-0.082800,-0.047262,-0.000046,0.016182,-0.139641,-0.000653,-0.005394,0.404654,-0.000653,1.115040,-1.180589,0.001068,-1.945000,-0.058136,-0.004999,0.002454,1.395136,-0.002363,-1.763000,-0.021137,0.009999,0.062560,-0.000015,0.000138,-1.465429,0.000002,-0.000038,43619.000000,1692617767.153918,1.077714,-1.479526,0.000048,-0.026286,0.004760,0.000048,,,,,,,,,
1692617767.186347,,,,,,,,,,,,,,,,,,,,,,,,,,,,,,,,,,,,,,,,,,,86229.000000,1692617767.161458,0.000000,0.000000,0.000000,0.000000,0.000000,0.000000
1692617767.188661,,,,,,,,,,,,,,,,,,,,,,,,,,,,,,,,,,,,,,,,,,,86230.000000,1692617767.171980,0.000000,0.000000,0.000000,0.000000,0.000000,0.000000
1692617767.192631,0.258835,-0.091612,0.000018,57.046017,0.156076,-0.000008,-0.038640,-0.047262,-0.000046,0.016182,-0.139641,-0.000653,-0.008091,0.404654,-0.000653,1.104000,-1.180589,0.000136,-1.945000,-0.057727,-0.008999,0.001637,1.395727,-0.002363,-1.763000,-0.021728,0.014000,0.023920,-0.000015,0.000138,-1.307714,0.000002,-0.000038,43620.000000,1692617767.163925,1.104000,-1.479526,0.000048,-0.036800,0.004760,0.000048,,,,,,,,,
1692617767.207134,,,,,,,,,,,,,,,,,,,,,,,,,,,,,,,,,,,,,,,,,,,86231.000000,1692617767.181017,0.000000,0.000000,0.000000,0.000000,0.000000,0.000000
1692617767.209858,,,,,,,,,,,,,,,,,,,,,,,,,,,,,,,,,,,,,,,,,,,86232.000000,1692617767.191283,0.000000,0.000000,0.000000,0.000000,0.000000,0.000000
1692617767.214245,0.258835,-0.091612,0.000018,57.337068,0.156076,-0.000008,-0.011040,-0.047262,-0.000046,0.010788,-0.139641,-0.000653,-0.008091,0.404654,-0.000653,1.070880,-1.180600,-0.000094,-1.947000,-0.060319,-0.013000,-0.000817,1.396318,0.000590,-1.764000,-0.022319,0.014000,0.023920,-0.000015,0.000138,-1.380000,0.000002,-0.000038,43621.000000,1692617767.193918,1.114514,-1.479526,0.000048,-0.078857,0.004760,0.000048,,,,,,,,,
1692617767.223456,,,,,,,,,,,,,,,,,,,,,,,,,,,,,,,,,,,,,,,,,,,86234.000000,1692617767.211064,0.000000,0.000000,0.000000,0.000000,0.000000,0.000000
1692617767.240668,0.533848,-0.091612,0.000022,57.337068,0.156076,-0.000008,0.005520,-0.047256,0.000046,0.016182,-0.139641,-0.000653,-0.008091,0.404654,-0.000653,1.004640,-1.180600,-0.000094,-1.955000,-0.063910,-0.008000,0.000000,1.396909,0.002954,-1.766000,-0.023909,0.008999,0.031280,-0.000015,0.000138,-1.485143,0.000002,-0.000038,43622.000000,1692617767.213914,1.088229,-1.479526,0.000048,-0.120914,0.004760,0.000048,,,,,,,,,
1692617767.247006,,,,,,,,,,,,,,,,,,,,,,,,,,,,,,,,,,,,,,,,,,,86235.000000,1692617767.221082,0.000000,0.000000,0.000000,0.000000,0.000000,0.000000
1692617767.249118,,,,,,,,,,,,,,,,,,,,,,,,,,,,,,,,,,,,,,,,,,,86236.000000,1692617767.231149,0.000000,0.000000,0.000000,0.000000,0.000000,0.000000
1692617767.256053,0.016177,-0.091228,-0.000325,57.628119,0.156076,-0.000008,-0.038640,-0.047256,0.000046,0.016182,-0.139641,-0.000653,-0.002697,0.404654,-0.000653,1.059840,-1.180600,-0.010210,-1.955000,-0.063910,-0.020999,0.000408,1.396909,0.005318,-1.766000,-0.023909,0.008999,0.088320,-0.000015,0.000138,-1.491714,0.000002,-0.000038,43623.000000,1692617767.233915,1.125029,-1.479526,0.000048,-0.047314,0.004760,0.000048,,,,,,,,,
1692617767.264172,,,,,,,,,,,,,,,,,,,,,,,,,,,,,,,,,,,,,,,,,,0.000000,,,,,,,,
1692617767.271137,,,,,,,,,,,,,,,,,,,,,,,,,,,,,,,,,,,,,,,,,,,86238.000000,1692617767.251179,0.000000,0.000000,0.000000,0.000000,0.000000,0.000000
1692617767.279608,0.210304,-0.091612,0.000098,57.337068,0.156076,-0.000008,-0.066240,-0.047256,0.000046,0.016182,-0.139641,-0.000653,-0.005394,0.404654,-0.000653,1.457280,-1.180589,0.005351,-1.955000,-0.063090,-0.013000,-0.001225,1.398090,0.005318,-1.771000,-0.028090,0.004000,0.086480,-0.000015,0.000138,-1.314286,0.000002,-0.000038,43624.000000,1692617767.253924,1.151314,-1.479526,0.000048,-0.105143,0.004760,0.000048,,,,,,,,,
1692617767.279639,,,,,,,,,,,,,,,,,,,,,,,,,,,,,,,,,,,,,,,,,,,86239.000000,1692617767.261282,0.000000,0.000000,0.000000,0.000000,0.000000,0.000000
1692617767.285353,,,,,,,,,,,,,,,,,,,,,,,,,,,,,,,,,,,,,,,,,,,86240.000000,1692617767.271036,0.000000,0.000000,0.000000,0.000000,0.000000,0.000000
1692617767.290211,,,,,,,,,,,,,,,,,,,,,,,,,,,,,,,,,,,,,,,,,,,86241.000000,1692617767.281057,0.000000,0.000000,0.000000,0.000000,0.000000,0.000000
1692617767.290227,-0.129418,-0.091228,-0.000018,57.628119,0.156076,-0.000008,-0.077280,-0.047256,0.000046,0.010788,-0.139641,-0.000653,-0.010788,0.404654,-0.000653,1.037760,-1.180579,0.004262,-1.952000,-0.058090,0.012000,-0.000817,1.398090,0.010636,-1.773000,-0.028090,-0.006000,0.064400,-0.000015,0.000138,-1.169714,0.000002,-0.000038,43625.000000,1692617767.273921,1.161829,-1.479526,0.000048,-0.052571,0.004760,0.000048,,,,,,,,,
1692617767.302231,,,,,,,,,,,,,,,,,,,,,,,,,,,,,,,,,,,,,,,,,,,86242.000000,1692617767.291151,0.000000,0.000000,0.000000,0.000000,0.000000,0.000000
1692617767.308532,-0.016177,-0.091228,-0.000018,57.919170,0.156076,-0.000008,0.038640,-0.047256,0.000046,0.013485,-0.139641,-0.000653,-0.002697,0.404654,-0.000653,0.872160,-1.180589,-0.004576,-1.950000,-0.056909,0.012000,-0.001225,1.396909,0.010636,-1.768000,-0.023909,-0.001000,0.014720,-0.000015,0.000138,-1.426000,0.000002,-0.000038,43626.000000,1692617767.293913,1.061943,-1.479526,0.000048,-0.010514,0.004760,0.000048,,,,,,,,,
1692617767.313623,,,,,,,,,,,,,,,,,,,,,,,,,,,,,,,,,,,,,,,,,,,86243.000000,1692617767.301935,0.000000,0.000000,0.000000,0.000000,0.000000,0.000000
1692617767.323384,,,,,,,,,,,,,,,,,,,,,,,,,,,,,,,,,,,,,,,,,,,86244.000000,1692617767.311056,0.000000,0.000000,0.000000,0.000000,0.000000,0.000000
1692617767.326746,0.695620,-0.091612,-0.000018,57.628119,0.156076,-0.000008,-0.016560,-0.047256,0.000046,0.013485,-0.139641,-0.000653,-0.002697,0.404654,-0.000653,1.081920,-1.180589,-0.002471,-1.947000,-0.055319,0.016000,0.000000,1.396318,0.001772,-1.766000,-0.023318,0.013000,0.066240,-0.000015,0.000138,-1.432571,0.000002,-0.000038,43627.000000,1692617767.313921,1.167086,-1.479526,0.000048,0.042057,0.004760,0.000048,,,,,,,,,
1692617767.330599,,,,,,,,,,,,,,,,,,,,,,,,,,,,,,,,,,,,,,,,,,,86245.000000,1692617767.321079,0.000000,0.000000,0.000000,0.000000,0.000000,0.000000
1692617767.344982,,,,,,,,,,,,,,,,,,,,,,,,,,,,,,,,,,,,,,,,,,,86246.000000,1692617767.331274,0.000000,0.000000,0.000000,0.000000,0.000000,0.000000
1692617767.347186,0.469139,-0.091612,0.000018,57.919170,0.156076,-0.000008,-0.121440,-0.047256,0.000046,0.016182,-0.139641,-0.000653,-0.005394,0.404654,-0.000653,1.468320,-1.180589,-0.002827,-1.945000,-0.054728,-0.004000,0.000408,1.395727,-0.001181,-1.759000,-0.018728,0.017000,0.053360,-0.000015,0.000138,-1.340571,0.000002,-0.000038,43628.000000,1692617767.333923,1.061943,-1.479526,0.000048,0.005257,0.004760,0.000048,,,,,,,,,
1692617767.351406,,,,,,,,,,,,,,,,,,,,,,,,,,,,,,,,,,,,,,,,,,,86247.000000,1692617767.340961,0.000000,0.000000,0.000000,0.000000,0.000000,0.000000
1692617767.367305,,,,,,,,,,,,,,,,,,,,,,,,,,,,,,,,,,,,,,,,,,,86248.000000,1692617767.351078,0.000000,0.000000,0.000000,0.000000,0.000000,0.000000
1692617767.373461,0.016177,-0.091228,-0.000052,57.919170,0.156076,-0.000008,-0.071760,-0.047256,0.000046,0.013485,-0.139641,-0.000653,-0.002697,0.404654,-0.000653,1.247520,-1.180589,-0.000932,-1.945000,-0.054137,0.016000,0.000408,1.395136,-0.001181,-1.756000,-0.017136,0.034000,0.029440,-0.000015,0.000138,-1.439143,0.000002,-0.000038,43629.000000,1692617767.353922,1.177600,-1.479526,0.000048,-0.036800,0.004760,0.000048,,,,,,,,,
1692617767.373490,,,,,,,,,,,,,,,,,,,,,,,,,,,,,,,,,,,,,,,,,,0.000000,,,,,,,,
1692617767.387338,0.242658,-0.091612,-0.000018,57.919170,0.156076,-0.000008,-0.022080,-0.047256,0.000046,0.016182,-0.139641,-0.000653,0.000000,0.404654,-0.000653,1.457280,-1.180589,-0.002858,-1.945000,-0.054137,0.016000,0.000408,1.395136,-0.003545,-1.753000,-0.016137,0.028000,0.051520,-0.000015,0.000138,-1.320857,0.000002,-0.000038,43630.000000,1692617767.363928,1.072457,-1.479526,0.000048,-0.068343,0.004760,0.000048,,,,,,,,,
1692617767.387368,,,,,,,,,,,,,,,,,,,,,,,,,,,,,,,,,,,,,,,,,,,86249.000000,1692617767.378595,0.000000,0.000000,0.000000,0.000000,0.000000,0.000000
1692617767.389758,,,,,,,,,,,,,,,,,,,,,,,,,,,,,,,,,,,,,,,,,,,86251.000000,1692617767.381692,0.000000,0.000000,0.000000,0.000000,0.000000,0.000000
1692617767.403953,,,,,,,,,,,,,,,,,,,,,,,,,,,,,,,,,,,,,,,,,,,86252.000000,1692617767.392807,-0.000271,0.001724,0.000699,-0.000024,0.000070,0.000027
1692617767.412081,-0.080886,-0.091612,-0.000018,57.628119,0.156076,-0.000008,-0.027600,-0.047256,0.000046,0.016182,-0.139641,-0.000653,-0.002697,0.404654,-0.000653,1.092960,-1.180579,0.000628,-1.947000,-0.057136,-0.004000,0.002046,1.395136,-0.003545,-1.758000,-0.022136,0.009999,0.088320,-0.000015,0.000138,-1.340571,0.000006,0.000038,43631.000000,1692617767.393922,1.061943,-1.479526,0.000048,-0.047314,0.004760,0.000048,,,,,,,,,
1692617767.421200,-0.145595,-0.091612,-0.000018,57.628119,0.156076,-0.000008,-0.027600,-0.047256,0.000046,0.016182,-0.139641,-0.000653,-0.008091,0.404654,-0.000653,1.291680,-1.180589,0.001769,-1.947000,-0.056137,0.001000,-0.001225,1.395136,-0.003545,-1.758000,-0.022136,0.000000,0.093840,-0.000015,0.000138,-1.399714,0.000006,0.000038,43632.000000,1692617767.403925,1.067200,-1.479526,0.000048,-0.063086,0.004760,0.000048,,,,,,,,,
1692617767.429715,,,,,,,,,,,,,,,,,,,,,,,,,,,,,,,,,,,,,,,,,,,86253.000000,1692617767.422331,-0.001986,0.013082,0.005389,-0.000178,0.000529,0.000199
1692617767.442423,,,,,,,,,,,,,,,,,,,,,,,,,,,,,,,,,,,,,,,,,,,86254.000000,1692617767.424053,-0.003713,0.025346,0.010671,-0.000342,0.001016,0.000380
1692617767.442446,,,,,,,,,,,,,,,,,,,,,,,,,,,,,,,,,,,,,,,,,,,86255.000000,1692617767.434035,-0.005252,0.036948,0.015964,-0.000494,0.001471,0.000549
1692617767.445113,-0.404430,-0.091228,-0.000422,57.628119,0.156076,-0.000008,-0.066240,-0.047256,0.000046,0.016182,-0.139641,-0.000653,0.000000,0.404654,-0.000653,1.225440,-1.180589,0.000795,-1.942000,-0.053136,0.004999,-0.000408,1.395136,-0.003545,-1.761000,-0.024136,-0.008999,0.005520,-0.000015,0.000138,-1.380000,0.000006,0.000038,43633.000000,1692617767.433921,1.082971,-1.479526,0.000048,0.000000,0.004373,0.000048,,,,,,,,,
1692617767.450500,,,,,,,,,,,,,,,,,,,,,,,,,,,,,,,,,,,,,,,,,,,86256.000000,1692617767.444045,-0.006448,0.046486,0.020621,-0.000617,0.001844,0.000687
1692617767.459431,,,,,,,,,,,,,,,,,,,,,,,,,,,,,,,,,,,,,,,,,,,86257.000000,1692617767.454933,-0.007280,0.053855,0.024529,-0.000710,0.002133,0.000795
1692617767.472002,-0.032354,-0.091612,-0.000018,57.628119,0.156076,-0.000008,-0.082800,-0.047256,0.000046,0.016182,-0.139641,-0.000653,-0.002697,0.404654,-0.000653,1.115040,-1.180589,0.001078,-1.945000,-0.055727,0.008999,0.001637,1.395727,-0.000590,-1.763000,-0.024727,-0.008000,0.049680,-0.000015,0.000138,-1.347143,0.000006,0.000038,43634.000000,1692617767.453916,1.098743,-1.479526,0.000048,-0.057829,0.004373,0.000048,,,,,,,,,
1692617767.481055,,,,,,,,,,,,,,,,,,,,,,,,,,,,,,,,,,,,,,,,,,,86258.000000,1692617767.464194,-0.007737,0.059365,0.027812,-0.000781,0.002353,0.000877
1692617767.482216,,,,,,,,,,,,,,,,,,,,,,,,,,,,,,,,,,,,,,,,,,0.000000,,,,,,,,
