__time,/hsrb/joint_states/arm_flex_joint/effort,/hsrb/joint_states/arm_flex_joint/position,/hsrb/joint_states/arm_flex_joint/velocity,/hsrb/joint_states/arm_lift_joint/effort,/hsrb/joint_states/arm_lift_joint/position,/hsrb/joint_states/arm_lift_joint/velocity,/hsrb/joint_states/arm_roll_joint/effort,/hsrb/joint_states/arm_roll_joint/position,/hsrb/joint_states/arm_roll_joint/velocity,/hsrb/joint_states/base_l_drive_wheel_joint/effort,/hsrb/joint_states/base_l_drive_wheel_joint/position,/hsrb/joint_states/base_l_drive_wheel_joint/velocity,/hsrb/joint_states/base_r_drive_wheel_joint/effort,/hsrb/joint_states/base_r_drive_wheel_joint/position,/hsrb/joint_states/base_r_drive_wheel_joint/velocity,/hsrb/joint_states/base_roll_joint/effort,/hsrb/joint_states/base_roll_joint/position,/hsrb/joint_states/base_roll_joint/velocity,/hsrb/joint_states/hand_l_spring_proximal_joint/effort,/hsrb/joint_states/hand_l_spring_proximal_joint/position,/hsrb/joint_states/hand_l_spring_proximal_joint/velocity,/hsrb/joint_states/hand_motor_joint/effort,/hsrb/joint_states/hand_motor_joint/position,/hsrb/joint_states/hand_motor_joint/velocity,/hsrb/joint_states/hand_r_spring_proximal_joint/effort,/hsrb/joint_states/hand_r_spring_proximal_joint/position,/hsrb/joint_states/hand_r_spring_proximal_joint/velocity,/hsrb/joint_states/head_pan_joint/effort,/hsrb/joint_states/head_pan_joint/position,/hsrb/joint_states/head_pan_joint/velocity,/hsrb/joint_states/head_tilt_joint/effort,/hsrb/joint_states/head_tilt_joint/position,/hsrb/joint_states/head_tilt_joint/velocity,/hsrb/joint_states/header/seq,/hsrb/joint_states/header/stamp,/hsrb/joint_states/wrist_flex_joint/effort,/hsrb/joint_states/wrist_flex_joint/position,/hsrb/joint_states/wrist_flex_joint/velocity,/hsrb/joint_states/wrist_roll_joint/effort,/hsrb/joint_states/wrist_roll_joint/position,/hsrb/joint_states/wrist_roll_joint/velocity,/hsrb/pressure_sensor/data,/hsrb/wrist_wrench/compensated/header/seq,/hsrb/wrist_wrench/compensated/header/stamp,/hsrb/wrist_wrench/compensated/wrench/force/x,/hsrb/wrist_wrench/compensated/wrench/force/y,/hsrb/wrist_wrench/compensated/wrench/force/z,/hsrb/wrist_wrench/compensated/wrench/torque/x,/hsrb/wrist_wrench/compensated/wrench/torque/y,/hsrb/wrist_wrench/compensated/wrench/torque/z
1692625253.525218,1.908910,-0.332831,-0.000109,50.642892,0.174687,-0.000008,0.287040,0.075999,-0.000046,0.024273,-10.721081,-0.004255,0.013485,7.223585,0.000653,2.484000,1.871415,-0.007456,-1.901000,-0.053545,-0.016000,0.026204,1.225545,0.000590,-1.611000,0.005454,0.007000,0.044160,0.000000,-0.000138,-1.504857,0.000002,0.000038,39785.000000,1692625253.512687,0.552000,-1.238761,0.000048,0.084114,-0.024769,0.000048,,,,,,,,,
1692625253.529132,,,,,,,,,,,,,,,,,,,,,,,,,,,,,,,,,,,,,,,,,,,78638.000000,1692625253.520488,0.000000,0.000000,0.000000,0.000000,0.000000,0.000000
1692625253.541471,,,,,,,,,,,,,,,,,,,,,,,,,,,,,,,,,,,,,,,,,,,78639.000000,1692625253.530485,0.000000,0.000000,0.000000,0.000000,0.000000,0.000000
1692625253.542010,0.388253,-0.332831,0.000327,50.642892,0.174687,-0.000008,0.121440,0.075999,-0.000046,-0.029667,-10.721081,0.011796,0.010788,7.223585,0.000653,2.461920,1.871426,-0.002021,-1.899000,-0.051545,-0.028999,0.029070,1.225545,0.000000,-1.606000,0.008454,0.007000,0.014720,0.000000,-0.000138,-1.603429,0.000002,0.000038,39786.000000,1692625253.532682,0.552000,-1.238761,0.000048,0.010514,-0.024769,0.000048,,,,,,,,,
1692625253.547024,,,,,,,,,,,,,,,,,,,,,,,,,,,,,,,,,,,,,,,,,,,78640.000000,1692625253.540493,0.000000,0.000000,0.000000,0.000000,0.000000,0.000000
1692625253.557941,,,,,,,,,,,,,,,,,,,,,,,,,,,,,,,,,,,,,,,,,,,78641.000000,1692625253.550267,0.000000,0.000000,0.000000,0.000000,0.000000,0.000000
1692625253.567561,,,,,,,,,,,,,,,,,,,,,,,,,,,,,,,,,,,,,,,,,,,78642.000000,1692625253.560774,0.000000,0.000000,0.000000,0.000000,0.000000,0.000000
1692625253.574371,0.566202,-0.332831,-0.000018,50.933944,0.174687,-0.000008,0.276000,0.075999,-0.000046,-0.097092,-10.721021,0.010391,0.013485,7.223585,0.001524,2.704800,1.871436,0.000094,-1.906000,-0.055546,-0.039000,0.026612,1.225545,0.002363,-1.605000,0.007455,0.014999,-0.001840,0.000000,-0.000138,-1.662571,0.000002,0.000038,39787.000000,1692625253.562676,0.578286,-1.238761,0.000048,-0.015771,-0.024769,0.000048,,,,,,,,,
1692625253.577153,,,,,,,,,,,,,,,,,,,,,,,,,,,,,,,,,,,,,,,,,,,78643.000000,1692625253.570969,0.000000,0.000000,0.000000,0.000000,0.000000,0.000000
1692625253.586492,,,,,,,,,,,,,,,,,,,,,,,,,,,,,,,,,,,,,,,,,,,78644.000000,1692625253.580361,0.000000,0.000000,0.000000,0.000000,0.000000,0.000000
1692625253.595235,1.035341,-0.332831,-0.000018,51.516046,0.174687,-0.000008,0.287040,0.075999,-0.000046,0.018879,-10.721180,-0.012252,0.008091,7.223585,0.000653,2.715840,1.871426,-0.000471,-1.909000,-0.056545,-0.041000,0.026612,1.225545,0.002363,-1.600000,0.011454,0.014999,0.014720,0.000000,-0.000138,-1.662571,0.000002,0.000038,39788.000000,1692625253.582680,0.573029,-1.238761,0.000048,-0.026286,-0.024769,0.000048,,,,,,,,,
1692625253.597600,,,,,,,,,,,,,,,,,,,,,,,,,,,,,,,,,,,,,,,,,,0.000000,,,,,,,,
1692625253.600939,,,,,,,,,,,,,,,,,,,,,,,,,,,,,,,,,,,,,,,,,,,78645.000000,1692625253.590229,0.000000,0.000000,0.000000,0.000000,0.000000,0.000000
1692625253.610530,,,,,,,,,,,,,,,,,,,,,,,,,,,,,,,,,,,,,,,,,,,78646.000000,1692625253.602795,0.000000,0.000000,0.000000,0.000000,0.000000,0.000000
1692625253.613122,2.183922,-0.332831,-0.000785,51.224995,0.174687,-0.000008,0.143520,0.075999,-0.000046,-0.043152,-10.721041,0.005106,0.013485,7.223585,0.001880,2.793120,1.871426,0.002638,-1.899000,-0.045954,-0.032999,0.025795,1.224954,0.002363,-1.603000,0.009045,0.017999,0.020240,0.000000,-0.000138,-1.550857,0.000002,0.000038,39789.000000,1692625253.602681,0.594057,-1.238761,0.000048,0.015771,-0.024769,0.000048,,,,,,,,,
1692625253.620505,,,,,,,,,,,,,,,,,,,,,,,,,,,,,,,,,,,,,,,,,,,78647.000000,1692625253.610481,0.000000,0.000000,0.000000,0.000000,0.000000,0.000000
1692625253.635942,,,,,,,,,,,,,,,,,,,,,,,,,,,,,,,,,,,,,,,,,,,78648.000000,1692625253.620477,0.000000,0.000000,0.000000,0.000000,0.000000,0.000000
1692625253.638540,0.663265,-0.332831,-0.000018,51.516046,0.174687,-0.000008,0.165600,0.075999,-0.000046,0.021576,-10.721140,-0.000811,0.010788,7.223585,0.000653,2.682720,1.871426,-0.000167,-1.894000,-0.043955,0.013000,0.027841,1.224954,-0.000590,-1.600000,0.010046,0.013000,-0.014720,0.000000,-0.000138,-1.616571,0.000002,0.000038,39790.000000,1692625253.622697,0.557257,-1.238761,0.000048,-0.068343,-0.024769,0.000048,,,,,,,,,
1692625253.645983,,,,,,,,,,,,,,,,,,,,,,,,,,,,,,,,,,,,,,,,,,,78649.000000,1692625253.630263,0.000000,0.000000,0.000000,0.000000,0.000000,0.000000
1692625253.653266,0.744151,-0.332831,-0.000018,50.933944,0.174687,-0.000008,0.132480,0.075999,-0.000046,0.067425,-10.721140,-0.011737,0.010788,7.223585,0.000653,2.208000,1.871426,-0.003487,-1.896000,-0.045137,0.021999,0.029070,1.226136,-0.000590,-1.601000,0.008864,0.021999,-0.009200,0.000000,-0.000138,-1.590286,0.000002,0.000038,39791.000000,1692625253.632681,0.604571,-1.238761,0.000048,-0.010514,-0.024769,0.000048,,,,,,,,,
1692625253.659424,,,,,,,,,,,,,,,,,,,,,,,,,,,,,,,,,,,,,,,,,,,78650.000000,1692625253.640353,0.000000,0.000000,0.000000,0.000000,0.000000,0.000000
1692625253.661401,,,,,,,,,,,,,,,,,,,,,,,,,,,,,,,,,,,,,,,,,,,78651.000000,1692625253.650490,0.000000,0.000000,0.000000,0.000000,0.000000,0.000000
1692625253.675050,,,,,,,,,,,,,,,,,,,,,,,,,,,,,,,,,,,,,,,,,,,78652.000000,1692625253.660372,0.000000,0.000000,0.000000,0.000000,0.000000,0.000000
1692625253.681003,0.129418,-0.332831,-0.000032,50.933944,0.174687,-0.000008,0.093840,0.075999,-0.000046,0.016182,-10.721081,0.011559,0.005394,7.223585,0.000771,2.605440,1.871436,0.006963,-1.896000,-0.045137,-0.004999,0.027432,1.226136,0.005318,-1.598000,0.010863,0.028000,0.031280,0.000000,-0.000138,-1.485143,0.000002,0.000038,39792.000000,1692625253.662682,0.604571,-1.238761,0.000048,0.031543,-0.024769,0.000048,,,,,,,,,
1692625253.684699,,,,,,,,,,,,,,,,,,,,,,,,,,,,,,,,,,,,,,,,,,,78653.000000,1692625253.670468,0.000000,0.000000,0.000000,0.000000,0.000000,0.000000
1692625253.686248,,,,,,,,,,,,,,,,,,,,,,,,,,,,,,,,,,,,,,,,,,,78654.000000,1692625253.680521,0.000000,0.000000,0.000000,0.000000,0.000000,0.000000
1692625253.689891,0.436784,-0.332831,-0.000109,51.224995,0.174687,-0.000008,0.198720,0.075999,-0.000046,-0.002697,-10.721180,-0.015320,0.008091,7.223585,0.000653,2.605440,1.871415,-0.000879,-1.896000,-0.044546,0.019999,0.027020,1.225545,0.005318,-1.598000,0.010454,0.027000,-0.029440,0.000000,-0.000138,-1.629714,0.000002,0.000038,39793.000000,1692625253.672691,0.536229,-1.238761,0.000048,0.042057,-0.024769,0.000048,,,,,,,,,
1692625253.697605,,,,,,,,,,,,,,,,,,,,,,,,,,,,,,,,,,,,,,,,,,,78655.000000,1692625253.690361,0.000000,0.000000,0.000000,0.000000,0.000000,0.000000
1692625253.704885,,,,,,,,,,,,,,,,,,,,,,,,,,,,,,,,,,,,,,,,,,0.000000,,,,,,,,
1692625253.705668,,,,,,,,,,,,,,,,,,,,,,,,,,,,,,,,,,,,,,,,,,,78656.000000,1692625253.700541,0.000000,0.000000,0.000000,0.000000,0.000000,0.000000
1692625253.712370,1.083873,-0.332831,-0.000048,51.516046,0.174687,-0.000008,0.231840,0.075999,-0.000046,0.000000,-10.721140,0.001246,0.010788,7.223585,0.000791,2.263200,1.871426,-0.001811,-1.893000,-0.043545,0.021999,0.027841,1.225545,0.002363,-1.598000,0.008454,0.009999,-0.005520,0.000000,-0.000138,-1.557429,0.000002,0.000038,39794.000000,1692625253.702677,0.520457,-1.238761,0.000048,-0.026286,-0.024769,0.000048,,,,,,,,,
1692625253.717869,,,,,,,,,,,,,,,,,,,,,,,,,,,,,,,,,,,,,,,,,,,78657.000000,1692625253.713256,0.000000,0.000000,0.000000,0.000000,0.000000,0.000000
1692625253.726603,2.022150,-0.332831,-0.000553,51.516046,0.174687,-0.000008,0.292560,0.075999,-0.000046,0.059334,-10.721160,-0.013479,0.008091,7.223585,0.000653,2.384640,1.871415,-0.007424,-1.891000,-0.042954,0.020999,0.030707,1.224954,0.002363,-1.598000,0.009045,0.009999,0.020240,0.000000,-0.000138,-1.590286,0.000002,0.000038,39795.000000,1692625253.712687,0.625600,-1.238761,0.000048,-0.026286,-0.024769,0.000048,,,,,,,,,
1692625253.730972,,,,,,,,,,,,,,,,,,,,,,,,,,,,,,,,,,,,,,,,,,,78658.000000,1692625253.720421,0.000000,0.000000,0.000000,0.000000,0.000000,0.000000
1692625253.740761,,,,,,,,,,,,,,,,,,,,,,,,,,,,,,,,,,,,,,,,,,,78659.000000,1692625253.730358,0.000000,0.000000,0.000000,0.000000,0.000000,0.000000
1692625253.747141,0.258835,-0.332831,-0.000018,51.516046,0.174687,-0.000008,0.160080,0.075999,-0.000046,-0.016182,-10.721002,0.023217,0.010788,7.223585,0.000653,2.406720,1.871436,0.003906,-1.891000,-0.043728,0.023000,0.026204,1.226727,-0.000590,-1.600000,0.006273,0.000000,0.014720,0.000000,-0.000138,-1.649429,0.000002,0.000038,39796.000000,1692625253.732681,0.588800,-1.238761,0.000048,-0.057829,-0.024769,0.000048,,,,,,,,,
1692625253.749576,,,,,,,,,,,,,,,,,,,,,,,,,,,,,,,,,,,,,,,,,,,78660.000000,1692625253.741011,0.000000,0.000000,0.000000,0.000000,0.000000,0.000000
1692625253.762249,,,,,,,,,,,,,,,,,,,,,,,,,,,,,,,,,,,,,,,,,,,78661.000000,1692625253.750288,0.000000,0.000000,0.000000,0.000000,0.000000,0.000000
1692625253.763342,1.294176,-0.333215,0.001076,51.807097,0.174687,-0.000008,0.209760,0.075999,-0.000046,0.067425,-10.721160,-0.014726,0.013485,7.223585,0.000653,2.649600,1.871436,0.001361,-1.899000,-0.051137,0.010999,0.027841,1.226136,0.008272,-1.605000,0.001864,0.004999,-0.009200,0.000000,-0.000138,-1.570571,0.000002,0.000038,39797.000000,1692625253.752689,0.520457,-1.238761,0.000048,0.015771,-0.024769,0.000048,,,,,,,,,
1692625253.769994,,,,,,,,,,,,,,,,,,,,,,,,,,,,,,,,,,,,,,,,,,,78662.000000,1692625253.760400,0.000000,0.000000,0.000000,0.000000,0.000000,0.000000
1692625253.784948,,,,,,,,,,,,,,,,,,,,,,,,,,,,,,,,,,,,,,,,,,,78663.000000,1692625253.770522,0.000000,0.000000,0.000000,0.000000,0.000000,0.000000
1692625253.788431,0.210304,-0.332831,0.000979,51.807097,0.174687,-0.000008,0.253920,0.075999,-0.000046,-0.070122,-10.721021,0.015735,0.010788,7.223565,-0.003661,2.660640,1.871426,-0.000628,-1.902000,-0.052136,-0.023000,0.026204,1.226136,0.005318,-1.608000,0.001864,-0.018999,0.011040,0.000000,-0.000138,-1.649429,0.000002,0.000038,39798.000000,1692625253.772696,0.646629,-1.238761,0.000048,0.015771,-0.024769,0.000048,,,,,,,,,
1692625253.799162,,,,,,,,,,,,,,,,,,,,,,,,,,,,,,,,,,,,,,,,,,,78664.000000,1692625253.780466,0.000000,0.000000,0.000000,0.000000,0.000000,0.000000
1692625253.799985,,,,,,,,,,,,,,,,,,,,,,,,,,,,,,,,,,,,,,,,,,,78665.000000,1692625253.790323,0.000000,0.000000,0.000000,0.000000,0.000000,0.000000
1692625253.810956,,,,,,,,,,,,,,,,,,,,,,,,,,,,,,,,,,,,,,,,,,,78666.000000,1692625253.801213,0.000000,0.000000,0.000000,0.000000,0.000000,0.000000
1692625253.810979,0.323544,-0.332831,-0.000133,51.224995,0.174688,0.000013,0.187680,0.075999,-0.000046,0.070122,-10.721180,-0.014983,0.005394,7.223585,0.000653,2.638560,1.871436,0.002848,-1.904000,-0.051728,-0.025000,0.026612,1.226727,0.005318,-1.610000,0.001273,-0.014000,0.049680,0.000000,-0.000138,-1.616571,0.000002,0.000038,39799.000000,1692625253.792682,0.546743,-1.238761,0.000048,-0.005257,-0.024769,0.000048,,,,,,,,,
1692625253.813490,,,,,,,,,,,,,,,,,,,,,,,,,,,,,,,,,,,,,,,,,,0.000000,,,,,,,,
1692625253.820218,,,,,,,,,,,,,,,,,,,,,,,,,,,,,,,,,,,,,,,,,,,78667.000000,1692625253.811391,0.000000,0.000000,0.000000,0.000000,0.000000,0.000000
1692625253.827458,0.630911,-0.332831,-0.001294,51.224995,0.174688,0.000008,0.270480,0.075999,-0.000046,-0.078213,-10.721002,0.020406,0.008091,7.223585,0.000653,2.715840,1.871436,0.006785,-1.906000,-0.053728,-0.023000,0.028249,1.226727,0.007681,-1.611000,0.001273,-0.017999,-0.003680,0.000000,-0.000138,-1.610000,0.000002,0.000038,39800.000000,1692625253.812709,0.452114,-1.238761,0.000048,-0.110400,-0.024769,0.000048,,,,,,,,,
1692625253.835935,,,,,,,,,,,,,,,,,,,,,,,,,,,,,,,,,,,,,,,,,,,78668.000000,1692625253.820565,0.000000,0.000000,0.000000,0.000000,0.000000,0.000000
1692625253.844662,,,,,,,,,,,,,,,,,,,,,,,,,,,,,,,,,,,,,,,,,,,78669.000000,1692625253.830324,0.000000,0.000000,0.000000,0.000000,0.000000,0.000000
1692625253.844684,0.485316,-0.332831,-0.000038,49.187637,0.174688,0.000008,0.171120,0.075999,-0.000046,0.037758,-10.721180,-0.012113,0.008091,7.223585,0.001979,2.329440,1.871426,-0.005476,-1.904000,-0.050363,-0.010999,0.028661,1.224363,0.004727,-1.611000,0.002636,-0.017999,0.023920,0.000000,-0.000138,-1.590286,-0.000003,-0.000077,39801.000000,1692625253.832680,0.573029,-1.238761,0.000048,-0.026286,-0.024769,0.000048,,,,,,,,,
1692625253.856301,,,,,,,,,,,,,,,,,,,,,,,,,,,,,,,,,,,,,,,,,,,78670.000000,1692625253.842730,0.000000,0.000000,0.000000,0.000000,0.000000,0.000000
1692625253.859114,,,,,,,,,,,,,,,,,,,,,,,,,,,,,,,,,,,,,,,,,,,78671.000000,1692625253.850278,0.000000,0.000000,0.000000,0.000000,0.000000,0.000000
1692625253.863327,0.436784,-0.332831,-0.000638,50.642892,0.174687,-0.000008,0.204240,0.076004,0.000046,0.000000,-10.721061,-0.000237,0.008091,7.223565,-0.003859,2.572320,1.871436,0.001738,-1.904000,-0.049364,-0.014999,0.027020,1.224363,-0.004136,-1.613000,0.002636,-0.020999,0.018400,0.000000,-0.000138,-1.550857,-0.000003,-0.000038,39802.000000,1692625253.852680,0.599314,-1.238761,0.000048,-0.052571,-0.024769,0.000048,,,,,,,,,
1692625253.867294,,,,,,,,,,,,,,,,,,,,,,,,,,,,,,,,,,,,,,,,,,,78672.000000,1692625253.860476,0.000000,0.000000,0.000000,0.000000,0.000000,0.000000
1692625253.873487,,,,,,,,,,,,,,,,,,,,,,,,,,,,,,,,,,,,,,,,,,,78673.000000,1692625253.870276,0.000000,0.000000,0.000000,0.000000,0.000000,0.000000
1692625253.882823,0.469139,-0.332831,-0.000068,50.642892,0.174687,-0.000008,0.380880,0.076004,0.000046,0.024273,-10.721160,-0.005957,0.008091,7.223585,0.000831,2.704800,1.871436,0.004827,-1.906000,-0.051545,-0.014000,0.024975,1.225545,-0.004136,-1.620000,-0.000545,-0.024000,-0.007360,0.000000,-0.000138,-1.610000,-0.000003,-0.000038,39803.000000,1692625253.872680,0.630857,-1.238761,0.000048,-0.052571,-0.024769,0.000048,,,,,,,,,
1692625253.886571,,,,,,,,,,,,,,,,,,,,,,,,,,,,,,,,,,,,,,,,,,,78674.000000,1692625253.880811,0.000000,0.000000,0.000000,0.000000,0.000000,0.000000
1692625253.895819,,,,,,,,,,,,,,,,,,,,,,,,,,,,,,,,,,,,,,,,,,,78675.000000,1692625253.890480,0.000000,0.000000,0.000000,0.000000,0.000000,0.000000
1692625253.904050,,,,,,,,,,,,,,,,,,,,,,,,,,,,,,,,,,,,,,,,,,,78676.000000,1692625253.900476,0.000000,0.000000,0.000000,0.000000,0.000000,0.000000
1692625253.913743,0.792683,-0.333215,0.000335,50.060790,0.174687,-0.000008,0.242880,0.076004,0.000046,-0.010788,-10.721021,0.018526,0.013485,7.223585,0.000653,2.704800,1.871436,0.005267,-1.906000,-0.050546,-0.017999,0.026612,1.225545,0.001772,-1.610000,0.006454,0.004000,0.020240,0.000000,-0.000138,-1.550857,-0.000003,-0.000038,39804.000000,1692625253.902678,0.562514,-1.238761,0.000048,-0.057829,-0.024769,0.000048,,,,,,,,,
1692625253.916526,,,,,,,,,,,,,,,,,,,,,,,,,,,,,,,,,,,,,,,,,,,78677.000000,1692625253.910700,0.000000,0.000000,0.000000,0.000000,0.000000,0.000000
1692625253.918340,,,,,,,,,,,,,,,,,,,,,,,,,,,,,,,,,,,,,,,,,,0.000000,,,,,,,,
1692625253.919632,0.695620,-0.332831,-0.000034,50.060790,0.174687,-0.000008,0.287040,0.076004,0.000046,0.000000,-10.721180,-0.010906,0.000000,7.223585,0.000653,2.726880,1.871426,-0.000628,-1.906000,-0.050728,-0.008000,0.028249,1.226727,0.001772,-1.613000,0.004272,0.008000,-0.007360,0.000000,-0.000138,-1.478571,-0.000003,-0.000038,39805.000000,1692625253.912680,0.615086,-1.238761,0.000048,0.036800,-0.024769,0.000048,,,,,,,,,
1692625253.922810,,,,,,,,,,,,,,,,,,,,,,,,,,,,,,,,,,,,,,,,,,,78678.000000,1692625253.920286,0.000000,0.000000,0.000000,0.000000,0.000000,0.000000
1692625253.941761,,,,,,,,,,,,,,,,,,,,,,,,,,,,,,,,,,,,,,,,,,,78679.000000,1692625253.930520,0.000000,0.000000,0.000000,0.000000,0.000000,0.000000
1692625253.951606,,,,,,,,,,,,,,,,,,,,,,,,,,,,,,,,,,,,,,,,,,,78680.000000,1692625253.940485,0.000000,0.000000,0.000000,0.000000,0.000000,0.000000
1692625253.953081,2.458935,-0.333215,-0.000018,48.896586,0.174688,0.000008,0.176640,0.076004,0.000046,-0.107880,-10.721002,0.019199,0.005394,7.223585,0.001207,2.506080,1.871436,0.004303,-1.904000,-0.048137,0.007000,0.028661,1.226136,0.004136,-1.610000,0.005863,0.003000,-0.020240,0.000000,-0.000138,-1.570571,-0.000003,-0.000038,39806.000000,1692625253.942695,0.520457,-1.238761,0.000048,-0.015771,-0.024769,0.000048,,,,,,,,,
1692625253.959625,,,,,,,,,,,,,,,,,,,,,,,,,,,,,,,,,,,,,,,,,,,78681.000000,1692625253.950808,0.000000,0.000000,0.000000,0.000000,0.000000,0.000000
1692625253.967515,,,,,,,,,,,,,,,,,,,,,,,,,,,,,,,,,,,,,,,,,,,78682.000000,1692625253.960468,0.000000,0.000000,0.000000,0.000000,0.000000,0.000000
1692625253.971384,0.727974,-0.332831,-0.000432,48.605535,0.174687,-0.000299,0.231840,0.076004,0.000046,0.067425,-10.721180,-0.017022,0.013485,7.223585,0.000653,2.572320,1.871426,-0.000848,-1.904000,-0.048728,0.007000,0.027841,1.226727,0.004136,-1.608000,0.007272,0.016000,0.018400,0.000000,-0.000138,-1.458857,-0.000003,-0.000038,39807.000000,1692625253.962690,0.536229,-1.238761,0.000048,0.005257,-0.024769,0.000048,,,,,,,,,
1692625253.977837,,,,,,,,,,,,,,,,,,,,,,,,,,,,,,,,,,,,,,,,,,,78683.000000,1692625253.970770,0.000000,0.000000,0.000000,0.000000,0.000000,0.000000
1692625253.985486,1.973619,-0.333215,0.000018,48.605535,0.174687,-0.000008,0.204240,0.076004,0.000046,0.021576,-10.721120,-0.011895,0.008091,7.223585,0.000653,2.539200,1.871436,0.003874,-1.904000,-0.049727,0.007000,0.026612,1.226727,0.006499,-1.610000,0.005272,0.016000,0.011040,0.000000,-0.000138,-1.623143,-0.000003,-0.000038,39808.000000,1692625253.972685,0.604571,-1.238761,0.000048,0.005257,-0.024769,0.000048,,,,,,,,,
1692625253.986578,,,,,,,,,,,,,,,,,,,,,,,,,,,,,,,,,,,,,,,,,,,78684.000000,1692625253.980481,0.000000,0.000000,0.000000,0.000000,0.000000,0.000000
1692625253.994492,,,,,,,,,,,,,,,,,,,,,,,,,,,,,,,,,,,,,,,,,,,78685.000000,1692625253.990257,0.000000,0.000000,0.000000,0.000000,0.000000,0.000000
1692625254.004016,2.313340,-0.333215,0.000472,49.478688,0.174687,-0.000008,0.209760,0.076004,0.000046,-0.072819,-10.721002,0.021337,0.008091,7.223585,0.000653,2.782080,1.871436,0.000125,-1.899000,-0.046319,0.010999,0.027841,1.227318,0.006499,-1.608000,0.006681,0.001000,0.001840,0.000000,-0.000138,-1.590286,-0.000003,-0.000038,39809.000000,1692625253.992682,0.520457,-1.238761,0.000048,-0.078857,-0.024769,0.000048,,,,,,,,,
1692625254.006497,,,,,,,,,,,,,,,,,,,,,,,,,,,,,,,,,,,,,,,,,,,78686.000000,1692625254.004153,0.000000,0.000000,0.000000,0.000000,0.000000,0.000000
1692625254.012804,,,,,,,,,,,,,,,,,,,,,,,,,,,,,,,,,,,,,,,,,,,78687.000000,1692625254.010359,0.000000,0.000000,0.000000,0.000000,0.000000,0.000000
1692625254.024388,0.355898,-0.332831,0.000672,49.769739,0.174687,-0.000008,0.209760,0.076004,0.000046,0.008091,-10.721180,-0.015418,0.010788,7.223585,0.000653,2.141760,1.871436,0.002733,-1.896000,-0.045909,0.018999,0.025383,1.227909,0.011227,-1.611000,0.004090,0.004999,0.029440,0.000000,-0.000138,-1.570571,-0.000003,-0.000038,39810.000000,1692625254.012682,0.452114,-1.238761,0.000048,-0.021029,-0.024769,0.000048,,,,,,,,,
1692625254.026566,,,,,,,,,,,,,,,,,,,,,,,,,,,,,,,,,,,,,,,,,,,78688.000000,1692625254.021407,0.000000,0.000000,0.000000,0.000000,0.000000,0.000000
1692625254.028364,,,,,,,,,,,,,,,,,,,,,,,,,,,,,,,,,,,,,,,,,,0.000000,,,,,,,,
1692625254.036777,,,,,,,,,,,,,,,,,,,,,,,,,,,,,,,,,,,,,,,,,,,78689.000000,1692625254.030260,0.000000,0.000000,0.000000,0.000000,0.000000,0.000000
1692625254.048732,2.733947,-0.333215,-0.001290,49.769739,0.174687,-0.000008,0.165600,0.076004,0.000046,-0.029667,-10.721061,-0.000653,0.008091,7.223585,0.000910,2.550240,1.871415,-0.000649,-1.893000,-0.044319,0.017000,0.028249,1.227318,0.011227,-1.613000,0.002682,-0.004999,-0.025760,0.000000,-0.000138,-1.544286,-0.000003,-0.000038,39811.000000,1692625254.032685,0.641371,-1.238761,0.000048,-0.031543,-0.024769,0.000048,,,,,,,,,
1692625254.051961,,,,,,,,,,,,,,,,,,,,,,,,,,,,,,,,,,,,,,,,,,,78690.000000,1692625254.042366,0.000000,0.000000,0.000000,0.000000,0.000000,0.000000
1692625254.062902,,,,,,,,,,,,,,,,,,,,,,,,,,,,,,,,,,,,,,,,,,,78691.000000,1692625254.050586,0.000000,0.000000,0.000000,0.000000,0.000000,0.000000
1692625254.065639,0.420607,-0.332831,0.000371,49.478688,0.174687,-0.000008,0.011040,0.076004,0.000046,-0.021576,-10.721180,-0.010906,0.024273,7.223585,0.001484,2.495040,1.871426,0.000094,-1.891000,-0.043909,0.028999,0.029887,1.227909,0.010636,-1.615000,0.002091,-0.004999,0.011040,0.000000,-0.000138,-1.531143,0.000002,0.000038,39812.000000,1692625254.052691,0.578286,-1.238761,0.000048,0.000000,-0.024769,0.000048,,,,,,,,,
1692625254.075510,,,,,,,,,,,,,,,,,,,,,,,,,,,,,,,,,,,,,,,,,,,78692.000000,1692625254.060273,0.000000,0.000000,0.000000,0.000000,0.000000,0.000000
1692625254.080375,,,,,,,,,,,,,,,,,,,,,,,,,,,,,,,,,,,,,,,,,,,78693.000000,1692625254.070290,0.000000,0.000000,0.000000,0.000000,0.000000,0.000000
1692625254.084984,1.002987,-0.332831,-0.000347,49.769739,0.174687,-0.000008,0.066240,0.076004,0.000046,-0.089001,-10.721041,0.005819,0.002697,7.223585,0.000653,2.484000,1.871426,0.000209,-1.894000,-0.047910,0.027000,0.027432,1.227909,0.010636,-1.621000,-0.000910,-0.024000,-0.003680,0.000000,-0.000138,-1.734857,0.000002,0.000038,39813.000000,1692625254.072681,0.641371,-1.238761,0.000048,0.021029,-0.024769,0.000048,,,,,,,,,
1692625254.088475,,,,,,,,,,,,,,,,,,,,,,,,,,,,,,,,,,,,,,,,,,,78694.000000,1692625254.080360,0.000000,0.000000,0.000000,0.000000,0.000000,0.000000
1692625254.095722,,,,,,,,,,,,,,,,,,,,,,,,,,,,,,,,,,,,,,,,,,,78695.000000,1692625254.090487,0.000000,0.000000,0.000000,0.000000,0.000000,0.000000
1692625254.108737,2.167745,-0.332831,-0.000072,49.769739,0.174687,-0.000008,0.138000,0.076004,0.000046,-0.002697,-10.721101,0.007382,0.016182,7.223585,0.001820,2.594400,1.871415,-0.002628,-1.899000,-0.052500,0.006000,0.025383,1.228499,0.012999,-1.621000,-0.000499,-0.013000,0.005520,0.000000,-0.000138,-1.564000,0.000002,0.000038,39814.000000,1692625254.092688,0.615086,-1.238761,0.000048,-0.047314,-0.024769,0.000048,,,,,,,,,
1692625254.108769,,,,,,,,,,,,,,,,,,,,,,,,,,,,,,,,,,,,,,,,,,,78696.000000,1692625254.100366,0.000000,0.000000,0.000000,0.000000,0.000000,0.000000
1692625254.119701,,,,,,,,,,,,,,,,,,,,,,,,,,,,,,,,,,,,,,,,,,,78697.000000,1692625254.110282,0.000000,0.000000,0.000000,0.000000,0.000000,0.000000
1692625254.122686,0.129418,-0.332831,-0.000042,50.351841,0.174687,-0.000008,0.187680,0.076004,0.000046,0.043152,-10.721120,-0.011777,0.008091,7.223565,-0.002850,2.638560,1.871426,0.000209,-1.898000,-0.050500,-0.014000,0.028249,1.228499,0.014181,-1.623000,-0.000499,-0.013000,-0.022080,0.000000,-0.000138,-1.524571,0.000002,0.000038,39815.000000,1692625254.112700,0.515200,-1.238761,0.000048,-0.057829,-0.024769,0.000048,,,,,,,,,
1692625254.126714,,,,,,,,,,,,,,,,,,,,,,,,,,,,,,,,,,,,,,,,,,,78698.000000,1692625254.121083,0.000000,0.000000,0.000000,0.000000,0.000000,0.000000
1692625254.135660,,,,,,,,,,,,,,,,,,,,,,,,,,,,,,,,,,,,,,,,,,,78699.000000,1692625254.130505,0.000000,0.000000,0.000000,0.000000,0.000000,0.000000
1692625254.135831,,,,,,,,,,,,,,,,,,,,,,,,,,,,,,,,,,,,,,,,,,0.000000,,,,,,,,
1692625254.148294,,,,,,,,,,,,,,,,,,,,,,,,,,,,,,,,,,,,,,,,,,,78700.000000,1692625254.140357,0.000000,0.000000,0.000000,0.000000,0.000000,0.000000
1692625254.152754,1.698606,-0.332831,-0.000399,50.060790,0.174687,-0.000008,0.077280,0.076004,0.000046,0.032364,-10.721180,-0.014290,0.008091,7.223585,0.000653,2.439840,1.871415,-0.001267,-1.899000,-0.050909,-0.008000,0.027020,1.227909,0.007681,-1.625000,0.000091,-0.012000,0.016560,0.000000,-0.000138,-1.623143,0.000002,0.000038,39816.000000,1692625254.142676,0.520457,-1.238761,0.000048,-0.021029,-0.024769,0.000048,,,,,,,,,
1692625254.156866,,,,,,,,,,,,,,,,,,,,,,,,,,,,,,,,,,,,,,,,,,,78701.000000,1692625254.150843,0.000000,0.000000,0.000000,0.000000,0.000000,0.000000
1692625254.160474,0.145595,-0.332831,-0.000145,50.060790,0.174687,-0.000008,0.171120,0.076004,0.000046,0.045849,-10.721140,-0.013756,0.013485,7.223585,0.001801,2.539200,1.871426,0.000094,-1.899000,-0.050137,-0.008000,0.033573,1.226136,0.007681,-1.621000,0.001864,-0.012000,-0.020240,0.000000,-0.000138,-1.504857,0.000002,0.000038,39817.000000,1692625254.152680,0.488914,-1.238761,0.000048,0.031543,-0.024769,0.000048,,,,,,,,,
1692625254.163587,,,,,,,,,,,,,,,,,,,,,,,,,,,,,,,,,,,,,,,,,,,78702.000000,1692625254.160792,0.000000,0.000000,0.000000,0.000000,0.000000,0.000000
1692625254.173226,,,,,,,,,,,,,,,,,,,,,,,,,,,,,,,,,,,,,,,,,,,78703.000000,1692625254.170351,0.000000,0.000000,0.000000,0.000000,0.000000,0.000000
1692625254.183908,,,,,,,,,,,,,,,,,,,,,,,,,,,,,,,,,,,,,,,,,,,78704.000000,1692625254.180340,0.000000,0.000000,0.000000,0.000000,0.000000,0.000000
1692625254.192836,0.210304,-0.332831,-0.000018,50.060790,0.174687,-0.000008,0.060720,0.076004,0.000046,-0.008091,-10.721180,-0.009916,0.008091,7.223585,0.000653,2.693760,1.871415,-0.002754,-1.899000,-0.049546,-0.012000,0.026204,1.225545,-0.001181,-1.621000,0.002455,-0.016000,-0.001840,0.000000,-0.000138,-1.662571,0.000002,0.000038,39818.000000,1692625254.182679,0.452114,-1.238761,0.000048,-0.021029,-0.024769,0.000048,,,,,,,,,
1692625254.196093,,,,,,,,,,,,,,,,,,,,,,,,,,,,,,,,,,,,,,,,,,,78705.000000,1692625254.190466,0.000000,0.000000,0.000000,0.000000,0.000000,0.000000
1692625254.206760,1.908910,-0.332831,-0.000313,50.351841,0.174687,-0.000008,0.055200,0.076004,0.000046,0.059334,-10.721160,-0.014983,0.008091,7.223585,0.000653,2.616480,1.871426,0.005623,-1.901000,-0.050137,-0.012000,0.033165,1.226136,-0.003545,-1.623000,0.001864,-0.010999,-0.009200,0.000000,-0.000138,-1.616571,0.000002,0.000038,39819.000000,1692625254.192680,0.446857,-1.238761,0.000048,0.021029,-0.024769,0.000048,,,,,,,,,
1692625254.206784,,,,,,,,,,,,,,,,,,,,,,,,,,,,,,,,,,,,,,,,,,,78706.000000,1692625254.200403,0.000000,0.000000,0.000000,0.000000,0.000000,0.000000
1692625254.215601,,,,,,,,,,,,,,,,,,,,,,,,,,,,,,,,,,,,,,,,,,,78707.000000,1692625254.210360,0.000000,0.000000,0.000000,0.000000,0.000000,0.000000
1692625254.229176,,,,,,,,,,,,,,,,,,,,,,,,,,,,,,,,,,,,,,,,,,,78708.000000,1692625254.220530,0.000000,0.000000,0.000000,0.000000,0.000000,0.000000
1692625254.233035,0.598556,-0.332831,-0.000018,50.351841,0.174687,-0.000008,0.088320,0.076004,0.000046,0.016182,-10.721120,0.004869,0.002697,7.223585,0.000930,2.550240,1.871415,-0.000492,-1.894000,-0.046364,-0.002000,0.024566,1.224363,-0.011818,-1.621000,0.003637,-0.009999,0.009200,0.000000,-0.000138,-1.616571,0.000002,0.000038,39820.000000,1692625254.222676,0.599314,-1.238761,0.000048,0.015771,-0.024769,0.000048,,,,,,,,,
1692625254.247058,,,,,,,,,,,,,,,,,,,,,,,,,,,,,,,,,,,,,,,,,,,78709.000000,1692625254.230316,0.000000,0.000000,0.000000,0.000000,0.000000,0.000000
1692625254.249232,,,,,,,,,,,,,,,,,,,,,,,,,,,,,,,,,,,,,,,,,,0.000000,,,,,,,,
1692625254.253120,0.905923,-0.333215,0.000199,50.060790,0.174687,-0.000008,0.082800,0.076004,0.000046,0.016182,-10.721101,-0.007462,0.002697,7.223585,0.001266,2.539200,1.871426,0.000115,-1.898000,-0.047954,-0.010999,0.028661,1.224954,-0.005909,-1.628000,-0.000955,-0.024000,0.009200,0.000000,-0.000138,-1.412857,0.000002,0.000038,39821.000000,1692625254.242680,0.557257,-1.238761,0.000048,-0.042057,-0.024769,0.000048,,,,,,,,,
1692625254.256209,,,,,,,,,,,,,,,,,,,,,,,,,,,,,,,,,,,,,,,,,,,78710.000000,1692625254.240375,0.000000,0.000000,0.000000,0.000000,0.000000,0.000000
1692625254.257397,,,,,,,,,,,,,,,,,,,,,,,,,,,,,,,,,,,,,,,,,,,78711.000000,1692625254.250383,0.000000,0.000000,0.000000,0.000000,0.000000,0.000000
1692625254.260392,1.730961,-0.333215,0.000311,50.351841,0.174687,-0.000008,0.165600,0.076004,0.000046,-0.059334,-10.721041,0.006927,0.008091,7.223585,0.000653,2.461920,1.871415,-0.006440,-1.896000,-0.046955,-0.006000,0.028661,1.224954,-0.005909,-1.628000,-0.000955,-0.027000,0.020240,0.000000,-0.000138,-1.537714,0.000002,0.000038,39822.000000,1692625254.252683,0.557257,-1.238761,0.000048,0.036800,-0.024769,0.000048,,,,,,,,,
1692625254.265436,,,,,,,,,,,,,,,,,,,,,,,,,,,,,,,,,,,,,,,,,,,78712.000000,1692625254.260489,0.000000,0.000000,0.000000,0.000000,0.000000,0.000000
1692625254.272306,,,,,,,,,,,,,,,,,,,,,,,,,,,,,,,,,,,,,,,,,,,78713.000000,1692625254.270309,0.000000,0.000000,0.000000,0.000000,0.000000,0.000000
1692625254.284708,1.520657,-0.332831,-0.000068,50.351841,0.174687,-0.000008,0.132480,0.076004,0.000046,0.021576,-10.721180,-0.013815,0.024273,7.223585,0.001939,2.307360,1.871415,-0.010828,-1.883000,-0.037954,0.048999,0.029070,1.224954,-0.005909,-1.623000,0.003046,0.004999,0.000000,0.000000,-0.000138,-1.544286,0.000002,0.000038,39823.000000,1692625254.272682,0.562514,-1.238761,0.000048,-0.036800,-0.024769,0.000048,,,,,,,,,
1692625254.285542,,,,,,,,,,,,,,,,,,,,,,,,,,,,,,,,,,,,,,,,,,,78714.000000,1692625254.280350,0.000000,0.000000,0.000000,0.000000,0.000000,0.000000
1692625254.294462,,,,,,,,,,,,,,,,,,,,,,,,,,,,,,,,,,,,,,,,,,,78715.000000,1692625254.290570,0.000000,0.000000,0.000000,0.000000,0.000000,0.000000
1692625254.303028,2.086859,-0.332831,-0.000581,50.642892,0.174687,-0.000008,0.160080,0.076004,0.000046,-0.048546,-10.721061,0.001959,0.010788,7.223565,-0.003978,2.605440,1.871415,-0.001036,-1.888000,-0.043545,0.019999,0.025383,1.225545,-0.002954,-1.626000,0.000454,-0.004999,0.018400,0.000000,-0.000138,-1.734857,0.000002,0.000038,39824.000000,1692625254.292683,0.557257,-1.238761,0.000048,-0.005257,-0.024769,0.000048,,,,,,,,,
1692625254.313212,,,,,,,,,,,,,,,,,,,,,,,,,,,,,,,,,,,,,,,,,,,78716.000000,1692625254.301369,0.000000,0.000000,0.000000,0.000000,0.000000,0.000000
1692625254.318146,,,,,,,,,,,,,,,,,,,,,,,,,,,,,,,,,,,,,,,,,,,78717.000000,1692625254.310273,0.000000,0.000000,0.000000,0.000000,0.000000,0.000000
1692625254.323784,2.831010,-0.333215,-0.000018,50.933944,0.174687,-0.000008,0.149040,0.076004,0.000046,0.029667,-10.721140,-0.001543,0.008091,7.223585,0.000653,2.572320,1.871415,-0.002911,-1.888000,-0.043955,0.009999,0.029887,1.224954,-0.005318,-1.625000,0.002045,-0.014000,-0.014720,0.000000,-0.000138,-1.583714,0.000002,0.000038,39825.000000,1692625254.312686,0.441600,-1.238761,0.000048,0.010514,-0.024769,0.000048,,,,,,,,,
1692625254.335301,,,,,,,,,,,,,,,,,,,,,,,,,,,,,,,,,,,,,,,,,,,78718.000000,1692625254.320508,0.000000,0.000000,0.000000,0.000000,0.000000,0.000000
1692625254.347441,0.954455,-0.332831,-0.000727,50.642892,0.174687,-0.000008,0.060720,0.076004,0.000046,-0.008091,-10.721061,0.000653,0.008091,7.223585,0.000653,2.230080,1.871436,0.002963,-1.889000,-0.046137,0.000000,0.028661,1.226136,-0.002363,-1.623000,0.002863,0.006000,-0.009200,0.000000,-0.000138,-1.537714,0.000002,0.000038,39826.000000,1692625254.332682,0.494171,-1.238761,0.000048,-0.005257,-0.024769,0.000048,,,,,,,,,
1692625254.349729,,,,,,,,,,,,,,,,,,,,,,,,,,,,,,,,,,,,,,,,,,,78719.000000,1692625254.333102,0.000000,0.000000,0.000000,0.000000,0.000000,0.000000
1692625254.353852,,,,,,,,,,,,,,,,,,,,,,,,,,,,,,,,,,,,,,,,,,,78720.000000,1692625254.340658,0.000000,0.000000,0.000000,0.000000,0.000000,0.000000
1692625254.355889,,,,,,,,,,,,,,,,,,,,,,,,,,,,,,,,,,,,,,,,,,0.000000,,,,,,,,
1692625254.361771,,,,,,,,,,,,,,,,,,,,,,,,,,,,,,,,,,,,,,,,,,,78721.000000,1692625254.350317,0.000000,0.000000,0.000000,0.000000,0.000000,0.000000
1692625254.363770,2.523644,-0.333215,-0.000018,50.351841,0.174687,-0.000008,0.005520,0.076004,0.000046,0.018879,-10.721160,-0.005522,0.002697,7.223585,0.001029,2.241120,1.871426,-0.005487,-1.891000,-0.046137,0.004000,0.027432,1.226136,0.000590,-1.623000,0.002863,-0.004000,0.011040,0.000000,-0.000138,-1.550857,0.000002,0.000038,39827.000000,1692625254.352683,0.641371,-1.238761,0.000048,0.010514,-0.024769,0.000048,,,,,,,,,
1692625254.370576,,,,,,,,,,,,,,,,,,,,,,,,,,,,,,,,,,,,,,,,,,,78722.000000,1692625254.360536,0.000000,0.000000,0.000000,0.000000,0.000000,0.000000
1692625254.382261,,,,,,,,,,,,,,,,,,,,,,,,,,,,,,,,,,,,,,,,,,,78723.000000,1692625254.370288,0.000000,0.000000,0.000000,0.000000,0.000000,0.000000
1692625254.383543,0.275012,-0.332831,-0.000169,50.933944,0.174687,-0.000008,0.138000,0.076004,0.000046,0.010788,-10.721081,-0.003186,0.005394,7.223585,0.000653,2.704800,1.871436,0.005351,-1.889000,-0.045137,0.008000,0.027020,1.226136,0.000590,-1.623000,0.002863,0.001000,0.001840,0.000000,-0.000138,-1.695429,0.000002,0.000038,39828.000000,1692625254.372680,0.525714,-1.238761,0.000048,0.036800,-0.024769,0.000048,,,,,,,,,
1692625254.389263,,,,,,,,,,,,,,,,,,,,,,,,,,,,,,,,,,,,,,,,,,,78724.000000,1692625254.380472,0.000000,0.000000,0.000000,0.000000,0.000000,0.000000
1692625254.400563,,,,,,,,,,,,,,,,,,,,,,,,,,,,,,,,,,,,,,,,,,,78725.000000,1692625254.390268,0.000000,0.000000,0.000000,0.000000,0.000000,0.000000
1692625254.402151,2.054505,-0.333215,0.000603,51.224995,0.174687,-0.000008,0.176640,0.076004,0.000046,0.026970,-10.721180,-0.012271,0.008091,7.223585,0.000653,2.362560,1.871436,0.002921,-1.888000,-0.044546,0.008000,0.026204,1.225545,-0.002363,-1.620000,0.004455,0.001000,-0.016560,0.000000,-0.000138,-1.557429,0.000002,0.000038,39829.000000,1692625254.392684,0.541486,-1.238761,0.000048,-0.015771,-0.024769,0.000048,,,,,,,,,
1692625254.407653,,,,,,,,,,,,,,,,,,,,,,,,,,,,,,,,,,,,,,,,,,,78726.000000,1692625254.400481,0.000000,0.000000,0.000000,0.000000,0.000000,0.000000
1692625254.420964,,,,,,,,,,,,,,,,,,,,,,,,,,,,,,,,,,,,,,,,,,,78727.000000,1692625254.410140,0.000000,0.000000,0.000000,0.000000,0.000000,0.000000
1692625254.425382,2.410403,-0.333215,-0.001286,50.933944,0.174687,-0.000008,-0.044160,0.076004,0.000046,-0.126759,-10.721021,0.012548,0.002697,7.223585,0.000989,2.572320,1.871426,0.003759,-1.891000,-0.048318,-0.002000,0.029887,1.227318,-0.002363,-1.625000,-0.000319,-0.004999,-0.001840,0.000000,-0.000138,-1.570571,0.000002,0.000038,39830.000000,1692625254.412682,0.520457,-1.238761,0.000048,-0.078857,-0.024769,0.000048,,,,,,,,,
1692625254.431018,,,,,,,,,,,,,,,,,,,,,,,,,,,,,,,,,,,,,,,,,,,78728.000000,1692625254.420469,0.000000,0.000000,0.000000,0.000000,0.000000,0.000000
1692625254.435235,,,,,,,,,,,,,,,,,,,,,,,,,,,,,,,,,,,,,,,,,,,78729.000000,1692625254.430660,0.000000,0.000000,0.000000,0.000000,0.000000,0.000000
1692625254.448350,,,,,,,,,,,,,,,,,,,,,,,,,,,,,,,,,,,,,,,,,,,78730.000000,1692625254.440269,0.000000,0.000000,0.000000,0.000000,0.000000,0.000000
1692625254.452152,2.280986,-0.333215,0.001076,50.642892,0.174687,-0.000008,-0.027600,0.076004,0.000046,0.045849,-10.721120,-0.009857,0.008091,7.223585,0.000653,2.616480,1.871415,-0.001246,-1.896000,-0.050318,-0.002000,0.027432,1.227318,0.006499,-1.626000,-0.000319,-0.008000,-0.005520,0.000000,-0.000138,-1.570571,0.000002,0.000038,39831.000000,1692625254.442679,0.609829,-1.238761,0.000048,-0.036800,-0.024769,0.000048,,,,,,,,,
1692625254.457723,,,,,,,,,,,,,,,,,,,,,,,,,,,,,,,,,,,,,,,,,,,78731.000000,1692625254.450879,0.000000,0.000000,0.000000,0.000000,0.000000,0.000000
1692625254.463230,2.814833,-0.333215,0.001193,51.807097,0.174687,-0.000008,0.099360,0.075999,-0.000158,-0.089001,-10.721041,0.006769,0.008091,7.223585,0.000653,2.627520,1.871415,-0.000387,-1.898000,-0.051137,-0.010999,0.029478,1.226136,0.006499,-1.623000,0.002863,-0.008000,-0.009200,0.000000,-0.000138,-1.596857,0.000002,0.000038,39832.000000,1692625254.452682,0.488914,-1.238761,0.000048,-0.005257,-0.024769,0.000048,,,,,,,,,
1692625254.463332,,,,,,,,,,,,,,,,,,,,,,,,,,,,,,,,,,,,,,,,,,0.000000,,,,,,,,
1692625254.465755,,,,,,,,,,,,,,,,,,,,,,,,,,,,,,,,,,,,,,,,,,,78732.000000,1692625254.460475,0.000000,0.000000,0.000000,0.000000,0.000000,0.000000
1692625254.474893,,,,,,,,,,,,,,,,,,,,,,,,,,,,,,,,,,,,,,,,,,,78733.000000,1692625254.470407,0.000000,0.000000,0.000000,0.000000,0.000000,0.000000
1692625254.480177,1.892733,-0.332831,0.000763,49.187637,0.174687,-0.000153,0.038640,0.075999,-0.000046,0.024273,-10.721180,-0.014211,0.008091,7.223585,0.000653,2.406720,1.871415,-0.007927,-1.904000,-0.054727,-0.037999,0.028249,1.226727,0.002954,-1.623000,0.002272,0.002000,0.025760,0.000000,-0.000138,-1.511429,0.000002,0.000038,39833.000000,1692625254.472685,0.515200,-1.238761,0.000048,0.015771,-0.024769,0.000048,,,,,,,,,
1692625254.483403,,,,,,,,,,,,,,,,,,,,,,,,,,,,,,,,,,,,,,,,,,,78734.000000,1692625254.480474,0.000000,0.000000,0.000000,0.000000,0.000000,0.000000
1692625254.500431,,,,,,,,,,,,,,,,,,,,,,,,,,,,,,,,,,,,,,,,,,,78735.000000,1692625254.490484,0.000000,0.000000,0.000000,0.000000,0.000000,0.000000
1692625254.516931,,,,,,,,,,,,,,,,,,,,,,,,,,,,,,,,,,,,,,,,,,,78736.000000,1692625254.500651,0.000000,0.000000,0.000000,0.000000,0.000000,0.000000
1692625254.518235,0.744151,-0.332831,-0.000026,50.351841,0.174687,-0.000008,0.049680,0.075999,-0.000046,0.005394,-10.721021,0.018902,0.002697,7.223585,0.000653,2.671680,1.871426,0.000136,-1.911000,-0.055727,-0.028000,0.026612,1.226727,-0.002954,-1.621000,0.002272,0.006000,0.000000,0.000000,-0.000138,-1.623143,0.000002,0.000038,39834.000000,1692625254.502680,0.473143,-1.238761,0.000048,0.021029,-0.024769,0.000048,,,,,,,,,
1692625254.520272,,,,,,,,,,,,,,,,,,,,,,,,,,,,,,,,,,,,,,,,,,,78737.000000,1692625254.510232,0.000000,0.000000,0.000000,0.000000,0.000000,0.000000
1692625254.525356,,,,,,,,,,,,,,,,,,,,,,,,,,,,,,,,,,,,,,,,,,,78738.000000,1692625254.520478,0.000000,0.000000,0.000000,0.000000,0.000000,0.000000
1692625254.530084,0.873569,-0.332831,-0.000272,50.351841,0.174687,-0.000008,0.088320,0.075999,-0.000046,0.032364,-10.721140,-0.000811,0.008091,7.223585,0.000653,2.329440,1.871415,-0.008105,-1.911000,-0.054727,-0.030999,0.025795,1.226727,0.002954,-1.621000,0.002272,0.001000,-0.007360,0.000000,-0.000138,-1.531143,0.000002,0.000038,39835.000000,1692625254.512685,0.567771,-1.238761,0.000048,0.005257,-0.024769,0.000048,,,,,,,,,
1692625254.533976,,,,,,,,,,,,,,,,,,,,,,,,,,,,,,,,,,,,,,,,,,,78739.000000,1692625254.530476,0.000000,0.000000,0.000000,0.000000,0.000000,0.000000
1692625254.546199,,,,,,,,,,,,,,,,,,,,,,,,,,,,,,,,,,,,,,,,,,,78740.000000,1692625254.540466,0.000000,0.000000,0.000000,0.000000,0.000000,0.000000
1692625254.556007,0.307367,-0.332831,-0.000018,49.769739,0.174687,-0.000009,0.011040,0.075999,-0.000046,-0.110577,-10.721021,0.012687,0.008091,7.223585,0.000653,2.594400,1.871415,-0.005885,-1.909000,-0.051545,-0.008999,0.026612,1.225545,-0.002954,-1.613000,0.006454,0.000000,-0.005520,0.000000,-0.000138,-1.531143,0.000002,0.000038,39836.000000,1692625254.542678,0.588800,-1.238761,0.000048,0.021029,-0.024769,0.000048,,,,,,,,,
1692625254.556376,,,,,,,,,,,,,,,,,,,,,,,,,,,,,,,,,,,,,,,,,,,78741.000000,1692625254.550336,0.000000,0.000000,0.000000,0.000000,0.000000,0.000000
1692625254.568272,,,,,,,,,,,,,,,,,,,,,,,,,,,,,,,,,,,,,,,,,,,78742.000000,1692625254.560792,0.000000,0.000000,0.000000,0.000000,0.000000,0.000000
1692625254.572871,,,,,,,,,,,,,,,,,,,,,,,,,,,,,,,,,,,,,,,,,,0.000000,,,,,,,,
1692625254.575049,1.666252,-0.332831,-0.000018,50.351841,0.174687,-0.000008,-0.077280,0.075999,-0.000046,0.067425,-10.721160,-0.013360,0.016182,7.223585,0.001662,2.616480,1.871415,-0.005089,-1.907000,-0.051137,-0.013000,0.029070,1.226136,-0.002954,-1.605000,0.010863,0.039000,0.000000,0.000000,-0.000138,-1.583714,0.000002,0.000038,39837.000000,1692625254.562680,0.541486,-1.238761,0.000048,-0.005257,-0.024769,0.000048,,,,,,,,,
1692625254.580841,,,,,,,,,,,,,,,,,,,,,,,,,,,,,,,,,,,,,,,,,,,78743.000000,1692625254.570480,0.000000,0.000000,0.000000,0.000000,0.000000,0.000000
1692625254.594129,,,,,,,,,,,,,,,,,,,,,,,,,,,,,,,,,,,,,,,,,,,78744.000000,1692625254.580313,0.000000,0.000000,0.000000,0.000000,0.000000,0.000000
1692625254.595825,-0.048532,-0.332447,-0.000018,50.060790,0.174687,-0.000008,0.099360,0.075999,-0.000046,-0.010788,-10.721021,0.019535,0.010788,7.223585,0.000653,2.395680,1.871426,0.003979,-1.894000,-0.042136,0.041999,0.027432,1.226136,0.000000,-1.606000,0.008864,0.032000,-0.022080,0.000000,-0.000138,-1.550857,0.000002,0.000038,39838.000000,1692625254.582680,0.541486,-1.238761,0.000048,0.010514,-0.024769,0.000048,,,,,,,,,
1692625254.603537,,,,,,,,,,,,,,,,,,,,,,,,,,,,,,,,,,,,,,,,,,,78745.000000,1692625254.592136,0.000000,0.000000,0.000000,0.000000,0.000000,0.000000
1692625254.606189,0.905923,-0.332831,-0.000018,50.642892,0.174687,-0.000008,0.071760,0.075999,-0.000046,0.018879,-10.721140,-0.000910,0.010788,7.223585,0.000653,2.075520,1.871426,-0.002544,-1.894000,-0.042727,0.035000,0.024154,1.226727,0.000000,-1.606000,0.008273,0.026000,-0.007360,0.000000,-0.000138,-1.518000,0.000002,0.000038,39839.000000,1692625254.592684,0.615086,-1.238761,0.000048,-0.015771,-0.024769,0.000048,,,,,,,,,
1692625254.622883,,,,,,,,,,,,,,,,,,,,,,,,,,,,,,,,,,,,,,,,,,,78746.000000,1692625254.605564,0.000000,0.000000,0.000000,0.000000,0.000000,0.000000
1692625254.630636,0.275012,-0.332831,-0.000018,50.351841,0.174687,-0.000008,0.099360,0.075999,-0.000046,0.013485,-10.721101,-0.008253,0.010788,7.223585,0.000653,2.373600,1.871415,-0.002220,-1.896000,-0.043728,0.032999,0.027020,1.226727,0.002363,-1.608000,0.006273,0.014000,-0.012880,0.000000,-0.000138,-1.550857,0.000002,0.000038,39840.000000,1692625254.612681,0.530971,-1.238761,0.000048,-0.031543,-0.024769,0.000048,,,,,,,,,
1692625254.631589,,,,,,,,,,,,,,,,,,,,,,,,,,,,,,,,,,,,,,,,,,,78747.000000,1692625254.613909,0.000000,0.000000,0.000000,0.000000,0.000000,0.000000
1692625254.635812,,,,,,,,,,,,,,,,,,,,,,,,,,,,,,,,,,,,,,,,,,,78748.000000,1692625254.622684,0.000000,0.000000,0.000000,0.000000,0.000000,0.000000
1692625254.653232,,,,,,,,,,,,,,,,,,,,,,,,,,,,,,,,,,,,,,,,,,,78749.000000,1692625254.630306,0.000000,0.000000,0.000000,0.000000,0.000000,0.000000
1692625254.653248,0.970632,-0.332831,-0.000018,50.642892,0.174687,-0.000008,0.027600,0.075999,-0.000046,0.000000,-10.721041,0.017774,0.005394,7.223585,0.000910,2.572320,1.871426,0.000094,-1.891000,-0.041728,0.016000,0.029070,1.226727,0.002363,-1.608000,0.005272,0.008999,-0.014720,0.000000,-0.000138,-1.570571,0.000002,0.000038,39841.000000,1692625254.632684,0.578286,-1.238761,0.000048,-0.021029,-0.024769,0.000048,,,,,,,,,
1692625254.663810,,,,,,,,,,,,,,,,,,,,,,,,,,,,,,,,,,,,,,,,,,,78751.000000,1692625254.652719,0.000000,0.000000,0.000000,0.000000,0.000000,0.000000
1692625254.668918,0.258835,-0.332831,-0.001783,50.642892,0.174687,-0.000008,0.077280,0.075999,-0.000046,0.037758,-10.721120,-0.011381,0.008091,7.223585,0.000653,2.550240,1.871415,-0.008283,-1.891000,-0.042727,0.028999,0.027020,1.226727,0.002363,-1.613000,0.002272,-0.001000,0.003680,0.000000,-0.000138,-1.708571,0.000002,0.000038,39842.000000,1692625254.652683,0.515200,-1.238761,0.000048,-0.036800,-0.024769,0.000048,,,,,,,,,
1692625254.680631,,,,,,,,,,,,,,,,,,,,,,,,,,,,,,,,,,,,,,,,,,,78752.000000,1692625254.660866,0.000000,0.000000,0.000000,0.000000,0.000000,0.000000
1692625254.685151,,,,,,,,,,,,,,,,,,,,,,,,,,,,,,,,,,,,,,,,,,0.000000,,,,,,,,
1692625254.689259,0.291190,-0.332831,-0.000018,50.351841,0.174687,-0.000008,0.055200,0.075999,-0.000046,-0.008091,-10.721061,0.016586,0.008091,7.223585,0.000653,2.704800,1.871426,0.000146,-1.889000,-0.043909,0.027000,0.027841,1.227909,0.010636,-1.618000,-0.000910,-0.004999,0.007360,0.000000,-0.000138,-1.721714,0.000002,0.000038,39843.000000,1692625254.672687,0.541486,-1.238761,0.000048,0.073600,-0.024769,0.000048,,,,,,,,,
1692625254.690478,,,,,,,,,,,,,,,,,,,,,,,,,,,,,,,,,,,,,,,,,,,78754.000000,1692625254.680469,0.000000,0.000000,0.000000,0.000000,0.000000,0.000000
1692625254.700910,,,,,,,,,,,,,,,,,,,,,,,,,,,,,,,,,,,,,,,,,,,78755.000000,1692625254.690261,0.000000,0.000000,0.000000,0.000000,0.000000,0.000000
1692625254.713004,,,,,,,,,,,,,,,,,,,,,,,,,,,,,,,,,,,,,,,,,,,78756.000000,1692625254.700466,0.000000,0.000000,0.000000,0.000000,0.000000,0.000000
1692625254.714782,0.064709,-0.332831,-0.001631,50.351841,0.174687,-0.000008,0.104880,0.075999,-0.000046,-0.051243,-10.721061,0.000395,-0.002697,7.223565,-0.003602,2.782080,1.871426,0.001193,-1.889000,-0.045318,0.023000,0.027841,1.227318,0.007681,-1.618000,0.000682,-0.008999,-0.001840,0.000000,-0.000138,-1.518000,0.000002,0.000038,39844.000000,1692625254.702677,0.541486,-1.238761,0.000048,-0.047314,-0.024769,0.000048,,,,,,,,,
1692625254.737168,,,,,,,,,,,,,,,,,,,,,,,,,,,,,,,,,,,,,,,,,,,78757.000000,1692625254.726009,0.000000,0.000000,0.000000,0.000000,0.000000,0.000000
1692625254.738277,2.539821,-0.333215,0.000018,50.351841,0.174687,-0.000008,0.049680,0.075999,-0.000046,-0.005394,-10.721120,0.003543,-0.029667,7.223585,-0.000692,2.892480,1.871426,0.002178,-1.891000,-0.047319,-0.003000,0.025795,1.227318,0.004727,-1.618000,0.000682,-0.008999,-0.012880,0.000000,-0.000138,-1.656000,0.000002,0.000038,39845.000000,1692625254.722679,0.494171,-1.238761,0.000048,-0.031543,-0.024769,0.000048,,,,,,,,,
1692625254.738312,,,,,,,,,,,,,,,,,,,,,,,,,,,,,,,,,,,,,,,,,,,78758.000000,1692625254.728885,0.000000,0.000000,0.000000,0.000000,0.000000,0.000000
1692625254.738320,,,,,,,,,,,,,,,,,,,,,,,,,,,,,,,,,,,,,,,,,,,78759.000000,1692625254.730465,0.000000,0.000000,0.000000,0.000000,0.000000,0.000000
1692625254.750114,,,,,,,,,,,,,,,,,,,,,,,,,,,,,,,,,,,,,,,,,,,78760.000000,1692625254.740622,0.000000,0.000000,0.000000,0.000000,0.000000,0.000000
1692625254.755742,0.485316,-0.332831,-0.000034,50.642892,0.174687,-0.000008,0.121440,0.075999,-0.000046,0.064728,-10.721140,-0.011777,0.008091,7.223585,-0.001939,2.373600,1.871415,-0.010744,-1.891000,-0.047319,0.002000,0.029070,1.227318,0.004727,-1.618000,0.000682,-0.008999,-0.014720,0.000000,-0.000138,-1.590286,0.000002,0.000038,39846.000000,1692625254.732684,0.536229,-1.238761,0.000048,-0.047314,-0.024769,0.000048,,,,,,,,,
1692625254.760637,,,,,,,,,,,,,,,,,,,,,,,,,,,,,,,,,,,,,,,,,,,78761.000000,1692625254.750332,0.000000,0.000000,0.000000,0.000000,0.000000,0.000000
1692625254.771648,,,,,,,,,,,,,,,,,,,,,,,,,,,,,,,,,,,,,,,,,,,78762.000000,1692625254.760464,0.000000,0.000000,0.000000,0.000000,0.000000,0.000000
1692625254.774181,0.307367,-0.332831,0.000822,51.516046,0.174687,-0.000008,0.226320,0.075999,-0.000046,-0.010788,-10.721180,-0.011816,0.016182,7.223585,-0.001761,2.682720,1.871426,-0.000565,-1.891000,-0.048909,0.006000,0.026612,1.227909,0.007090,-1.616000,0.003090,0.001000,0.012880,0.000000,-0.000138,-1.564000,0.000002,0.000038,39847.000000,1692625254.762678,0.483657,-1.238761,0.000048,-0.057829,-0.024769,0.000048,,,,,,,,,
1692625254.778369,,,,,,,,,,,,,,,,,,,,,,,,,,,,,,,,,,,,,,,,,,,78763.000000,1692625254.770359,0.000000,0.000000,0.000000,0.000000,0.000000,0.000000
1692625254.788673,,,,,,,,,,,,,,,,,,,,,,,,,,,,,,,,,,,,,,,,,,0.000000,,,,,,,,
1692625254.789155,,,,,,,,,,,,,,,,,,,,,,,,,,,,,,,,,,,,,,,,,,,78764.000000,1692625254.780472,0.000000,0.000000,0.000000,0.000000,0.000000,0.000000
1692625254.791299,1.585366,-0.332831,-0.000407,51.224995,0.174687,-0.000008,0.165600,0.075999,-0.000046,-0.024273,-10.721081,-0.003404,0.024273,7.223585,-0.001088,2.671680,1.871426,-0.000366,-1.891000,-0.047500,-0.004000,0.030299,1.228499,0.009454,-1.618000,0.002500,-0.004999,-0.001840,0.000000,-0.000138,-1.485143,0.000002,0.000038,39848.000000,1692625254.782679,0.446857,-1.238761,0.000048,0.000000,-0.024769,0.000048,,,,,,,,,
1692625254.799128,,,,,,,,,,,,,,,,,,,,,,,,,,,,,,,,,,,,,,,,,,,78765.000000,1692625254.790509,0.000000,0.000000,0.000000,0.000000,0.000000,0.000000
1692625254.808596,,,,,,,,,,,,,,,,,,,,,,,,,,,,,,,,,,,,,,,,,,,78766.000000,1692625254.800364,0.000000,0.000000,0.000000,0.000000,0.000000,0.000000
1692625254.812296,0.630911,-0.332831,-0.000222,50.642892,0.174687,-0.000008,0.115920,0.075999,-0.000046,-0.043152,-10.721101,0.008530,0.000000,7.223585,-0.001820,2.815200,1.871426,0.001864,-1.894000,-0.050909,0.001000,0.024154,1.227909,0.006499,-1.613000,0.005091,0.014000,-0.003680,0.000000,-0.000138,-1.596857,0.000002,0.000038,39849.000000,1692625254.802680,0.504686,-1.238761,0.000048,-0.031543,-0.024769,0.000048,,,,,,,,,
1692625254.814457,,,,,,,,,,,,,,,,,,,,,,,,,,,,,,,,,,,,,,,,,,,78767.000000,1692625254.810627,0.000000,0.000000,0.000000,0.000000,0.000000,0.000000
1692625254.830638,,,,,,,,,,,,,,,,,,,,,,,,,,,,,,,,,,,,,,,,,,,78768.000000,1692625254.821132,0.000000,0.000000,0.000000,0.000000,0.000000,0.000000
1692625254.831910,2.297163,-0.333215,0.000345,50.642892,0.174687,-0.000008,0.016560,0.075999,-0.000046,-0.029667,-10.721041,0.005047,0.016182,7.223604,0.003562,2.517120,1.871436,0.005497,-1.898000,-0.052910,-0.014000,0.028661,1.227909,0.006499,-1.611000,0.006090,0.017999,0.025760,0.000000,-0.000138,-1.616571,0.000002,0.000038,39850.000000,1692625254.822690,0.520457,-1.238761,0.000048,-0.042057,-0.024769,0.000048,,,,,,,,,
1692625254.842114,,,,,,,,,,,,,,,,,,,,,,,,,,,,,,,,,,,,,,,,,,,78769.000000,1692625254.830328,0.000000,0.000000,0.000000,0.000000,0.000000,0.000000
1692625254.848878,,,,,,,,,,,,,,,,,,,,,,,,,,,,,,,,,,,,,,,,,,,78770.000000,1692625254.841514,0.000000,0.000000,0.000000,0.000000,0.000000,0.000000
1692625254.848889,0.727974,-0.332831,0.000080,50.933944,0.174687,-0.000008,0.143520,0.075999,-0.000046,0.045849,-10.721180,-0.014686,0.016182,7.223585,-0.002157,2.605440,1.871436,0.006503,-1.899000,-0.050954,-0.021999,0.024975,1.224954,-0.008272,-1.605000,0.010046,0.021999,-0.003680,0.000000,-0.000138,-1.748000,0.000002,0.000038,39851.000000,1692625254.842678,0.609829,-1.238761,0.000048,-0.031543,-0.024769,0.000048,,,,,,,,,
1692625254.856685,,,,,,,,,,,,,,,,,,,,,,,,,,,,,,,,,,,,,,,,,,,78771.000000,1692625254.850470,0.000000,0.000000,0.000000,0.000000,0.000000,0.000000
1692625254.867768,1.536834,-0.332831,-0.000018,50.933944,0.174687,-0.000008,0.115920,0.075999,-0.000046,0.029667,-10.721120,-0.012014,-0.002697,7.223585,-0.001642,3.036000,1.871426,0.002345,-1.901000,-0.052954,-0.025000,0.029478,1.224954,-0.008272,-1.603000,0.011045,0.020999,-0.005520,0.000000,-0.000138,-1.642857,0.000002,0.000038,39852.000000,1692625254.852686,0.525714,-1.238761,0.000048,-0.057829,-0.024769,0.000048,,,,,,,,,
1692625254.870921,,,,,,,,,,,,,,,,,,,,,,,,,,,,,,,,,,,,,,,,,,,78772.000000,1692625254.860764,0.000000,0.000000,0.000000,0.000000,0.000000,0.000000
1692625254.881900,,,,,,,,,,,,,,,,,,,,,,,,,,,,,,,,,,,,,,,,,,,78773.000000,1692625254.870266,0.000000,0.000000,0.000000,0.000000,0.000000,0.000000
1692625254.889192,,,,,,,,,,,,,,,,,,,,,,,,,,,,,,,,,,,,,,,,,,,78774.000000,1692625254.880520,0.000000,0.000000,0.000000,0.000000,0.000000,0.000000
1692625254.895174,,,,,,,,,,,,,,,,,,,,,,,,,,,,,,,,,,,,,,,,,,0.000000,,,,,,,,
1692625254.897051,0.258835,-0.332831,-0.000018,51.807097,0.174687,-0.000008,0.077280,0.075999,-0.000046,0.016182,-10.721140,-0.001702,-0.002697,7.223604,0.003107,2.428800,1.871415,-0.006209,-1.894000,-0.046955,-0.030999,0.026612,1.224954,-0.008272,-1.600000,0.009045,0.016000,-0.023920,0.000000,-0.000138,-1.656000,0.000002,0.000038,39853.000000,1692625254.882679,0.552000,-1.238761,0.000048,-0.026286,-0.024769,0.000048,,,,,,,,,
1692625254.897506,,,,,,,,,,,,,,,,,,,,,,,,,,,,,,,,,,,,,,,,,,,78775.000000,1692625254.890603,0.000000,0.000000,0.000000,0.000000,0.000000,0.000000
1692625254.911358,,,,,,,,,,,,,,,,,,,,,,,,,,,,,,,,,,,,,,,,,,,78776.000000,1692625254.901197,0.000000,0.000000,0.000000,0.000000,0.000000,0.000000
1692625254.911707,1.261822,-0.332831,-0.000139,51.807097,0.174687,-0.000008,0.016560,0.075999,-0.000046,0.062031,-10.721160,-0.013974,-0.013485,7.223604,0.003166,2.837280,1.871426,0.002471,-1.894000,-0.045954,0.000000,0.025795,1.224954,-0.008272,-1.600000,0.009045,0.010999,0.036800,0.000000,-0.000138,-1.537714,0.000002,0.000038,39854.000000,1692625254.892684,0.520457,-1.238761,0.000048,-0.015771,-0.024769,0.000048,,,,,,,,,
1692625254.917957,,,,,,,,,,,,,,,,,,,,,,,,,,,,,,,,,,,,,,,,,,,78777.000000,1692625254.914343,0.000000,0.000000,0.000000,0.000000,0.000000,0.000000
1692625254.923730,0.485316,-0.332831,0.001755,51.224995,0.174687,-0.000008,0.104880,0.075999,-0.000046,-0.021576,-10.721021,0.020624,0.024273,7.223585,-0.001009,2.561280,1.871426,0.000136,-1.894000,-0.046545,0.004999,0.028661,1.225545,-0.008272,-1.605000,0.005454,0.006000,0.027600,0.000000,-0.000138,-1.649429,0.000002,0.000038,39855.000000,1692625254.912684,0.641371,-1.238761,0.000048,-0.021029,-0.024769,0.000048,,,,,,,,,
1692625254.941983,0.469139,-0.332831,-0.000018,51.516046,0.174687,-0.000008,0.121440,0.075999,-0.000046,0.035061,-10.721101,-0.007046,0.016182,7.223585,-0.001979,2.616480,1.871426,0.000272,-1.896000,-0.048728,0.008999,0.027841,1.226727,-0.002363,-1.601000,0.007272,-0.004000,0.007360,0.000000,-0.000138,-1.524571,0.000002,0.000038,39856.000000,1692625254.932690,0.609829,-1.238761,0.000048,-0.036800,-0.024769,0.000048,,,,,,,,,
1692625254.949929,,,,,,,,,,,,,,,,,,,,,,,,,,,,,,,,,,,,,,,,,,,78778.000000,1692625254.943559,0.000000,0.000000,0.000000,0.000000,0.000000,0.000000
1692625254.960457,,,,,,,,,,,,,,,,,,,,,,,,,,,,,,,,,,,,,,,,,,,78779.000000,1692625254.945361,0.000000,0.000000,0.000000,0.000000,0.000000,0.000000
1692625254.964632,2.410403,-0.333215,0.001199,50.933944,0.174687,-0.000008,0.160080,0.075999,-0.000046,0.002697,-10.721140,0.000989,0.013485,7.223585,-0.001167,2.594400,1.871415,-0.001413,-1.889000,-0.043728,0.018999,0.027841,1.226727,0.002954,-1.600000,0.008273,0.014999,0.014720,0.000000,-0.000138,-1.570571,0.000002,0.000038,39857.000000,1692625254.952681,0.509943,-1.238761,0.000048,-0.005257,-0.024769,0.000048,,,,,,,,,
1692625254.971841,,,,,,,,,,,,,,,,,,,,,,,,,,,,,,,,,,,,,,,,,,,78780.000000,1692625254.955722,0.000000,0.000000,0.000000,0.000000,0.000000,0.000000
1692625254.982528,,,,,,,,,,,,,,,,,,,,,,,,,,,,,,,,,,,,,,,,,,,78782.000000,1692625254.975117,0.000000,0.000000,0.000000,0.000000,0.000000,0.000000
1692625254.985354,0.986809,-0.332831,-0.000018,51.516046,0.174687,-0.000008,0.099360,0.075999,-0.000046,0.016182,-10.721081,-0.004215,0.008091,7.223585,-0.002672,2.406720,1.871415,-0.002178,-1.889000,-0.045318,0.017000,0.023746,1.227318,0.002363,-1.600000,0.007682,0.014999,-0.001840,0.000000,-0.000138,-1.570571,0.000002,0.000038,39858.000000,1692625254.972682,0.483657,-1.238761,0.000048,-0.010514,-0.024769,0.000048,,,,,,,,,
1692625254.991504,,,,,,,,,,,,,,,,,,,,,,,,,,,,,,,,,,,,,,,,,,,78783.000000,1692625254.985106,0.000000,0.000000,0.000000,0.000000,0.000000,0.000000
1692625254.999270,,,,,,,,,,,,,,,,,,,,,,,,,,,,,,,,,,,,,,,,,,,78784.000000,1692625254.995263,0.000000,0.000000,0.000000,0.000000,0.000000,0.000000
1692625255.003265,,,,,,,,,,,,,,,,,,,,,,,,,,,,,,,,,,,,,,,,,,0.000000,,,,,,,,
1692625255.015558,,,,,,,,,,,,,,,,,,,,,,,,,,,,,,,,,,,,,,,,,,,78785.000000,1692625255.005102,0.000000,0.000000,0.000000,0.000000,0.000000,0.000000
1692625255.018924,0.420607,-0.332831,-0.001324,51.807097,0.174687,-0.000008,0.104880,0.075999,-0.000046,0.059334,-10.721160,-0.015557,-0.008091,7.223604,0.002731,2.406720,1.871415,-0.004817,-1.894000,-0.048909,-0.003000,0.029478,1.227909,0.004727,-1.603000,0.005091,-0.004999,0.001840,0.000000,-0.000138,-1.577143,0.000002,0.000038,39859.000000,1692625255.002679,0.509943,-1.238761,0.000048,0.057829,-0.024769,0.000048,,,,,,,,,
1692625255.026802,,,,,,,,,,,,,,,,,,,,,,,,,,,,,,,,,,,,,,,,,,,78786.000000,1692625255.015130,0.000000,0.000000,0.000000,0.000000,0.000000,0.000000
1692625255.031332,0.388253,-0.332831,0.000852,50.060790,0.174688,0.000062,0.171120,0.075999,-0.000046,0.000000,-10.721081,-0.003067,0.016182,7.223585,-0.001484,2.461920,1.871415,-0.008283,-1.894000,-0.048909,0.002000,0.027841,1.227909,0.004727,-1.605000,0.004090,0.004999,0.040480,0.000000,-0.000138,-1.708571,0.000002,0.000038,39860.000000,1692625255.012696,0.604571,-1.238761,0.000048,-0.063086,-0.024769,0.000048,,,,,,,,,
1692625255.047727,,,,,,,,,,,,,,,,,,,,,,,,,,,,,,,,,,,,,,,,,,,78787.000000,1692625255.025136,0.000000,0.000000,0.000000,0.000000,0.000000,0.000000
1692625255.049379,1.358885,-0.333215,0.001108,51.224995,0.174687,-0.000008,0.104880,0.075999,-0.000046,-0.013485,-10.721120,0.003463,0.002697,7.223585,-0.003206,2.594400,1.871426,0.000869,-1.894000,-0.047727,0.002000,0.028249,1.226727,0.004727,-1.613000,-0.000728,0.000000,-0.007360,0.000000,-0.000138,-1.524571,0.000002,0.000038,39861.000000,1692625255.032688,0.488914,-1.238761,0.000048,-0.068343,-0.024769,0.000048,,,,,,,,,
1692625255.052225,,,,,,,,,,,,,,,,,,,,,,,,,,,,,,,,,,,,,,,,,,,78789.000000,1692625255.045094,0.000000,0.000000,0.000000,0.000000,0.000000,0.000000
1692625255.069675,2.620707,-0.332831,-0.000327,51.516046,0.174687,-0.000008,0.182160,0.075999,-0.000046,0.013485,-10.721081,-0.005522,-0.002697,7.223585,-0.001128,2.252160,1.871436,0.003141,-1.894000,-0.047727,0.002000,0.028661,1.226727,-0.001181,-1.613000,0.000272,-0.028999,0.016560,0.000000,-0.000138,-1.734857,0.000002,0.000038,39862.000000,1692625255.052681,0.625600,-1.238761,0.000048,0.057829,-0.024769,0.000048,,,,,,,,,
1692625255.072569,,,,,,,,,,,,,,,,,,,,,,,,,,,,,,,,,,,,,,,,,,,78790.000000,1692625255.061510,0.000000,0.000000,0.000000,0.000000,0.000000,0.000000
1692625255.079639,,,,,,,,,,,,,,,,,,,,,,,,,,,,,,,,,,,,,,,,,,,78792.000000,1692625255.075093,0.000000,0.000000,0.000000,0.000000,0.000000,0.000000
1692625255.088754,,,,,,,,,,,,,,,,,,,,,,,,,,,,,,,,,,,,,,,,,,,78793.000000,1692625255.085090,0.000000,0.000000,0.000000,0.000000,0.000000,0.000000
1692625255.098384,1.116227,-0.332831,-0.000139,50.933944,0.174687,-0.000008,0.022080,0.075999,-0.000046,0.056637,-10.721160,-0.014844,0.013485,7.223585,-0.000989,2.417760,1.871436,0.003539,-1.902000,-0.052727,-0.012000,0.028249,1.226727,-0.001181,-1.616000,0.001273,-0.016000,0.003680,0.000000,-0.000138,-1.610000,-0.000003,-0.001322,39863.000000,1692625255.082687,0.546743,-1.238761,0.000048,-0.110400,-0.024769,0.000048,,,,,,,,,
1692625255.102947,,,,,,,,,,,,,,,,,,,,,,,,,,,,,,,,,,,,,,,,,,,78794.000000,1692625255.095119,0.000000,0.000000,0.000000,0.000000,0.000000,0.000000
1692625255.114419,,,,,,,,,,,,,,,,,,,,,,,,,,,,,,,,,,,,,,,,,,,78795.000000,1692625255.105145,0.000000,0.000000,0.000000,0.000000,0.000000,0.000000
1692625255.117610,,,,,,,,,,,,,,,,,,,,,,,,,,,,,,,,,,,,,,,,,,0.000000,,,,,,,,
1692625255.120386,2.410403,-0.333215,0.000325,51.224995,0.174687,-0.000008,0.138000,0.075999,-0.000046,-0.024273,-10.721021,0.018625,0.018879,7.223585,-0.001009,2.737920,1.871426,-0.000324,-1.904000,-0.052727,-0.019999,0.028249,1.226727,-0.001181,-1.613000,0.004272,-0.010999,0.016560,0.000000,-0.000138,-1.603429,-0.000003,-0.000038,39864.000000,1692625255.102684,0.515200,-1.238761,0.000048,-0.042057,-0.024769,0.000048,,,,,,,,,
1692625255.123762,,,,,,,,,,,,,,,,,,,,,,,,,,,,,,,,,,,,,,,,,,,78796.000000,1692625255.115158,0.000000,0.000000,0.000000,0.000000,0.000000,0.000000
