__time,/hsrb/joint_states/arm_flex_joint/effort,/hsrb/joint_states/arm_flex_joint/position,/hsrb/joint_states/arm_flex_joint/velocity,/hsrb/joint_states/arm_lift_joint/effort,/hsrb/joint_states/arm_lift_joint/position,/hsrb/joint_states/arm_lift_joint/velocity,/hsrb/joint_states/arm_roll_joint/effort,/hsrb/joint_states/arm_roll_joint/position,/hsrb/joint_states/arm_roll_joint/velocity,/hsrb/joint_states/base_l_drive_wheel_joint/effort,/hsrb/joint_states/base_l_drive_wheel_joint/position,/hsrb/joint_states/base_l_drive_wheel_joint/velocity,/hsrb/joint_states/base_r_drive_wheel_joint/effort,/hsrb/joint_states/base_r_drive_wheel_joint/position,/hsrb/joint_states/base_r_drive_wheel_joint/velocity,/hsrb/joint_states/base_roll_joint/effort,/hsrb/joint_states/base_roll_joint/position,/hsrb/joint_states/base_roll_joint/velocity,/hsrb/joint_states/hand_l_spring_proximal_joint/effort,/hsrb/joint_states/hand_l_spring_proximal_joint/position,/hsrb/joint_states/hand_l_spring_proximal_joint/velocity,/hsrb/joint_states/hand_motor_joint/effort,/hsrb/joint_states/hand_motor_joint/position,/hsrb/joint_states/hand_motor_joint/velocity,/hsrb/joint_states/hand_r_spring_proximal_joint/effort,/hsrb/joint_states/hand_r_spring_proximal_joint/position,/hsrb/joint_states/hand_r_spring_proximal_joint/velocity,/hsrb/joint_states/head_pan_joint/effort,/hsrb/joint_states/head_pan_joint/position,/hsrb/joint_states/head_pan_joint/velocity,/hsrb/joint_states/head_tilt_joint/effort,/hsrb/joint_states/head_tilt_joint/position,/hsrb/joint_states/head_tilt_joint/velocity,/hsrb/joint_states/header/seq,/hsrb/joint_states/header/stamp,/hsrb/joint_states/wrist_flex_joint/effort,/hsrb/joint_states/wrist_flex_joint/position,/hsrb/joint_states/wrist_flex_joint/velocity,/hsrb/joint_states/wrist_roll_joint/effort,/hsrb/joint_states/wrist_roll_joint/position,/hsrb/joint_states/wrist_roll_joint/velocity,/hsrb/pressure_sensor/data,/hsrb/wrist_wrench/compensated/header/seq,/hsrb/wrist_wrench/compensated/header/stamp,/hsrb/wrist_wrench/compensated/wrench/force/x,/hsrb/wrist_wrench/compensated/wrench/force/y,/hsrb/wrist_wrench/compensated/wrench/force/z,/hsrb/wrist_wrench/compensated/wrench/torque/x,/hsrb/wrist_wrench/compensated/wrench/torque/y,/hsrb/wrist_wrench/compensated/wrench/torque/z
1692618890.161558,,,,,,,,,,,,,,,,,,,,,,,,,,,,,,,,,,,,,,,,,,0.000000,,,,,,,,
1692618890.263457,,,,,,,,,,,,,,,,,,,,,,,,,,,,,,,,,,,,,,,,,,0.000000,,,,,,,,
1692618890.374866,,,,,,,,,,,,,,,,,,,,,,,,,,,,,,,,,,,,,,,,,,0.000000,,,,,,,,
1692618890.482379,,,,,,,,,,,,,,,,,,,,,,,,,,,,,,,,,,,,,,,,,,0.000000,,,,,,,,
1692618890.587945,,,,,,,,,,,,,,,,,,,,,,,,,,,,,,,,,,,,,,,,,,0.000000,,,,,,,,
1692618890.696504,,,,,,,,,,,,,,,,,,,,,,,,,,,,,,,,,,,,,,,,,,0.000000,,,,,,,,
1692618890.807603,,,,,,,,,,,,,,,,,,,,,,,,,,,,,,,,,,,,,,,,,,0.000000,,,,,,,,
1692618893.277610,0.727974,-0.417966,0.000018,68.979112,0.185715,0.000008,0.022080,-0.003042,-0.000046,0.037758,-2.371494,-0.006116,-0.018879,2.961651,0.000653,0.441600,-0.821453,0.007456,-1.924000,-0.054454,-0.019999,0.023746,1.231454,-0.009454,-1.611000,0.006546,0.004000,0.058880,0.000015,-0.000138,-1.570571,0.000002,-0.000038,7096.000000,1692618893.254943,0.956800,-1.153062,0.000048,-0.310171,0.001689,-0.000048,,,,,,,,,
1692618893.291972,1.553011,-0.417966,0.000175,70.434368,0.185714,-0.000008,-0.149040,-0.003042,-0.000046,-0.148335,-2.371356,0.020486,-0.013485,2.961651,0.000653,0.452640,-0.821463,-0.001916,-1.925000,-0.055000,-0.004000,0.020063,1.234999,-0.000590,-1.616000,0.002000,-0.001000,0.066240,0.000015,-0.000138,-1.432571,0.000002,-0.000038,7097.000000,1692618893.274943,0.867429,-1.153062,0.000048,-0.331200,0.001689,-0.000048,,,,,,,,,
1692618893.311623,,,,,,,,,,,,,,,,,,,,,,,,,,,,,,,,,,,,,,,,,,0.000000,,,,,,,,
1692618893.318375,2.086859,-0.417966,0.000018,70.434368,0.185714,-0.000008,-0.016560,-0.003042,-0.000046,0.056637,-2.371514,-0.005601,-0.016182,2.961651,0.000653,0.419520,-0.821453,0.001466,-1.922000,-0.052000,-0.004000,0.022109,1.234999,0.008272,-1.615000,0.004000,0.008999,0.084640,0.000015,-0.000138,-1.623143,0.000002,-0.000038,7098.000000,1692618893.294943,0.893714,-1.153062,0.000048,-0.299657,0.001689,-0.000048,,,,,,,,,
1692618893.331319,1.180936,-0.417582,0.000018,71.307521,0.185714,-0.000008,0.038640,-0.003042,-0.000046,0.091698,-2.371455,-0.005502,-0.018879,2.961651,0.000653,0.331200,-0.821453,0.001036,-1.919000,-0.050000,0.014999,0.024975,1.234999,0.008272,-1.616000,0.003001,0.008999,0.031280,0.000015,-0.000138,-1.550857,0.000002,-0.000038,7099.000000,1692618893.314941,0.893714,-1.153062,0.000048,-0.325943,0.001689,-0.000048,,,,,,,,,
1692618893.357806,0.808860,-0.417582,-0.000618,71.016470,0.185714,-0.000008,0.121440,-0.003042,-0.000046,0.045849,-2.371514,-0.002790,-0.005394,2.961651,0.000653,0.353280,-0.821453,0.000178,-1.921000,-0.050999,0.014000,0.022929,1.234999,0.008272,-1.623000,-0.001000,-0.001000,0.023920,0.000015,-0.000138,-1.537714,0.000002,-0.000038,7100.000000,1692618893.334944,0.893714,-1.153062,0.000048,-0.241829,0.001689,-0.000048,,,,,,,,,
1692618893.376624,1.213290,-0.417966,0.000028,71.016470,0.185714,-0.000008,0.060720,-0.003042,-0.000046,0.048546,-2.371475,-0.006373,-0.018879,2.961651,0.000653,0.099360,-0.821463,-0.009309,-1.919000,-0.049591,0.014000,0.022109,1.235590,0.008272,-1.626000,-0.003591,-0.004999,0.075440,0.000015,-0.000138,-1.590286,0.000002,-0.000038,7101.000000,1692618893.354953,0.898971,-1.153062,0.000048,-0.184000,0.001307,-0.000048,,,,,,,,,
1692618893.386945,1.294176,-0.417966,0.000519,70.143317,0.185714,-0.000008,0.126960,-0.003042,-0.000046,0.043152,-2.371494,-0.002256,-0.008091,2.961651,0.000653,0.529920,-0.821442,0.008775,-1.919000,-0.050591,0.023000,0.022109,1.235590,0.010636,-1.628000,-0.003591,-0.024000,0.092000,0.000015,-0.000138,-1.491714,0.000002,-0.000038,7102.000000,1692618893.364952,0.930514,-1.153062,0.000048,-0.525714,0.001689,-0.003173,,,,,,,,,
1692618893.407872,,,,,,,,,,,,,,,,,,,,,,,,,,,,,,,,,,,,,,,,,,0.000000,,,,,,,,
1692618893.410643,1.536834,-0.417582,-0.000115,72.180674,0.185714,-0.000008,0.126960,-0.003042,-0.000046,0.048546,-2.371475,-0.006116,-0.013485,2.961651,0.000653,0.485760,-0.821453,0.004063,-1.916000,-0.049591,0.014999,0.022517,1.235590,0.010636,-1.623000,0.001409,-0.002000,0.075440,0.000015,-0.000138,-1.518000,0.000002,-0.000038,7103.000000,1692618893.394939,0.893714,-1.153062,0.000048,-0.346971,0.001689,-0.000048,,,,,,,,,
1692618893.429264,0.420607,-0.417966,0.001193,71.307521,0.185714,-0.000008,0.088320,-0.003042,-0.000046,-0.062031,-2.371356,0.027750,-0.010788,2.961651,0.000653,0.375360,-0.821453,0.001277,-1.917000,-0.052000,0.014000,0.020471,1.234999,0.007681,-1.621000,0.002000,0.003000,0.031280,0.000015,-0.000138,-1.504857,0.000002,-0.000038,7104.000000,1692618893.414940,0.814857,-1.153062,0.000048,-0.126171,0.001307,-0.000048,,,,,,,,,
1692618893.451620,2.507466,-0.417966,0.000018,71.889623,0.185714,-0.000008,0.060720,-0.003042,-0.000046,0.051243,-2.371494,-0.002553,-0.013485,2.961651,0.000653,0.309120,-0.821442,0.003277,-1.917000,-0.052409,0.004000,0.022109,1.234409,0.004727,-1.618000,0.003591,0.007000,0.097520,0.000015,-0.000138,-1.465429,0.000002,-0.000038,7105.000000,1692618893.434941,0.935771,-1.153062,0.000048,-0.157714,0.001689,-0.000048,,,,,,,,,
1692618893.475870,1.116227,-0.417582,0.000214,72.762777,0.185714,-0.000008,0.082800,-0.003042,-0.000046,-0.048546,-2.371395,0.003562,-0.018879,2.961651,0.000653,0.452640,-0.821453,0.003926,-1.917000,-0.052409,-0.009999,0.024154,1.234409,0.004727,-1.618000,0.003591,0.007000,0.101200,0.000015,-0.000138,-1.564000,0.000002,-0.000038,7106.000000,1692618893.454938,0.988343,-1.153062,0.000048,-0.352229,0.001689,-0.002571,,,,,,,,,
1692618893.485333,2.264808,-0.417966,0.000018,71.598572,0.185714,-0.000008,-0.022080,-0.003042,-0.000046,0.048546,-2.371475,-0.005740,-0.016182,2.961651,0.000653,0.419520,-0.821453,0.000188,-1.917000,-0.051818,0.000000,0.025795,1.233818,0.004727,-1.616000,0.005181,0.007000,0.141680,0.000015,-0.000138,-1.491714,0.000002,-0.000038,7107.000000,1692618893.464950,0.883200,-1.153062,0.000048,-0.320686,0.001689,-0.000048,,,,,,,,,
1692618893.505270,1.407417,-0.417582,-0.000767,72.471725,0.185714,-0.000008,0.110400,-0.003042,-0.000046,-0.178002,-2.371514,0.000554,-0.026970,2.961651,0.000653,0.596160,-0.821453,0.003110,-1.914000,-0.049818,0.000000,0.022109,1.233818,0.001772,-1.613000,0.006182,0.014999,0.121440,0.000015,-0.000138,-1.485143,0.000002,-0.000038,7108.000000,1692618893.484945,0.820114,-1.153062,0.000048,-0.352229,0.001689,-0.000048,,,,,,,,,
1692618893.520069,,,,,,,,,,,,,,,,,,,,,,,,,,,,,,,,,,,,,,,,,,0.000000,,,,,,,,
1692618893.527453,2.183922,-0.417966,0.000026,72.180674,0.185714,-0.000008,0.138000,-0.003042,-0.000046,0.080910,-2.371494,-0.005700,-0.016182,2.961651,0.000653,0.607200,-0.821463,-0.002293,-1.912000,-0.049046,-0.001000,0.025383,1.232045,0.001772,-1.608000,0.007955,0.009999,0.060720,0.000015,-0.000138,-1.577143,0.000002,-0.000038,7109.000000,1692618893.504945,0.877943,-1.153062,0.000048,-0.136686,0.001307,-0.000450,,,,,,,,,
1692618893.543895,2.426580,-0.417966,0.000032,72.762777,0.185714,-0.000008,0.088320,-0.003042,-0.000046,-0.002697,-2.371415,-0.001167,-0.016182,2.961651,0.000653,0.485760,-0.821463,-0.003560,-1.912000,-0.048636,0.013000,0.023746,1.232636,-0.004136,-1.610000,0.006363,0.014000,0.038640,0.000015,-0.000138,-1.537714,0.000002,-0.000038,7110.000000,1692618893.524950,0.825371,-1.153062,0.000048,-0.431086,0.001689,-0.000048,,,,,,,,,
1692618893.570373,0.905923,-0.417966,0.001074,73.344879,0.185714,-0.000008,0.077280,-0.003042,-0.000046,0.013485,-2.371494,-0.000791,-0.013485,2.961651,0.000653,0.507840,-0.821453,0.001644,-1.916000,-0.051227,0.003000,0.022517,1.233227,-0.004136,-1.608000,0.006773,0.013000,0.071760,0.000015,-0.000138,-1.472000,0.000002,-0.000038,7111.000000,1692618893.544944,0.883200,-1.153062,0.000048,-0.394286,0.001689,-0.000048,,,,,,,,,
1692618893.593561,2.264808,-0.417966,0.000020,73.344879,0.185714,-0.000008,0.027600,-0.003042,-0.000046,0.037758,-2.371475,-0.002256,-0.016182,2.961651,0.000653,0.397440,-0.821442,0.001382,-1.901000,-0.043227,0.035999,0.022929,1.233227,-0.003545,-1.610000,0.003772,0.003000,0.016560,0.000015,-0.000138,-1.557429,0.000002,-0.000038,7112.000000,1692618893.574943,0.877943,-1.153062,0.000048,-0.141943,0.000921,-0.000048,,,,,,,,,
1692618893.596122,,,,,,,,,,,,,,,,,,,,,,,,,,,,,,,,,,,,,,,,,,,13467.000000,1692618893.589360,0.000000,0.000000,0.000000,0.000000,0.000000,0.000000
1692618893.598381,1.779492,-0.417966,0.000127,73.635930,0.185714,-0.000008,0.088320,-0.003042,-0.000046,0.062031,-2.371514,-0.003859,-0.016182,2.961651,0.000653,0.618240,-0.821442,0.004429,-1.901000,-0.044227,0.035000,0.021700,1.233227,-0.000590,-1.608000,0.005772,-0.002000,0.033120,0.000015,-0.000138,-1.544286,0.000002,-0.000038,7113.000000,1692618893.584950,0.841143,-1.153062,0.000048,-0.099886,0.000921,-0.000048,,,,,,,,,
1692618893.602598,,,,,,,,,,,,,,,,,,,,,,,,,,,,,,,,,,,,,,,,,,,13468.000000,1692618893.594914,0.000000,0.000000,0.000000,0.000000,0.000000,0.000000
1692618893.609480,,,,,,,,,,,,,,,,,,,,,,,,,,,,,,,,,,,,,,,,,,,13469.000000,1692618893.604932,0.000000,0.000000,0.000000,0.000000,0.000000,0.000000
1692618893.621331,,,,,,,,,,,,,,,,,,,,,,,,,,,,,,,,,,,,,,,,,,,13470.000000,1692618893.614907,0.000000,0.000000,0.000000,0.000000,0.000000,0.000000
1692618893.623926,,,,,,,,,,,,,,,,,,,,,,,,,,,,,,,,,,,,,,,,,,0.000000,,,,,,,,
1692618893.625884,1.553011,-0.417966,0.000022,73.635930,0.185714,-0.000008,0.088320,-0.003042,-0.000046,0.035061,-2.371475,-0.001524,-0.008091,2.961651,0.000653,0.739680,-0.821442,0.006283,-1.906000,-0.049227,0.013000,0.023746,1.233227,-0.000590,-1.603000,0.008772,0.026000,0.053360,0.000015,-0.000138,-1.498286,0.000002,-0.000038,7114.000000,1692618893.614937,0.814857,-1.153062,0.000048,-0.210286,0.001307,-0.000048,,,,,,,,,
1692618893.640733,,,,,,,,,,,,,,,,,,,,,,,,,,,,,,,,,,,,,,,,,,,13471.000000,1692618893.625037,0.000000,0.000000,0.000000,0.000000,0.000000,0.000000
1692618893.648309,2.539821,-0.417966,0.000066,73.635930,0.185714,-0.000008,0.132480,-0.003042,-0.000046,0.045849,-2.371514,-0.003444,-0.016182,2.961651,0.000653,0.684480,-0.821442,0.010377,-1.906000,-0.049227,0.003000,0.022929,1.233227,-0.000590,-1.603000,0.008772,0.019999,0.038640,0.000015,-0.000138,-1.445714,0.000002,-0.000038,7115.000000,1692618893.624945,0.851657,-1.153062,0.000048,-0.515200,0.001689,-0.009894,,,,,,,,,
1692618893.654810,,,,,,,,,,,,,,,,,,,,,,,,,,,,,,,,,,,,,,,,,,,13472.000000,1692618893.635029,0.000000,0.000000,0.000000,0.000000,0.000000,0.000000
1692618893.657816,,,,,,,,,,,,,,,,,,,,,,,,,,,,,,,,,,,,,,,,,,,13473.000000,1692618893.645149,0.000000,0.000000,0.000000,0.000000,0.000000,0.000000
1692618893.671541,,,,,,,,,,,,,,,,,,,,,,,,,,,,,,,,,,,,,,,,,,,13474.000000,1692618893.654819,0.000000,0.000000,0.000000,0.000000,0.000000,0.000000
1692618893.675186,2.280986,-0.417966,0.000018,72.762777,0.185715,0.000008,0.121440,-0.003042,-0.000046,0.048546,-2.371494,-0.004671,-0.016182,2.961651,0.000653,0.706560,-0.821463,-0.003424,-1.909000,-0.052409,-0.002000,0.020471,1.234409,0.005318,-1.600000,0.007590,0.017000,0.093840,0.000015,-0.000138,-1.518000,0.000002,-0.000038,7116.000000,1692618893.654940,0.909486,-1.153062,0.000048,-0.184000,0.001307,-0.000048,,,,,,,,,
1692618893.677596,,,,,,,,,,,,,,,,,,,,,,,,,,,,,,,,,,,,,,,,,,,13475.000000,1692618893.664957,0.000000,0.000000,0.000000,0.000000,0.000000,0.000000
1692618893.677775,,,,,,,,,,,,,,,,,,,,,,,,,,,,,,,,,,,,,,,,,,,13476.000000,1692618893.675197,0.000000,0.000000,0.000000,0.000000,0.000000,0.000000
1692618893.679658,1.277999,-0.417582,-0.000163,72.762777,0.185715,0.000008,0.060720,-0.003042,-0.000046,-0.086304,-2.371395,0.021099,-0.010788,2.961651,0.000653,0.872160,-0.821453,0.002377,-1.906000,-0.048410,0.004000,0.022929,1.234409,0.005318,-1.593000,0.011591,0.020999,0.034960,0.000015,-0.000138,-1.610000,0.000002,-0.000038,7117.000000,1692618893.674940,0.793829,-1.153062,0.000048,-0.099886,0.000921,-0.000048,,,,,,,,,
1692618893.692570,,,,,,,,,,,,,,,,,,,,,,,,,,,,,,,,,,,,,,,,,,,13477.000000,1692618893.684993,0.000000,0.000000,0.000000,0.000000,0.000000,0.000000
1692618893.704612,,,,,,,,,,,,,,,,,,,,,,,,,,,,,,,,,,,,,,,,,,,13478.000000,1692618893.694969,0.000000,0.000000,0.000000,0.000000,0.000000,0.000000
1692618893.710963,1.229467,-0.417966,0.000254,71.889623,0.185715,0.000008,0.093840,-0.003042,-0.000046,0.008091,-2.371494,-0.005146,-0.010788,2.961651,0.000653,0.253920,-0.821463,-0.007770,-1.914000,-0.054000,0.013000,0.022929,1.234999,0.002363,-1.598000,0.008001,0.023000,0.025760,0.000015,-0.000138,-1.432571,0.000002,-0.000038,7118.000000,1692618893.694938,0.898971,-1.153062,0.000048,-0.220800,0.000921,-0.000048,,,,,,,,,
1692618893.715672,,,,,,,,,,,,,,,,,,,,,,,,,,,,,,,,,,,,,,,,,,,13479.000000,1692618893.704912,0.000000,0.000000,0.000000,0.000000,0.000000,0.000000
1692618893.731508,,,,,,,,,,,,,,,,,,,,,,,,,,,,,,,,,,,,,,,,,,,13480.000000,1692618893.715180,0.000000,0.000000,0.000000,0.000000,0.000000,0.000000
1692618893.733054,2.555998,-0.417966,0.001324,71.307521,0.185714,-0.000401,0.187680,-0.003042,-0.000046,-0.064728,-2.371415,-0.001741,-0.013485,2.961651,0.000653,0.353280,-0.821463,-0.000094,-1.917000,-0.055591,-0.012000,0.024566,1.235590,0.007681,-1.597000,0.007410,0.017000,0.055200,0.000015,-0.000138,-1.544286,0.000002,-0.000038,7119.000000,1692618893.714940,0.946286,-1.153062,0.000048,-0.220800,0.000921,-0.000048,,,,,,,,,
1692618893.736238,,,,,,,,,,,,,,,,,,,,,,,,,,,,,,,,,,,,,,,,,,0.000000,,,,,,,,
1692618893.743612,,,,,,,,,,,,,,,,,,,,,,,,,,,,,,,,,,,,,,,,,,,13481.000000,1692618893.724779,0.000000,0.000000,0.000000,0.000000,0.000000,0.000000
1692618893.750902,,,,,,,,,,,,,,,,,,,,,,,,,,,,,,,,,,,,,,,,,,,13482.000000,1692618893.735043,0.000000,0.000000,0.000000,0.000000,0.000000,0.000000
1692618893.752800,2.232454,-0.417966,0.000018,72.180674,0.185714,-0.000304,0.060720,-0.003042,-0.000046,0.032364,-2.371514,-0.006413,-0.010788,2.961651,0.000653,0.662400,-0.821463,-0.001665,-1.921000,-0.056590,-0.019999,0.024566,1.235590,0.012409,-1.605000,0.001409,-0.013000,0.044160,0.000015,-0.000138,-1.544286,0.000002,-0.000038,7120.000000,1692618893.734946,0.783314,-1.153062,0.000048,-0.099886,0.000921,-0.000048,,,,,,,,,
1692618893.758981,,,,,,,,,,,,,,,,,,,,,,,,,,,,,,,,,,,,,,,,,,,13483.000000,1692618893.744934,0.000000,0.000000,0.000000,0.000000,0.000000,0.000000
1692618893.773559,,,,,,,,,,,,,,,,,,,,,,,,,,,,,,,,,,,,,,,,,,,13484.000000,1692618893.755167,0.000000,0.000000,0.000000,0.000000,0.000000,0.000000
1692618893.780600,2.329517,-0.417966,0.000018,70.725419,0.185715,0.000008,0.104880,-0.003042,-0.000046,0.091698,-2.371475,-0.005601,-0.013485,2.961651,0.000653,0.353280,-0.821463,-0.004900,-1.919000,-0.054000,-0.014000,0.022517,1.234999,0.008863,-1.601000,0.006001,-0.003000,0.042320,0.000015,-0.000138,-1.412857,0.000002,-0.000038,7121.000000,1692618893.754945,0.678171,-1.153062,0.000048,-0.226057,0.001307,-0.000048,,,,,,,,,
1692618893.786473,,,,,,,,,,,,,,,,,,,,,,,,,,,,,,,,,,,,,,,,,,,13485.000000,1692618893.765495,0.000000,0.000000,0.000000,0.000000,0.000000,0.000000
1692618893.794244,2.119214,-0.417966,0.000575,70.725419,0.185715,0.000008,0.126960,-0.003042,-0.000046,0.043152,-2.371494,-0.003127,-0.021576,2.961651,0.000653,0.430560,-0.821453,0.006042,-1.919000,-0.053410,-0.008999,0.023337,1.234409,0.005909,-1.600000,0.007590,0.007000,0.055200,0.000015,-0.000138,-1.498286,0.000002,-0.000038,7122.000000,1692618893.764944,0.925257,-1.153062,0.000048,-0.236571,0.001307,-0.000048,,,,,,,,,
1692618893.797038,,,,,,,,,,,,,,,,,,,,,,,,,,,,,,,,,,,,,,,,,,,13486.000000,1692618893.778815,0.000000,0.000000,0.000000,0.000000,0.000000,0.000000
1692618893.803630,,,,,,,,,,,,,,,,,,,,,,,,,,,,,,,,,,,,,,,,,,,13487.000000,1692618893.785143,0.000000,0.000000,0.000000,0.000000,0.000000,0.000000
1692618893.803644,2.410403,-0.417966,0.000121,69.852265,0.185715,0.000008,0.253920,-0.003042,-0.000046,-0.113274,-2.371376,0.009876,-0.021576,2.961651,0.000653,0.342240,-0.821463,-0.006702,-1.917000,-0.051818,-0.004000,0.022109,1.233818,0.000000,-1.600000,0.006182,0.006000,0.103040,0.000015,-0.000138,-1.445714,0.000002,-0.000038,7123.000000,1692618893.784944,0.757029,-1.153062,0.000048,-0.131429,0.001307,-0.000048,,,,,,,,,
1692618893.805079,,,,,,,,,,,,,,,,,,,,,,,,,,,,,,,,,,,,,,,,,,,13488.000000,1692618893.794817,0.000000,0.000000,0.000000,0.000000,0.000000,0.000000
1692618893.817142,,,,,,,,,,,,,,,,,,,,,,,,,,,,,,,,,,,,,,,,,,,13489.000000,1692618893.808261,0.000000,0.000000,0.000000,0.000000,0.000000,0.000000
1692618893.817154,2.280986,-0.417966,0.000090,70.143317,0.185715,0.000008,0.132480,-0.003042,-0.000046,0.021576,-2.371494,-0.001682,-0.013485,2.961651,0.000653,0.364320,-0.821453,0.000188,-1.917000,-0.051818,-0.004000,0.024975,1.233818,0.000000,-1.605000,0.004182,-0.004000,0.031280,0.000015,-0.000138,-1.544286,0.000002,-0.000038,7124.000000,1692618893.804944,0.925257,-1.153062,0.000048,-0.168229,0.000921,-0.000048,,,,,,,,,
1692618893.825467,,,,,,,,,,,,,,,,,,,,,,,,,,,,,,,,,,,,,,,,,,,13490.000000,1692618893.815552,0.000000,0.000000,0.000000,0.000000,0.000000,0.000000
1692618893.838666,,,,,,,,,,,,,,,,,,,,,,,,,,,,,,,,,,,,,,,,,,,13491.000000,1692618893.824972,0.000000,0.000000,0.000000,0.000000,0.000000,0.000000
1692618893.841177,2.086859,-0.417966,0.000018,69.561214,0.185715,0.000008,0.209760,-0.003042,-0.000046,0.056637,-2.371455,-0.009144,-0.010788,2.961651,0.000653,0.441600,-0.821453,0.000795,-1.914000,-0.050819,-0.004000,0.020471,1.233818,-0.005909,-1.605000,0.003181,-0.017000,0.057040,0.000015,-0.000138,-1.412857,0.000002,-0.000038,7125.000000,1692618893.824945,0.757029,-1.153062,0.000048,-0.194514,0.001307,-0.000048,,,,,,,,,
1692618893.847071,,,,,,,,,,,,,,,,,,,,,,,,,,,,,,,,,,,,,,,,,,0.000000,,,,,,,,
1692618893.850710,,,,,,,,,,,,,,,,,,,,,,,,,,,,,,,,,,,,,,,,,,,13492.000000,1692618893.836097,0.000000,0.000000,0.000000,0.000000,0.000000,0.000000
1692618893.860028,1.002987,-0.417582,0.000034,69.270163,0.185715,0.000008,0.226320,-0.003042,-0.000046,0.018879,-2.371494,0.000494,-0.013485,2.961651,0.000653,0.320160,-0.821463,-0.000764,-1.911000,-0.048819,0.001000,0.024154,1.233818,0.000000,-1.603000,0.004182,-0.020999,0.101200,0.000015,-0.000138,-1.511429,0.000002,-0.000038,7126.000000,1692618893.844947,0.820114,-1.153062,0.000048,-0.252343,0.001307,-0.000048,,,,,,,,,
1692618893.865123,,,,,,,,,,,,,,,,,,,,,,,,,,,,,,,,,,,,,,,,,,,13493.000000,1692618893.845706,0.000000,0.000000,0.000000,0.000000,0.000000,0.000000
1692618893.876290,,,,,,,,,,,,,,,,,,,,,,,,,,,,,,,,,,,,,,,,,,,13495.000000,1692618893.865017,0.000000,0.000000,0.000000,0.000000,0.000000,0.000000
1692618893.879524,2.750124,-0.417966,-0.000638,68.688061,0.185715,0.000008,0.104880,-0.003042,-0.000046,0.080910,-2.371455,-0.005166,-0.016182,2.961651,0.000653,0.518880,-0.821453,0.002261,-1.898000,-0.038636,0.009999,0.026204,1.232636,0.000000,-1.600000,0.007364,0.000000,0.080960,0.000015,-0.000138,-1.531143,0.000002,-0.000038,7127.000000,1692618893.864943,0.809600,-1.153062,0.000048,-0.115657,0.001307,-0.000048,,,,,,,,,
1692618893.889881,,,,,,,,,,,,,,,,,,,,,,,,,,,,,,,,,,,,,,,,,,,13496.000000,1692618893.878898,0.000000,0.000000,0.000000,0.000000,0.000000,0.000000
1692618893.909977,,,,,,,,,,,,,,,,,,,,,,,,,,,,,,,,,,,,,,,,,,,13497.000000,1692618893.885155,0.000000,0.000000,0.000000,0.000000,0.000000,0.000000
1692618893.916447,1.698606,-0.417966,0.000026,67.523857,0.185715,0.000008,0.099360,-0.003042,-0.000046,-0.172608,-2.371336,0.021436,-0.008091,2.961651,0.000653,0.408480,-0.821463,-0.002890,-1.906000,-0.048636,0.010999,0.023746,1.232636,-0.005909,-1.598000,0.009363,0.014000,0.033120,0.000015,-0.000138,-1.406286,0.000006,0.000077,7128.000000,1692618893.894941,0.720229,-1.153062,0.000048,-0.115657,0.001307,-0.000048,,,,,,,,,
1692618893.916468,,,,,,,,,,,,,,,,,,,,,,,,,,,,,,,,,,,,,,,,,,,13498.000000,1692618893.896183,0.000000,0.000000,0.000000,0.000000,0.000000,0.000000
1692618893.924012,,,,,,,,,,,,,,,,,,,,,,,,,,,,,,,,,,,,,,,,,,,13499.000000,1692618893.904851,0.000000,0.000000,0.000000,0.000000,0.000000,0.000000
1692618893.930187,,,,,,,,,,,,,,,,,,,,,,,,,,,,,,,,,,,,,,,,,,,13500.000000,1692618893.916140,0.000000,0.000000,0.000000,0.000000,0.000000,0.000000
1692618893.931926,3.154555,-0.417966,0.000018,67.814908,0.185715,0.000008,0.138000,-0.003042,-0.000046,0.037758,-2.371494,-0.002038,-0.016182,2.961651,0.000653,0.353280,-0.821453,0.000167,-1.907000,-0.049227,-0.004000,0.024154,1.233227,-0.005909,-1.595000,0.010772,0.014000,0.009200,0.000015,-0.000138,-1.458857,0.000006,0.000038,7129.000000,1692618893.914945,0.783314,-1.153062,0.000048,-0.105143,0.001307,-0.000048,,,,,,,,,
1692618893.935354,,,,,,,,,,,,,,,,,,,,,,,,,,,,,,,,,,,,,,,,,,,13501.000000,1692618893.925022,0.000000,0.000000,0.000000,0.000000,0.000000,0.000000
1692618893.950173,,,,,,,,,,,,,,,,,,,,,,,,,,,,,,,,,,,,,,,,,,,13502.000000,1692618893.934929,0.000000,0.000000,0.000000,0.000000,0.000000,0.000000
1692618893.951578,,,,,,,,,,,,,,,,,,,,,,,,,,,,,,,,,,,,,,,,,,0.000000,,,,,,,,
1692618893.958095,2.442758,-0.417966,0.000018,68.688061,0.185714,-0.000008,0.215280,-0.003042,-0.000046,0.078213,-2.371435,-0.003839,-0.010788,2.961651,0.000653,0.342240,-0.821463,-0.008052,-1.906000,-0.048636,0.001000,0.024566,1.232636,-0.005318,-1.598000,0.006363,0.007000,0.084640,0.000015,-0.000138,-1.498286,0.000006,0.000038,7130.000000,1692618893.934944,0.862171,-1.153062,0.000048,-0.136686,0.001307,-0.000048,,,,,,,,,
1692618893.960335,,,,,,,,,,,,,,,,,,,,,,,,,,,,,,,,,,,,,,,,,,,13503.000000,1692618893.944858,0.000000,0.000000,0.000000,0.000000,0.000000,0.000000
1692618893.967664,1.617720,-0.417966,-0.000830,68.105959,0.185714,-0.000008,0.143520,-0.003042,-0.000046,0.075516,-2.371494,-0.005403,-0.018879,2.961651,0.000653,0.496800,-0.821442,0.009110,-1.906000,-0.049637,0.001000,0.025383,1.232636,-0.005318,-1.600000,0.005364,-0.003000,0.077280,0.000015,-0.000138,-1.485143,0.000006,0.000038,7131.000000,1692618893.944949,0.835886,-1.153062,0.000048,-0.099886,0.001307,-0.000048,,,,,,,,,
1692618893.967719,,,,,,,,,,,,,,,,,,,,,,,,,,,,,,,,,,,,,,,,,,,13504.000000,1692618893.955153,0.000000,0.000000,0.000000,0.000000,0.000000,0.000000
1692618893.983043,,,,,,,,,,,,,,,,,,,,,,,,,,,,,,,,,,,,,,,,,,,13505.000000,1692618893.964917,0.000000,0.000000,0.000000,0.000000,0.000000,0.000000
1692618893.991647,,,,,,,,,,,,,,,,,,,,,,,,,,,,,,,,,,,,,,,,,,,13506.000000,1692618893.974926,0.000000,0.000000,0.000000,0.000000,0.000000,0.000000
1692618893.994166,1.892733,-0.417966,0.001062,67.814908,0.185714,-0.000008,0.171120,-0.003037,0.003277,0.072819,-2.371455,-0.008550,-0.010788,2.961651,0.000653,0.386400,-0.821453,0.000157,-1.906000,-0.050228,0.001000,0.023337,1.233227,-0.005318,-1.598000,0.005772,-0.001000,0.066240,0.000015,-0.000138,-1.544286,0.000006,0.000038,7132.000000,1692618893.974940,0.862171,-1.153062,0.000048,-0.178743,0.000921,-0.000048,,,,,,,,,
1692618894.005652,,,,,,,,,,,,,,,,,,,,,,,,,,,,,,,,,,,,,,,,,,,13507.000000,1692618893.986600,0.000000,0.000000,0.000000,0.000000,0.000000,0.000000
1692618894.005918,,,,,,,,,,,,,,,,,,,,,,,,,,,,,,,,,,,,,,,,,,,13508.000000,1692618893.995153,0.000000,0.000000,0.000000,0.000000,0.000000,0.000000
1692618894.005925,1.633897,-0.417582,-0.000074,68.688061,0.185714,-0.000008,0.149040,-0.003037,0.000046,0.032364,-2.371494,-0.007462,-0.013485,2.961651,0.000653,0.474720,-0.821453,0.000764,-1.904000,-0.049227,-0.004000,0.022109,1.233227,-0.002363,-1.597000,0.006773,-0.001000,0.062560,0.000015,-0.000138,-1.472000,0.000006,0.000038,7133.000000,1692618893.984944,0.767543,-1.153062,0.000048,-0.168229,0.001307,-0.000048,,,,,,,,,
1692618894.014414,,,,,,,,,,,,,,,,,,,,,,,,,,,,,,,,,,,,,,,,,,,13509.000000,1692618894.004952,0.000000,0.000000,0.000000,0.000000,0.000000,0.000000
1692618894.027591,,,,,,,,,,,,,,,,,,,,,,,,,,,,,,,,,,,,,,,,,,,13510.000000,1692618894.014888,0.000000,0.000000,0.000000,0.000000,0.000000,0.000000
1692618894.028152,1.569189,-0.417582,0.000018,69.270163,0.185714,-0.000008,0.220800,-0.003037,0.000046,0.072819,-2.371455,-0.007363,-0.016182,2.961651,0.000653,0.375360,-0.821453,0.000272,-1.909000,-0.051818,-0.014000,0.023746,1.233818,0.000590,-1.606000,-0.000818,-0.001000,0.051520,0.000015,-0.000138,-1.426000,0.000006,0.000038,7134.000000,1692618894.014942,0.693943,-1.153062,0.000048,-0.141943,0.001307,-0.000048,,,,,,,,,
1692618894.035805,,,,,,,,,,,,,,,,,,,,,,,,,,,,,,,,,,,,,,,,,,,13511.000000,1692618894.025157,0.000000,0.000000,0.000000,0.000000,0.000000,0.000000
1692618894.043415,,,,,,,,,,,,,,,,,,,,,,,,,,,,,,,,,,,,,,,,,,,13512.000000,1692618894.035210,0.000000,0.000000,0.000000,0.000000,0.000000,0.000000
1692618894.052206,1.973619,-0.417582,-0.001236,69.270163,0.185714,-0.000008,0.182160,-0.003037,0.000046,0.032364,-2.371494,-0.001266,-0.010788,2.961651,0.000653,0.309120,-0.821463,-0.000094,-1.911000,-0.053819,-0.023000,0.022109,1.233818,0.000590,-1.608000,0.000181,-0.028999,0.060720,0.000015,-0.000138,-1.544286,0.000002,-0.000158,7135.000000,1692618894.034940,0.720229,-1.153062,0.000048,-0.136686,0.001307,-0.000048,,,,,,,,,
1692618894.055381,,,,,,,,,,,,,,,,,,,,,,,,,,,,,,,,,,,,,,,,,,,13513.000000,1692618894.046531,0.000000,0.000000,0.000000,0.000000,0.000000,0.000000
1692618894.057722,,,,,,,,,,,,,,,,,,,,,,,,,,,,,,,,,,,,,,,,,,0.000000,,,,,,,,
1692618894.061994,2.426580,-0.417966,0.000060,69.270163,0.185714,-0.000008,0.187680,-0.003037,0.000046,-0.202275,-2.371514,0.000534,-0.013485,2.961651,0.000653,0.430560,-0.821453,0.000764,-1.914000,-0.054818,-0.017000,0.022929,1.233818,0.000590,-1.608000,0.001182,-0.023000,0.027600,0.000015,-0.000138,-1.531143,0.000002,-0.000038,7136.000000,1692618894.044944,0.793829,-1.153062,0.000048,-0.094629,0.000921,-0.000048,,,,,,,,,
1692618894.065124,,,,,,,,,,,,,,,,,,,,,,,,,,,,,,,,,,,,,,,,,,,13514.000000,1692618894.054869,0.000000,0.000000,0.000000,0.000000,0.000000,0.000000
1692618894.083234,,,,,,,,,,,,,,,,,,,,,,,,,,,,,,,,,,,,,,,,,,,13515.000000,1692618894.065045,0.000000,0.000000,0.000000,0.000000,0.000000,0.000000
1692618894.084105,2.167745,-0.417966,0.000133,69.561214,0.185714,-0.000008,0.165600,-0.003037,0.000046,0.053940,-2.371475,-0.002731,-0.016182,2.961651,0.000653,0.474720,-0.821453,0.000691,-1.914000,-0.052228,-0.009999,0.022109,1.233227,0.000590,-1.606000,0.002772,-0.012000,0.123280,0.000031,0.000138,-1.478571,0.000002,-0.000038,7137.000000,1692618894.064950,0.704457,-1.153062,0.000048,-0.252343,0.001307,-0.000048,,,,,,,,,
1692618894.094450,,,,,,,,,,,,,,,,,,,,,,,,,,,,,,,,,,,,,,,,,,,13516.000000,1692618894.074892,0.000000,0.000000,0.000000,0.000000,0.000000,0.000000
1692618894.098942,,,,,,,,,,,,,,,,,,,,,,,,,,,,,,,,,,,,,,,,,,,13517.000000,1692618894.085309,0.000000,0.000000,0.000000,0.000000,0.000000,0.000000
1692618894.101046,2.070682,-0.417966,0.000185,69.852265,0.185714,-0.000008,0.182160,-0.003037,0.000046,-0.072819,-2.371395,0.021515,-0.008091,2.961651,0.000653,0.507840,-0.821453,0.001162,-1.909000,-0.049227,0.009999,0.024566,1.233227,-0.002363,-1.606000,0.002772,-0.012000,0.051520,0.000031,0.000138,-1.452286,0.000002,-0.000038,7138.000000,1692618894.084944,0.851657,-1.153062,0.000048,-0.252343,0.000921,-0.000048,,,,,,,,,
1692618894.131165,,,,,,,,,,,,,,,,,,,,,,,,,,,,,,,,,,,,,,,,,,,13518.000000,1692618894.103251,0.000000,0.000000,0.000000,0.000000,0.000000,0.000000
1692618894.137938,,,,,,,,,,,,,,,,,,,,,,,,,,,,,,,,,,,,,,,,,,,13520.000000,1692618894.116295,0.000000,0.000000,0.000000,0.000000,0.000000,0.000000
1692618894.143563,2.119214,-0.417966,-0.000246,70.725419,0.185714,-0.000008,0.110400,-0.003037,0.000046,0.043152,-2.371514,-0.002573,-0.016182,2.961651,0.000653,0.309120,-0.821463,-0.000230,-1.911000,-0.051227,0.004999,0.022517,1.233227,-0.002363,-1.610000,0.002772,-0.012000,0.027600,0.000031,0.000138,-1.603429,0.000002,-0.000038,7139.000000,1692618894.114949,0.804343,-1.153062,0.000048,-0.141943,0.001307,-0.000048,,,,,,,,,
1692618894.149506,,,,,,,,,,,,,,,,,,,,,,,,,,,,,,,,,,,,,,,,,,,13521.000000,1692618894.124827,0.000000,0.000000,0.000000,0.000000,0.000000,0.000000
1692618894.153513,0.404430,-0.417582,-0.000050,70.434368,0.185714,-0.000008,0.082800,-0.003037,0.000046,-0.115971,-2.371415,0.018961,-0.013485,2.961651,0.000653,0.574080,-0.821463,-0.002900,-1.911000,-0.051227,-0.004999,0.020471,1.233227,-0.002363,-1.610000,0.003772,-0.012000,0.082800,0.000031,0.000138,-1.419429,0.000002,-0.000038,7140.000000,1692618894.124944,0.851657,-1.153062,0.000048,-0.105143,0.001307,-0.000048,,,,,,,,,
1692618894.156005,,,,,,,,,,,,,,,,,,,,,,,,,,,,,,,,,,,,,,,,,,,13522.000000,1692618894.137396,0.000000,0.000000,0.000000,0.000000,0.000000,0.000000
1692618894.162361,,,,,,,,,,,,,,,,,,,,,,,,,,,,,,,,,,,,,,,,,,,13523.000000,1692618894.145909,0.000000,0.000000,0.000000,0.000000,0.000000,0.000000
1692618894.168552,,,,,,,,,,,,,,,,,,,,,,,,,,,,,,,,,,,,,,,,,,0.000000,,,,,,,,
1692618894.168829,,,,,,,,,,,,,,,,,,,,,,,,,,,,,,,,,,,,,,,,,,,13524.000000,1692618894.154879,0.000000,0.000000,0.000000,0.000000,0.000000,0.000000
1692618894.168837,0.275012,-0.417582,-0.000175,69.852265,0.185714,-0.000008,0.110400,-0.003037,0.000046,0.037758,-2.371514,-0.001919,-0.021576,2.961651,0.000653,0.397440,-0.821453,0.000104,-1.907000,-0.049227,0.004999,0.022929,1.233227,-0.002363,-1.605000,0.006773,-0.010999,0.031280,0.000031,0.000138,-1.491714,0.000002,-0.000038,7141.000000,1692618894.154938,0.862171,-1.153062,0.000048,-0.157714,0.001307,-0.000048,,,,,,,,,
1692618894.176913,,,,,,,,,,,,,,,,,,,,,,,,,,,,,,,,,,,,,,,,,,,13525.000000,1692618894.165736,0.000000,0.000000,0.000000,0.000000,0.000000,0.000000
1692618894.182438,0.097063,-0.417582,-0.000042,70.434368,0.185714,-0.000008,0.143520,-0.003037,0.000046,-0.142941,-2.371455,0.013736,-0.013485,2.961651,0.000653,0.452640,-0.821453,0.004900,-1.907000,-0.049227,0.004999,0.024975,1.233227,-0.002363,-1.600000,0.010772,0.008999,0.014720,0.000031,0.000138,-1.577143,0.000002,-0.000038,7142.000000,1692618894.164948,0.757029,-1.153062,0.000048,-0.157714,0.001307,-0.000048,,,,,,,,,
1692618894.190835,,,,,,,,,,,,,,,,,,,,,,,,,,,,,,,,,,,,,,,,,,,13526.000000,1692618894.174884,0.000000,0.000000,0.000000,0.000000,0.000000,0.000000
1692618894.215283,,,,,,,,,,,,,,,,,,,,,,,,,,,,,,,,,,,,,,,,,,,13527.000000,1692618894.184894,0.000000,0.000000,0.000000,0.000000,0.000000,0.000000
1692618894.237038,0.080886,-0.417582,-0.000018,71.889623,0.185714,-0.000008,0.088320,-0.003037,0.000046,0.035061,-2.371514,-0.001781,-0.010788,2.961651,0.000653,0.408480,-0.821453,0.000408,-1.899000,-0.045228,0.032999,0.022517,1.233227,-0.002363,-1.598000,0.009773,0.035000,0.066240,0.000031,0.000138,-1.564000,0.000002,-0.000038,7143.000000,1692618894.194938,0.825371,-1.153062,0.000048,-0.157714,0.001307,-0.000048,,,,,,,,,
1692618894.240917,,,,,,,,,,,,,,,,,,,,,,,,,,,,,,,,,,,,,,,,,,,13528.000000,1692618894.194887,0.000000,0.000000,0.000000,0.000000,0.000000,0.000000
1692618894.247654,,,,,,,,,,,,,,,,,,,,,,,,,,,,,,,,,,,,,,,,,,,13530.000000,1692618894.214889,0.000000,0.000000,0.000000,0.000000,0.000000,0.000000
1692618894.263702,1.310353,-0.417966,0.000155,71.598572,0.185714,-0.000008,0.115920,-0.003037,0.000046,0.062031,-2.371475,-0.004255,-0.008091,2.961651,0.000653,0.176640,-0.821453,-0.004921,-1.901000,-0.047228,0.020999,0.023746,1.233227,-0.002363,-1.600000,0.007773,0.008999,0.053360,0.000031,0.000138,-1.347143,0.000002,-0.000038,7144.000000,1692618894.214937,0.757029,-1.153062,0.000048,-0.052571,0.001689,-0.000048,,,,,,,,,
1692618894.272656,,,,,,,,,,,,,,,,,,,,,,,,,,,,,,,,,,,,,,,,,,,13532.000000,1692618894.235040,0.000000,0.000000,0.000000,0.000000,0.000000,0.000000
1692618894.272956,,,,,,,,,,,,,,,,,,,,,,,,,,,,,,,,,,,,,,,,,,,13533.000000,1692618894.244845,0.000000,0.000000,0.000000,0.000000,0.000000,0.000000
1692618894.281817,,,,,,,,,,,,,,,,,,,,,,,,,,,,,,,,,,,,,,,,,,,13534.000000,1692618894.254872,0.000000,0.000000,0.000000,0.000000,0.000000,0.000000
1692618894.281834,1.908910,-0.417966,0.000018,71.889623,0.185714,-0.000008,0.165600,-0.003037,0.000046,-0.121365,-2.371356,0.023276,-0.018879,2.961651,0.000653,0.375360,-0.821442,0.003832,-1.896000,-0.044227,0.009999,0.020880,1.233227,-0.002363,-1.603000,0.005772,-0.001000,0.007360,0.000031,0.000138,-1.544286,0.000002,-0.000038,7145.000000,1692618894.234941,0.767543,-1.153062,0.000048,-0.136686,0.001307,-0.000048,,,,,,,,,
1692618894.282804,,,,,,,,,,,,,,,,,,,,,,,,,,,,,,,,,,,,,,,,,,0.000000,,,,,,,,
1692618894.282813,0.825037,-0.417966,0.000169,71.889623,0.185714,-0.000008,0.082800,-0.003037,0.000046,0.048546,-2.371494,-0.003463,-0.016182,2.961651,0.000653,0.430560,-0.821442,0.003968,-1.894000,-0.044999,0.023000,0.020063,1.234999,0.000590,-1.610000,0.002000,-0.004999,0.053360,0.000031,0.000138,-1.439143,0.000002,-0.000038,7146.000000,1692618894.254938,0.751771,-1.153062,0.000048,-0.131429,0.001307,-0.000048,,,,,,,,,
1692618894.283819,,,,,,,,,,,,,,,,,,,,,,,,,,,,,,,,,,,,,,,,,,,13536.000000,1692618894.275027,0.000000,0.000000,0.000000,0.000000,0.000000,0.000000
1692618894.294277,2.038328,-0.417966,0.000230,71.598572,0.185714,-0.000008,0.060720,-0.003037,0.000046,-0.059334,-2.371395,0.023435,-0.010788,2.961651,0.000653,0.364320,-0.821442,0.000408,-1.896000,-0.047999,0.009999,0.022929,1.234999,0.005909,-1.610000,0.003001,-0.008999,0.051520,0.000031,0.000138,-1.465429,0.000002,-0.000038,7147.000000,1692618894.274940,0.741257,-1.153062,0.000048,-0.168229,0.001689,-0.000048,,,,,,,,,
1692618894.296286,,,,,,,,,,,,,,,,,,,,,,,,,,,,,,,,,,,,,,,,,,,13537.000000,1692618894.284914,0.000000,0.000000,0.000000,0.000000,0.000000,0.000000
1692618894.308552,,,,,,,,,,,,,,,,,,,,,,,,,,,,,,,,,,,,,,,,,,,13538.000000,1692618894.294951,0.000000,0.000000,0.000000,0.000000,0.000000,0.000000
1692618894.308599,2.378049,-0.417966,0.000018,72.180674,0.185714,-0.000008,0.121440,-0.003037,0.000046,0.045849,-2.371494,-0.002889,-0.016182,2.961651,0.000653,0.518880,-0.821453,-0.000094,-1.901000,-0.052999,0.018999,0.024154,1.234999,0.005909,-1.610000,0.002000,-0.004000,0.057040,0.000031,0.000138,-1.347143,0.000002,-0.000038,7148.000000,1692618894.294941,0.672914,-1.153062,0.000048,-0.136686,0.001307,-0.000048,,,,,,,,,
1692618894.325104,,,,,,,,,,,,,,,,,,,,,,,,,,,,,,,,,,,,,,,,,,,13539.000000,1692618894.305025,0.000000,0.000000,0.000000,0.000000,0.000000,0.000000
1692618894.328558,,,,,,,,,,,,,,,,,,,,,,,,,,,,,,,,,,,,,,,,,,,13540.000000,1692618894.314790,0.000000,0.000000,0.000000,0.000000,0.000000,0.000000
1692618894.330670,0.938278,-0.417966,0.000018,72.762777,0.185714,-0.000008,0.027600,-0.003037,0.000046,0.086304,-2.371455,-0.006571,-0.018879,2.961651,0.000653,0.750720,-0.821453,0.002062,-1.899000,-0.049637,-0.010999,0.020880,1.232636,-0.002954,-1.608000,0.004363,-0.008000,0.055200,0.000031,0.000138,-1.419429,0.000002,-0.000038,7149.000000,1692618894.314941,0.793829,-1.153062,0.000048,-0.184000,0.001307,-0.000048,,,,,,,,,
1692618894.336783,,,,,,,,,,,,,,,,,,,,,,,,,,,,,,,,,,,,,,,,,,,13541.000000,1692618894.324893,0.000000,0.000000,0.000000,0.000000,0.000000,0.000000
1692618894.346379,,,,,,,,,,,,,,,,,,,,,,,,,,,,,,,,,,,,,,,,,,,13542.000000,1692618894.334893,0.000000,0.000000,0.000000,0.000000,0.000000,0.000000
1692618894.349719,1.051518,-0.417966,0.000575,73.344879,0.185714,-0.000008,0.060720,-0.003037,0.000046,0.051243,-2.371514,-0.002870,-0.016182,2.961651,0.000653,0.022080,-0.821453,-0.003895,-1.904000,-0.051818,-0.019999,0.023337,1.233818,-0.002363,-1.621000,-0.003818,-0.041999,0.101200,0.000031,0.000138,-1.412857,0.000002,-0.000038,7150.000000,1692618894.334940,0.720229,-1.153062,0.000048,-0.162971,0.001307,-0.000048,,,,,,,,,
1692618894.357110,,,,,,,,,,,,,,,,,,,,,,,,,,,,,,,,,,,,,,,,,,,13543.000000,1692618894.345293,0.000000,0.000000,0.000000,0.000000,0.000000,0.000000
1692618894.358959,1.601543,-0.417582,-0.000852,72.762777,0.185714,-0.000008,-0.132480,-0.003037,0.000046,-0.067425,-2.371376,0.024523,-0.016182,2.961651,0.000653,0.375360,-0.821463,-0.006712,-1.906000,-0.052409,-0.014000,0.022109,1.234409,0.000590,-1.623000,-0.004409,-0.039999,0.058880,0.000031,0.000138,-1.452286,0.000002,-0.000038,7151.000000,1692618894.344953,0.809600,-1.153062,0.000048,0.015771,0.000921,-0.000048,,,,,,,,,
1692618894.368006,,,,,,,,,,,,,,,,,,,,,,,,,,,,,,,,,,,,,,,,,,,13544.000000,1692618894.355132,0.000000,0.000000,0.000000,0.000000,0.000000,0.000000
1692618894.376099,2.183922,-0.417966,0.000024,71.598572,0.185715,0.000008,0.060720,-0.003037,0.000046,0.048546,-2.371494,-0.005284,-0.010788,2.961651,0.000653,0.441600,-0.821453,0.001916,-1.909000,-0.055000,-0.014000,0.020880,1.234999,0.005318,-1.621000,-0.001000,-0.021999,0.036800,0.000031,0.000138,-1.511429,0.000006,0.000038,7152.000000,1692618894.364945,0.709714,-1.153062,0.000048,-0.094629,0.001307,0.000048,,,,,,,,,
1692618894.382718,,,,,,,,,,,,,,,,,,,,,,,,,,,,,,,,,,,,,,,,,,,13545.000000,1692618894.364976,0.000000,0.000000,0.000000,0.000000,0.000000,0.000000
1692618894.386417,,,,,,,,,,,,,,,,,,,,,,,,,,,,,,,,,,,,,,,,,,0.000000,,,,,,,,
1692618894.396249,,,,,,,,,,,,,,,,,,,,,,,,,,,,,,,,,,,,,,,,,,,13546.000000,1692618894.377023,0.000000,0.000000,0.000000,0.000000,0.000000,0.000000
1692618894.402984,0.129418,-0.417582,-0.000036,71.016470,0.185715,0.000008,0.055200,-0.003037,0.000046,-0.072819,-2.371395,0.022425,-0.010788,2.961651,0.000653,0.320160,-0.821463,-0.000094,-1.904000,-0.050409,-0.012000,0.023337,1.234409,0.002363,-1.623000,-0.001409,-0.010999,0.069920,0.000031,0.000138,-1.491714,0.000002,-0.000038,7153.000000,1692618894.384945,0.762286,-1.153062,0.000048,-0.141943,0.001307,0.000048,,,,,,,,,
1692618894.408552,,,,,,,,,,,,,,,,,,,,,,,,,,,,,,,,,,,,,,,,,,,13548.000000,1692618894.394926,0.000000,0.000000,0.000000,0.000000,0.000000,0.000000
1692618894.416532,,,,,,,,,,,,,,,,,,,,,,,,,,,,,,,,,,,,,,,,,,,13549.000000,1692618894.405251,0.000000,0.000000,0.000000,0.000000,0.000000,0.000000
1692618894.419033,1.083873,-0.417582,0.000783,70.725419,0.185715,0.000008,-0.071760,-0.003037,0.000046,0.029667,-2.371494,-0.002513,-0.010788,2.961651,0.000653,0.276000,-0.821463,-0.000094,-1.906000,-0.050409,-0.002000,0.022929,1.234409,0.002363,-1.625000,-0.001409,-0.018999,0.042320,0.000031,0.000138,-1.399714,0.000002,-0.000038,7154.000000,1692618894.404945,0.709714,-1.153062,0.000048,-0.094629,0.001689,0.000048,,,,,,,,,
1692618894.424968,,,,,,,,,,,,,,,,,,,,,,,,,,,,,,,,,,,,,,,,,,,13550.000000,1692618894.415055,0.000000,0.000000,0.000000,0.000000,0.000000,0.000000
1692618894.435967,,,,,,,,,,,,,,,,,,,,,,,,,,,,,,,,,,,,,,,,,,,13551.000000,1692618894.424883,0.000000,0.000000,0.000000,0.000000,0.000000,0.000000
1692618894.445881,,,,,,,,,,,,,,,,,,,,,,,,,,,,,,,,,,,,,,,,,,,13552.000000,1692618894.434890,0.000000,0.000000,0.000000,0.000000,0.000000,0.000000
1692618894.457117,1.002987,-0.417966,0.000018,69.852265,0.185715,0.000008,0.115920,-0.003037,0.000046,0.053940,-2.371494,-0.004572,-0.010788,2.961651,0.000653,0.430560,-0.821453,0.007456,-1.909000,-0.052000,-0.006000,0.020063,1.234999,-0.000590,-1.628000,-0.001999,-0.018999,0.066240,0.000031,0.000138,-1.485143,0.000006,0.000146,7155.000000,1692618894.434945,0.820114,-1.153062,0.000048,-0.168229,0.001307,0.000048,,,,,,,,,
1692618894.462630,,,,,,,,,,,,,,,,,,,,,,,,,,,,,,,,,,,,,,,,,,,13553.000000,1692618894.445304,0.000000,0.000000,0.000000,0.000000,0.000000,0.000000
1692618894.464626,,,,,,,,,,,,,,,,,,,,,,,,,,,,,,,,,,,,,,,,,,,13554.000000,1692618894.454757,0.000000,0.000000,0.000000,0.000000,0.000000,0.000000
1692618894.468791,1.391239,-0.417582,0.000436,69.561214,0.185715,0.000008,0.011040,-0.003037,0.000046,-0.059334,-2.371376,0.024721,-0.010788,2.961651,0.000653,0.209760,-0.821463,-0.000094,-1.906000,-0.050409,-0.006000,0.025383,1.234409,0.005318,-1.623000,0.002590,-0.008999,0.051520,0.000031,0.000138,-1.439143,0.000006,0.000038,7156.000000,1692618894.454944,0.762286,-1.153062,0.000048,-0.162971,0.001307,0.000048,,,,,,,,,
1692618894.475774,,,,,,,,,,,,,,,,,,,,,,,,,,,,,,,,,,,,,,,,,,,13555.000000,1692618894.464925,0.000000,0.000000,0.000000,0.000000,0.000000,0.000000
1692618894.488218,,,,,,,,,,,,,,,,,,,,,,,,,,,,,,,,,,,,,,,,,,,13556.000000,1692618894.475285,0.000000,0.000000,0.000000,0.000000,0.000000,0.000000
1692618894.493526,1.310353,-0.417966,0.001034,69.270163,0.185715,0.000008,0.088320,-0.003037,0.000046,0.051243,-2.371494,-0.003067,-0.016182,2.961651,0.000653,0.264960,-0.821463,-0.000094,-1.904000,-0.048410,0.004000,0.022109,1.234409,-0.000590,-1.618000,0.005591,0.014999,0.071760,0.000031,0.000138,-1.498286,0.000006,0.000038,7157.000000,1692618894.474948,0.725486,-1.153062,0.000048,-0.052571,0.000921,0.002587,,,,,,,,,
1692618894.494210,,,,,,,,,,,,,,,,,,,,,,,,,,,,,,,,,,,,,,,,,,0.000000,,,,,,,,
1692618894.494855,,,,,,,,,,,,,,,,,,,,,,,,,,,,,,,,,,,,,,,,,,,13557.000000,1692618894.484935,0.000000,0.000000,0.000000,0.000000,0.000000,0.000000
1692618894.499881,2.733947,-0.417966,0.000018,69.561214,0.185715,0.000008,0.022080,-0.003037,0.000046,0.029667,-2.371514,-0.002949,-0.016182,2.961651,0.000653,0.253920,-0.821463,-0.000094,-1.904000,-0.048410,0.008000,0.020471,1.234409,0.002363,-1.615000,0.007590,0.014999,0.022080,0.000031,0.000138,-1.577143,0.000006,0.000038,7158.000000,1692618894.484946,0.830629,-1.153062,0.000048,0.021029,0.000921,0.000048,,,,,,,,,
1692618894.507072,,,,,,,,,,,,,,,,,,,,,,,,,,,,,,,,,,,,,,,,,,,13558.000000,1692618894.494892,0.000000,0.000000,0.000000,0.000000,0.000000,0.000000
1692618894.524761,,,,,,,,,,,,,,,,,,,,,,,,,,,,,,,,,,,,,,,,,,,13559.000000,1692618894.504907,0.000000,0.000000,0.000000,0.000000,0.000000,0.000000
1692618894.531851,2.555998,-0.417966,0.000018,69.561214,0.185714,-0.000008,0.033120,-0.003042,-0.000046,0.000000,-2.371494,-0.003800,-0.016182,2.961651,0.000653,0.397440,-0.821463,-0.007686,-1.909000,-0.050999,-0.002000,0.024975,1.234999,0.004727,-1.618000,0.004000,0.013000,0.022080,0.000031,0.000138,-1.544286,0.000006,0.000038,7159.000000,1692618894.514950,0.688686,-1.153062,0.000048,-0.010514,0.001307,0.000048,,,,,,,,,
1692618894.534819,,,,,,,,,,,,,,,,,,,,,,,,,,,,,,,,,,,,,,,,,,,13561.000000,1692618894.524843,0.000000,0.000000,0.000000,0.000000,0.000000,0.000000
1692618894.548660,1.957442,-0.417966,0.000018,69.561214,0.185714,-0.000008,0.082800,-0.003042,-0.000046,0.035061,-2.371514,-0.002157,-0.010788,2.961651,0.000653,0.485760,-0.821453,0.000816,-1.914000,-0.055000,-0.002000,0.023337,1.234999,0.004727,-1.618000,0.005001,0.008000,0.051520,0.000031,0.000138,-1.491714,0.000006,0.000038,7160.000000,1692618894.524951,0.657143,-1.153062,0.000048,-0.094629,0.001307,0.000048,,,,,,,,,
1692618894.551035,,,,,,,,,,,,,,,,,,,,,,,,,,,,,,,,,,,,,,,,,,,13562.000000,1692618894.534883,0.000000,0.000000,0.000000,0.000000,0.000000,0.000000
1692618894.561114,,,,,,,,,,,,,,,,,,,,,,,,,,,,,,,,,,,,,,,,,,,13563.000000,1692618894.545152,0.000000,0.000000,0.000000,0.000000,0.000000,0.000000
1692618894.571379,1.488303,-0.417966,0.000658,70.143317,0.185714,-0.000008,-0.049680,-0.003042,-0.000046,0.070122,-2.371475,0.000771,-0.021576,2.961651,0.000653,0.463680,-0.821453,0.001099,-1.902000,-0.046590,0.004999,0.021288,1.235590,0.004727,-1.618000,0.003409,0.007000,0.036800,0.000031,0.000138,-1.504857,0.000002,-0.000085,7161.000000,1692618894.554936,0.762286,-1.153062,0.000048,-0.115657,0.001307,0.000048,,,,,,,,,
1692618894.571404,,,,,,,,,,,,,,,,,,,,,,,,,,,,,,,,,,,,,,,,,,,13564.000000,1692618894.554895,0.000000,0.000000,0.000000,0.000000,0.000000,0.000000
1692618894.578047,,,,,,,,,,,,,,,,,,,,,,,,,,,,,,,,,,,,,,,,,,,13565.000000,1692618894.564939,0.000000,0.000000,0.000000,0.000000,0.000000,0.000000
1692618894.587587,1.925087,-0.417966,0.000153,69.270163,0.185714,-0.000008,0.160080,-0.003042,-0.000046,0.051243,-2.371514,-0.002157,-0.010788,2.961651,0.000653,0.430560,-0.821463,-0.004775,-1.902000,-0.047591,0.024000,0.022929,1.235590,0.007090,-1.611000,0.008409,0.007000,0.044160,0.000031,0.000138,-1.669143,0.000002,-0.000038,7162.000000,1692618894.564950,0.714971,-1.153062,0.000048,-0.026286,0.001307,0.000048,,,,,,,,,
1692618894.592545,,,,,,,,,,,,,,,,,,,,,,,,,,,,,,,,,,,,,,,,,,,13566.000000,1692618894.576370,0.000000,0.000000,0.000000,0.000000,0.000000,0.000000
1692618894.656302,,,,,,,,,,,,,,,,,,,,,,,,,,,,,,,,,,,,,,,,,,,13567.000000,1692618894.585022,0.000000,0.000000,0.000000,0.000000,0.000000,0.000000
1692618894.660768,,,,,,,,,,,,,,,,,,,,,,,,,,,,,,,,,,,,,,,,,,0.000000,,,,,,,,
1692618894.664048,,,,,,,,,,,,,,,,,,,,,,,,,,,,,,,,,,,,,,,,,,,13568.000000,1692618894.595380,0.000000,0.000000,0.000000,0.000000,0.000000,0.000000
1692618894.664061,0.275012,-0.417582,-0.000381,70.143317,0.185714,-0.000008,-0.104880,-0.003042,-0.000046,0.051243,-2.371494,-0.002711,-0.013485,2.961651,0.000653,0.353280,-0.821453,0.000209,-1.899000,-0.047000,0.016000,0.022929,1.234999,0.004136,-1.608000,0.008001,0.028000,0.080960,0.000031,0.000138,-1.478571,0.000002,-0.000038,7163.000000,1692618894.594949,0.714971,-1.153062,0.000048,-0.268114,0.001307,0.004542,,,,,,,,,
1692618894.664682,-0.016177,-0.417582,-0.000022,71.016470,0.185714,-0.000008,0.022080,-0.003042,-0.000046,0.045849,-2.371494,-0.005680,-0.021576,2.961651,0.000653,0.563040,-0.821453,0.002104,-1.902000,-0.050409,0.010999,0.023746,1.234409,0.004136,-1.618000,0.000591,0.006000,0.011040,0.000031,0.000138,-1.452286,0.000002,-0.000038,7165.000000,1692618894.634946,0.778057,-1.153062,0.000048,0.015771,0.001307,0.000048,,,,,,,,,
1692618894.665908,,,,,,,,,,,,,,,,,,,,,,,,,,,,,,,,,,,,,,,,,,,13570.000000,1692618894.615940,0.000000,0.000000,0.000000,0.000000,0.000000,0.000000
1692618894.665919,,,,,,,,,,,,,,,,,,,,,,,,,,,,,,,,,,,,,,,,,,,13573.000000,1692618894.646824,0.000000,0.000000,0.000000,0.000000,0.000000,0.000000
1692618894.669204,,,,,,,,,,,,,,,,,,,,,,,,,,,,,,,,,,,,,,,,,,,13574.000000,1692618894.658568,0.000000,0.000000,0.000000,0.000000,0.000000,0.000000
1692618894.670505,2.119214,-0.417966,0.000181,71.016470,0.185714,-0.000008,0.038640,-0.003042,-0.000046,0.056637,-2.371514,-0.003444,-0.018879,2.961651,0.000653,0.342240,-0.821453,0.000429,-1.902000,-0.049818,-0.004000,0.022109,1.233818,0.001181,-1.616000,0.002181,-0.018999,0.018400,0.000031,0.000138,-1.610000,0.000002,-0.000038,7166.000000,1692618894.644952,0.793829,-1.153062,0.000048,-0.021029,0.001307,0.000048,,,,,,,,,
1692618894.670553,,,,,,,,,,,,,,,,,,,,,,,,,,,,,,,,,,,,,,,,,,,13575.000000,1692618894.666348,0.000000,0.000000,0.000000,0.000000,0.000000,0.000000
1692618894.677382,2.329517,-0.417966,0.000018,71.307521,0.185714,-0.000008,0.060720,-0.003042,-0.000046,0.056637,-2.371475,-0.005937,-0.018879,2.961651,0.000653,0.331200,-0.821453,0.000178,-1.912000,-0.056818,-0.004000,0.020471,1.233818,-0.001772,-1.613000,0.005181,-0.014000,0.049680,0.000031,0.000138,-1.498286,0.000002,-0.000038,7167.000000,1692618894.664947,0.683429,-1.153062,0.000048,-0.136686,0.001689,0.000048,,,,,,,,,
1692618894.697657,,,,,,,,,,,,,,,,,,,,,,,,,,,,,,,,,,,,,,,,,,,13576.000000,1692618894.674968,0.000000,0.000000,0.000000,0.000000,0.000000,0.000000
1692618894.709204,,,,,,,,,,,,,,,,,,,,,,,,,,,,,,,,,,,,,,,,,,,13578.000000,1692618894.694911,0.000000,0.000000,0.000000,0.000000,0.000000,0.000000
1692618894.713256,,,,,,,,,,,,,,,,,,,,,,,,,,,,,,,,,,,,,,,,,,0.000000,,,,,,,,
1692618894.713267,0.857392,-0.417582,0.000280,71.598572,0.185714,-0.000008,0.099360,-0.003042,-0.000046,0.024273,-2.371435,-0.005146,-0.013485,2.961651,0.000653,0.364320,-0.821463,-0.000942,-1.912000,-0.054818,-0.026000,0.022929,1.233818,-0.001181,-1.613000,0.005181,0.001000,0.066240,0.000031,0.000138,-1.504857,0.000002,-0.000038,7168.000000,1692618894.694943,0.746514,-1.153062,0.000048,-0.084114,0.001307,0.000048,,,,,,,,,
1692618894.720499,,,,,,,,,,,,,,,,,,,,,,,,,,,,,,,,,,,,,,,,,,,13579.000000,1692618894.708049,0.000000,0.000000,0.000000,0.000000,0.000000,0.000000
1692618894.729833,,,,,,,,,,,,,,,,,,,,,,,,,,,,,,,,,,,,,,,,,,,13580.000000,1692618894.714907,0.000000,0.000000,0.000000,0.000000,0.000000,0.000000
1692618894.741410,1.455948,-0.417966,0.001470,71.598572,0.185714,-0.000008,0.215280,-0.003042,-0.000046,0.048546,-2.371514,-0.005462,-0.008091,2.961651,0.000653,0.419520,-0.821453,0.001277,-1.917000,-0.056410,-0.024000,0.023337,1.234409,0.001772,-1.615000,0.004590,-0.004000,0.066240,0.000031,0.000138,-1.564000,0.000002,-0.000038,7169.000000,1692618894.714941,0.693943,-1.153062,0.000048,-0.089371,0.001307,0.000048,,,,,,,,,
1692618894.744188,,,,,,,,,,,,,,,,,,,,,,,,,,,,,,,,,,,,,,,,,,,13581.000000,1692618894.725016,0.000000,0.000000,0.000000,0.000000,0.000000,0.000000
1692618894.747760,,,,,,,,,,,,,,,,,,,,,,,,,,,,,,,,,,,,,,,,,,,13582.000000,1692618894.734942,0.000000,0.000000,0.000000,0.000000,0.000000,0.000000
1692618894.747785,1.229467,-0.417966,0.000412,71.016470,0.185715,0.000008,0.204240,-0.003042,-0.000046,0.083607,-2.371475,-0.009104,-0.008091,2.961651,0.000653,0.386400,-0.821453,0.000293,-1.916000,-0.054000,-0.016000,0.022929,1.234999,0.004136,-1.620000,0.000001,-0.008999,0.018400,0.000031,0.000138,-1.596857,0.000006,0.000038,7170.000000,1692618894.734939,0.709714,-1.153062,0.000048,-0.131429,0.001689,0.000048,,,,,,,,,
1692618894.757249,,,,,,,,,,,,,,,,,,,,,,,,,,,,,,,,,,,,,,,,,,,13583.000000,1692618894.744857,0.000000,0.000000,0.000000,0.000000,0.000000,0.000000
1692618894.766612,,,,,,,,,,,,,,,,,,,,,,,,,,,,,,,,,,,,,,,,,,,13584.000000,1692618894.755634,0.000000,0.000000,0.000000,0.000000,0.000000,0.000000
1692618894.770492,2.022150,-0.417582,-0.000311,70.725419,0.185715,0.000008,0.093840,-0.003042,-0.000046,0.024273,-2.371514,-0.003661,-0.016182,2.961651,0.000653,0.298080,-0.821463,-0.000094,-1.914000,-0.052409,-0.010999,0.024566,1.234409,0.004136,-1.611000,0.005591,-0.013000,0.064400,0.000031,0.000138,-1.458857,0.000002,-0.000038,7171.000000,1692618894.754942,0.751771,-1.153062,0.000048,-0.094629,0.001307,0.000048,,,,,,,,,
1692618894.776750,,,,,,,,,,,,,,,,,,,,,,,,,,,,,,,,,,,,,,,,,,,13585.000000,1692618894.764801,0.000000,0.000000,0.000000,0.000000,0.000000,0.000000
1692618894.785611,,,,,,,,,,,,,,,,,,,,,,,,,,,,,,,,,,,,,,,,,,,13586.000000,1692618894.774940,0.000000,0.000000,0.000000,0.000000,0.000000,0.000000
1692618894.793894,1.261822,-0.417966,0.000094,70.434368,0.185715,0.000008,0.132480,-0.003042,-0.000046,0.086304,-2.371455,-0.005106,-0.018879,2.961651,0.000653,0.264960,-0.821463,-0.000136,-1.909000,-0.048819,0.004000,0.024566,1.233818,0.001181,-1.608000,0.007182,0.016000,0.066240,0.000031,0.000138,-1.491714,0.000002,-0.000038,7172.000000,1692618894.774942,0.667657,-1.153062,0.000048,-0.084114,0.001307,0.000048,,,,,,,,,
1692618894.799937,,,,,,,,,,,,,,,,,,,,,,,,,,,,,,,,,,,,,,,,,,,13587.000000,1692618894.785020,0.000000,0.000000,0.000000,0.000000,0.000000,0.000000
1692618894.816514,1.779492,-0.417966,-0.000018,68.979112,0.185715,0.000008,0.138000,-0.003042,-0.000046,0.051243,-2.371514,-0.002256,-0.024273,2.961651,0.000653,0.430560,-0.821463,-0.001277,-1.904000,-0.046637,0.017000,0.024566,1.232636,-0.007090,-1.598000,0.012364,0.025000,0.031280,0.000031,0.000138,-1.531143,0.000002,-0.000038,7173.000000,1692618894.794940,0.741257,-1.153062,0.000048,0.000000,0.001307,0.000048,,,,,,,,,
1692618894.816535,,,,,,,,,,,,,,,,,,,,,,,,,,,,,,,,,,,,,,,,,,,13588.000000,1692618894.794925,0.000000,0.000000,0.000000,0.000000,0.000000,0.000000
1692618894.822041,,,,,,,,,,,,,,,,,,,,,,,,,,,,,,,,,,,,,,,,,,0.000000,,,,,,,,
1692618894.824654,,,,,,,,,,,,,,,,,,,,,,,,,,,,,,,,,,,,,,,,,,,13590.000000,1692618894.814857,0.000000,0.000000,0.000000,0.000000,0.000000,0.000000
1692618894.830515,1.310353,-0.417966,0.000115,68.688061,0.185715,0.000008,0.126960,-0.003042,-0.000046,0.043152,-2.371455,-0.002038,-0.016182,2.961651,0.000653,0.309120,-0.821463,-0.000188,-1.914000,-0.053228,-0.017999,0.020471,1.233227,-0.007090,-1.600000,0.008772,0.021999,0.036800,0.000031,0.000138,-1.458857,0.000002,-0.000038,7174.000000,1692618894.814946,0.678171,-1.153062,0.000048,-0.052571,0.001689,0.000048,,,,,,,,,
1692618894.837626,,,,,,,,,,,,,,,,,,,,,,,,,,,,,,,,,,,,,,,,,,,13591.000000,1692618894.825137,0.000000,0.000000,0.000000,0.000000,0.000000,0.000000
1692618894.842372,1.261822,-0.417966,0.000018,69.270163,0.185715,0.000008,0.066240,-0.003042,-0.000046,0.037758,-2.371494,-0.002968,-0.005394,2.961651,0.000653,0.309120,-0.821453,0.000230,-1.911000,-0.051637,-0.017999,0.026612,1.232636,-0.004136,-1.598000,0.009363,0.010999,0.064400,0.000031,0.000138,-1.511429,0.000002,-0.000038,7175.000000,1692618894.824944,0.772800,-1.153062,0.000048,-0.178743,0.001689,0.000048,,,,,,,,,
1692618894.844546,,,,,,,,,,,,,,,,,,,,,,,,,,,,,,,,,,,,,,,,,,,13592.000000,1692618894.835294,0.000000,0.000000,0.000000,0.000000,0.000000,0.000000
1692618894.852771,,,,,,,,,,,,,,,,,,,,,,,,,,,,,,,,,,,,,,,,,,,13593.000000,1692618894.845423,0.000000,0.000000,0.000000,0.000000,0.000000,0.000000
1692618894.857570,,,,,,,,,,,,,,,,,,,,,,,,,,,,,,,,,,,,,,,,,,,13594.000000,1692618894.854829,0.000000,0.000000,0.000000,0.000000,0.000000,0.000000
1692618894.877572,2.669238,-0.417966,0.000018,68.397010,0.185715,0.000008,0.077280,-0.003042,-0.000046,0.051243,-2.371475,-0.003345,-0.018879,2.961651,0.000653,0.375360,-0.821463,-0.001151,-1.902000,-0.046046,0.010999,0.024975,1.232045,-0.006499,-1.597000,0.007955,0.014999,0.003680,0.000031,0.000138,-1.550857,0.000002,-0.000038,7176.000000,1692618894.854941,0.757029,-1.153062,0.000048,-0.078857,0.001689,0.000048,,,,,,,,,
1692618894.877598,,,,,,,,,,,,,,,,,,,,,,,,,,,,,,,,,,,,,,,,,,,13595.000000,1692618894.864916,0.000000,0.000000,0.000000,0.000000,0.000000,0.000000
1692618894.887343,,,,,,,,,,,,,,,,,,,,,,,,,,,,,,,,,,,,,,,,,,,13596.000000,1692618894.874875,0.000000,0.000000,0.000000,0.000000,0.000000,0.000000
1692618894.887359,2.539821,-0.417966,0.000018,68.105959,0.185715,0.000008,0.082800,-0.003042,-0.000046,0.010788,-2.371514,-0.004097,-0.024273,2.961651,0.000653,0.342240,-0.821453,0.000429,-1.904000,-0.047637,0.010999,0.024154,1.232636,-0.008863,-1.600000,0.006363,0.000000,0.001840,0.000031,0.000138,-1.465429,0.000006,0.000038,7177.000000,1692618894.864950,0.667657,-1.153062,0.000048,-0.052571,0.001689,0.000048,,,,,,,,,
1692618894.899581,,,,,,,,,,,,,,,,,,,,,,,,,,,,,,,,,,,,,,,,,,,13597.000000,1692618894.884925,0.000000,0.000000,0.000000,0.000000,0.000000,0.000000
1692618894.906455,1.601543,-0.417966,-0.000018,67.814908,0.185714,-0.000008,0.126960,-0.003042,-0.000046,0.053940,-2.371475,-0.003602,-0.018879,2.961651,0.000653,0.342240,-0.821453,0.000513,-1.906000,-0.050819,0.009999,0.022517,1.233818,0.000000,-1.608000,0.002181,-0.018999,0.007360,0.000031,0.000138,-1.485143,0.000006,0.000038,7178.000000,1692618894.894944,0.746514,-1.153062,0.000048,-0.205029,0.001689,0.000048,,,,,,,,,
1692618894.906477,,,,,,,,,,,,,,,,,,,,,,,,,,,,,,,,,,,,,,,,,,,13598.000000,1692618894.895140,0.000000,0.000000,0.000000,0.000000,0.000000,0.000000
1692618894.918329,,,,,,,,,,,,,,,,,,,,,,,,,,,,,,,,,,,,,,,,,,,13599.000000,1692618894.904802,0.000000,0.000000,0.000000,0.000000,0.000000,0.000000
1692618894.928273,,,,,,,,,,,,,,,,,,,,,,,,,,,,,,,,,,,,,,,,,,0.000000,,,,,,,,
1692618894.933278,,,,,,,,,,,,,,,,,,,,,,,,,,,,,,,,,,,,,,,,,,,13600.000000,1692618894.914889,0.000000,0.000000,0.000000,0.000000,0.000000,0.000000
1692618894.933290,2.782479,-0.417966,0.000018,68.688061,0.185714,-0.000008,0.066240,-0.003042,-0.000046,-0.142941,-2.371435,0.015854,-0.016182,2.961651,0.000653,0.397440,-0.821463,-0.000094,-1.906000,-0.050819,0.000000,0.023337,1.233818,0.000000,-1.610000,0.002181,-0.018999,0.057040,0.000031,0.000138,-1.439143,0.000006,0.000038,7179.000000,1692618894.914943,0.688686,-1.153062,0.000048,-0.120914,0.001689,0.000048,,,,,,,,,
1692618894.946162,1.472125,-0.417966,-0.000018,68.397010,0.185714,-0.000008,0.154560,-0.003042,-0.000046,0.091698,-2.371455,-0.004512,-0.018879,2.961651,0.000653,0.110400,-0.821463,-0.008744,-1.911000,-0.053410,-0.004999,0.019651,1.234409,0.000000,-1.610000,0.002590,-0.018999,0.025760,0.000031,0.000138,-1.544286,0.000006,0.000038,7180.000000,1692618894.924960,0.688686,-1.153062,0.000048,0.199771,0.001307,0.000048,,,,,,,,,
1692618894.946176,,,,,,,,,,,,,,,,,,,,,,,,,,,,,,,,,,,,,,,,,,,13601.000000,1692618894.925241,0.000000,0.000000,0.000000,0.000000,0.000000,0.000000
1692618894.948107,,,,,,,,,,,,,,,,,,,,,,,,,,,,,,,,,,,,,,,,,,,13603.000000,1692618894.945539,0.000000,0.000000,0.000000,0.000000,0.000000,0.000000
1692618894.969035,,,,,,,,,,,,,,,,,,,,,,,,,,,,,,,,,,,,,,,,,,,13604.000000,1692618894.955434,0.000000,0.000000,0.000000,0.000000,0.000000,0.000000
1692618894.969573,1.439771,-0.417582,0.000018,68.979112,0.185714,-0.000008,0.104880,-0.003042,-0.000046,-0.178002,-2.371514,0.000574,-0.021576,2.961651,0.000653,0.353280,-0.821453,0.000272,-1.912000,-0.054000,-0.004000,0.025383,1.234999,0.004727,-1.613000,0.001000,-0.017999,0.000000,0.000031,0.000138,-1.564000,0.000002,-0.000038,7181.000000,1692618894.954940,0.688686,-1.153062,0.000048,-0.078857,0.001689,0.000048,,,,,,,,,
1692618894.977124,,,,,,,,,,,,,,,,,,,,,,,,,,,,,,,,,,,,,,,,,,,13605.000000,1692618894.965154,0.000000,0.000000,0.000000,0.000000,0.000000,0.000000
1692618894.980089,2.620707,-0.417966,0.000094,69.270163,0.185714,-0.000008,0.082800,-0.003042,-0.000046,0.086304,-2.371455,-0.005641,-0.018879,2.961651,0.000653,0.463680,-0.821453,0.001288,-1.911000,-0.053410,-0.013000,0.024975,1.234409,0.004727,-1.613000,0.001590,-0.017999,0.027600,0.000031,0.000138,-1.524571,0.000002,-0.000038,7182.000000,1692618894.964948,0.588800,-1.153062,0.000048,-0.210286,0.001689,0.000048,,,,,,,,,
1692618894.988206,,,,,,,,,,,,,,,,,,,,,,,,,,,,,,,,,,,,,,,,,,,13606.000000,1692618894.979562,0.000000,0.000000,0.000000,0.000000,0.000000,0.000000
1692618894.996997,,,,,,,,,,,,,,,,,,,,,,,,,,,,,,,,,,,,,,,,,,,13607.000000,1692618894.984885,0.000000,0.000000,0.000000,0.000000,0.000000,0.000000
1692618895.010868,,,,,,,,,,,,,,,,,,,,,,,,,,,,,,,,,,,,,,,,,,,13608.000000,1692618894.994888,0.000000,0.000000,0.000000,0.000000,0.000000,0.000000
1692618895.010935,0.355898,-0.417582,-0.001712,69.852265,0.185714,-0.000008,0.176640,-0.003042,-0.000046,-0.097092,-2.371336,0.028522,-0.018879,2.961651,0.000653,0.441600,-0.821453,0.003979,-1.919000,-0.055999,-0.035000,0.020063,1.234999,-0.001181,-1.616000,0.000001,-0.017999,0.011040,0.000031,0.000138,-1.504857,0.000002,-0.000038,7183.000000,1692618894.994940,0.757029,-1.153062,0.000048,-0.178743,0.001689,0.000048,,,,,,,,,
1692618895.020869,,,,,,,,,,,,,,,,,,,,,,,,,,,,,,,,,,,,,,,,,,,13609.000000,1692618895.004928,0.000000,0.000000,0.000000,0.000000,0.000000,0.000000
