__time,/hsrb/wrist_wrench/compensated/header/seq,/hsrb/wrist_wrench/compensated/header/stamp,/hsrb/wrist_wrench/compensated/wrench/force/x,/hsrb/wrist_wrench/compensated/wrench/force/y,/hsrb/wrist_wrench/compensated/wrench/force/z,/hsrb/wrist_wrench/compensated/wrench/torque/x,/hsrb/wrist_wrench/compensated/wrench/torque/y,/hsrb/wrist_wrench/compensated/wrench/torque/z,/rosout/header/seq,/rosout/header/stamp,/rosout/level,/rosout/line,/rosout_agg/header/seq,/rosout_agg/header/stamp,/rosout_agg/level,/rosout_agg/line
1697105439.770101,,,,,,,,,538.000000,1697105439.769853,2.000000,30.000000,,,,
1697105439.782617,,,,,,,,,539.000000,1697105439.782119,2.000000,30.000000,,,,
1697105439.784099,,,,,,,,,,,,,1522.000000,1697105439.769853,2.000000,30.000000
1697105439.806386,,,,,,,,,,,,,1523.000000,1697105439.782119,2.000000,30.000000
1697105439.806820,,,,,,,,,540.000000,1697105439.806563,2.000000,30.000000,,,,
1697105439.817626,,,,,,,,,,,,,1524.000000,1697105439.806563,2.000000,30.000000
1697105439.820036,,,,,,,,,541.000000,1697105439.819746,2.000000,30.000000,,,,
1697105439.829185,,,,,,,,,,,,,1525.000000,1697105439.819746,2.000000,30.000000
1697105439.838354,,,,,,,,,542.000000,1697105439.838201,2.000000,209.000000,,,,
1697105439.865846,,,,,,,,,543.000000,1697105439.865576,2.000000,30.000000,,,,
1697105439.867423,,,,,,,,,,,,,1526.000000,1697105439.838201,2.000000,209.000000
1697105439.877096,,,,,,,,,,,,,1527.000000,1697105439.865576,2.000000,30.000000
1697105439.877451,,,,,,,,,544.000000,1697105439.877292,4.000000,34.000000,,,,
1697105439.888556,,,,,,,,,,,,,1528.000000,1697105439.877292,4.000000,34.000000
1697105439.890667,,,,,,,,,545.000000,1697105439.890471,4.000000,34.000000,,,,
1697105439.910012,,,,,,,,,,,,,1529.000000,1697105439.890471,4.000000,34.000000
1697105441.983111,,,,,,,,,546.000000,1697105441.982805,2.000000,30.000000,,,,
1697105442.024054,,,,,,,,,,,,,1530.000000,1697105441.982805,2.000000,30.000000
1697105442.024668,,,,,,,,,547.000000,1697105442.024367,2.000000,30.000000,,,,
1697105442.047791,,,,,,,,,,,,,1531.000000,1697105442.024367,2.000000,30.000000
1697105442.048704,,,,,,,,,548.000000,1697105442.048243,2.000000,30.000000,,,,
1697105442.070113,,,,,,,,,549.000000,1697105442.069803,2.000000,30.000000,,,,
1697105442.070680,,,,,,,,,,,,,1532.000000,1697105442.048243,2.000000,30.000000
1697105442.082140,,,,,,,,,,,,,1533.000000,1697105442.069803,2.000000,30.000000
1697105442.084212,,,,,,,,,550.000000,1697105442.083219,2.000000,30.000000,,,,
1697105442.102104,,,,,,,,,,,,,1534.000000,1697105442.083219,2.000000,30.000000
1697105442.144834,,,,,,,,,551.000000,1697105442.144586,2.000000,30.000000,,,,
1697105442.162401,,,,,,,,,,,,,1535.000000,1697105442.144586,2.000000,30.000000
1697105442.163283,,,,,,,,,552.000000,1697105442.163028,2.000000,30.000000,,,,
1697105442.177824,,,,,,,,,,,,,1536.000000,1697105442.163028,2.000000,30.000000
1697105442.178251,,,,,,,,,553.000000,1697105442.177958,2.000000,30.000000,,,,
1697105442.200979,,,,,,,,,,,,,1537.000000,1697105442.177958,2.000000,30.000000
1697105442.201689,,,,,,,,,554.000000,1697105442.201515,2.000000,30.000000,,,,
1697105442.223318,,,,,,,,,,,,,1538.000000,1697105442.201515,2.000000,30.000000
1697105442.331119,,,,,,,,,555.000000,1697105442.330876,2.000000,30.000000,,,,
1697105442.340432,,,,,,,,,,,,,1539.000000,1697105442.330876,2.000000,30.000000
1697105442.340811,,,,,,,,,556.000000,1697105442.340597,2.000000,30.000000,,,,
1697105442.355367,,,,,,,,,,,,,1540.000000,1697105442.340597,2.000000,30.000000
1697105442.356473,,,,,,,,,557.000000,1697105442.355690,2.000000,30.000000,,,,
1697105442.373677,,,,,,,,,,,,,1541.000000,1697105442.355690,2.000000,30.000000
1697105442.376433,,,,,,,,,558.000000,1697105442.375625,2.000000,30.000000,,,,
1697105442.394192,,,,,,,,,,,,,1542.000000,1697105442.375625,2.000000,30.000000
1697105442.394830,,,,,,,,,559.000000,1697105442.394412,2.000000,30.000000,,,,
1697105442.418158,,,,,,,,,,,,,1543.000000,1697105442.394412,2.000000,30.000000
1697105442.749274,,,,,,,,,560.000000,1697105442.748597,2.000000,30.000000,,,,
1697105442.774637,,,,,,,,,561.000000,1697105442.774094,2.000000,30.000000,,,,
1697105442.775893,,,,,,,,,,,,,1544.000000,1697105442.748597,2.000000,30.000000
1697105442.793612,,,,,,,,,,,,,1545.000000,1697105442.774094,2.000000,30.000000
1697105442.802456,,,,,,,,,562.000000,1697105442.802033,2.000000,30.000000,,,,
1697105442.822574,,,,,,,,,,,,,1546.000000,1697105442.802033,2.000000,30.000000
1697105443.266671,,,,,,,,,563.000000,1697105443.266318,2.000000,30.000000,,,,
1697105443.289801,,,,,,,,,,,,,1547.000000,1697105443.266318,2.000000,30.000000
1697105443.290209,,,,,,,,,564.000000,1697105443.289905,2.000000,30.000000,,,,
1697105443.304339,,,,,,,,,,,,,1548.000000,1697105443.289905,2.000000,30.000000
1697105443.318118,,,,,,,,,28.000000,1697105443.306613,4.000000,357.000000,,,,
1697105443.318203,,,,,,,,,,,,,1549.000000,1697105443.306613,4.000000,357.000000
1697105443.320450,,,,,,,,,565.000000,1697105443.320103,2.000000,30.000000,,,,
1697105443.341876,,,,,,,,,,,,,1550.000000,1697105443.320103,2.000000,30.000000
1697105443.341957,,,,,,,,,29.000000,1697105443.327948,4.000000,82.000000,,,,
1697105443.342052,,,,,,,,,,,,,1551.000000,1697105443.327948,4.000000,82.000000
1697105443.342422,,,,,,,,,566.000000,1697105443.342180,2.000000,30.000000,,,,
1697105443.372865,,,,,,,,,,,,,1552.000000,1697105443.342180,2.000000,30.000000
1697105444.189483,,,,,,,,,567.000000,1697105444.189224,2.000000,30.000000,,,,
1697105444.208479,,,,,,,,,,,,,1553.000000,1697105444.189224,2.000000,30.000000
1697105444.228875,,,,,,,,,568.000000,1697105444.228488,2.000000,30.000000,,,,
1697105444.257670,,,,,,,,,,,,,1554.000000,1697105444.228488,2.000000,30.000000
1697105444.258352,,,,,,,,,569.000000,1697105444.258172,4.000000,34.000000,,,,
1697105444.275453,,,,,,,,,,,,,1555.000000,1697105444.258172,4.000000,34.000000
1697105444.277431,,,,,,,,,570.000000,1697105444.276976,4.000000,34.000000,,,,
1697105444.297418,,,,,,,,,,,,,1556.000000,1697105444.276976,4.000000,34.000000
1697105444.298025,,,,,,,,,571.000000,1697105444.297850,4.000000,34.000000,,,,
1697105444.330362,,,,,,,,,572.000000,1697105444.329950,4.000000,34.000000,,,,
1697105444.330476,,,,,,,,,,,,,1557.000000,1697105444.297850,4.000000,34.000000
1697105444.366781,,,,,,,,,,,,,1558.000000,1697105444.329950,4.000000,34.000000
1697105444.367297,,,,,,,,,573.000000,1697105444.366510,2.000000,30.000000,,,,
1697105444.391081,,,,,,,,,,,,,1559.000000,1697105444.366510,2.000000,30.000000
1697105444.392734,,,,,,,,,574.000000,1697105444.391214,4.000000,34.000000,,,,
1697105444.409810,,,,,,,,,,,,,1560.000000,1697105444.391214,4.000000,34.000000
1697105446.417412,,,,,,,,,575.000000,1697105446.417084,2.000000,30.000000,,,,
1697105446.437284,,,,,,,,,,,,,1561.000000,1697105446.417084,2.000000,30.000000
1697105446.437920,,,,,,,,,576.000000,1697105446.437433,2.000000,30.000000,,,,
1697105446.456254,,,,,,,,,,,,,1562.000000,1697105446.437433,2.000000,30.000000
1697105446.456619,,,,,,,,,577.000000,1697105446.456406,2.000000,30.000000,,,,
1697105446.472182,,,,,,,,,,,,,1563.000000,1697105446.456406,2.000000,30.000000
1697105446.472474,,,,,,,,,578.000000,1697105446.472325,2.000000,30.000000,,,,
1697105446.488994,,,,,,,,,,,,,1564.000000,1697105446.472325,2.000000,30.000000
1697105446.491720,,,,,,,,,579.000000,1697105446.491094,2.000000,30.000000,,,,
1697105446.514485,,,,,,,,,,,,,1565.000000,1697105446.491094,2.000000,30.000000
1697105446.518849,,,,,,,,,580.000000,1697105446.518447,2.000000,30.000000,,,,
1697105446.540207,,,,,,,,,,,,,1566.000000,1697105446.518447,2.000000,30.000000
1697105446.541013,,,,,,,,,581.000000,1697105446.540660,4.000000,34.000000,,,,
1697105446.560519,,,,,,,,,,,,,1567.000000,1697105446.540660,4.000000,34.000000
1697105446.578245,,,,,,,,,582.000000,1697105446.576750,4.000000,34.000000,,,,
1697105446.633381,,,,,,,,,,,,,1568.000000,1697105446.576750,4.000000,34.000000
1697106409.856498,309678.000000,1697106409.830821,-0.126437,0.155469,0.117022,-0.003983,0.000892,-0.000257,,,,,,,,
1697106409.864141,309680.000000,1697106409.851021,-0.122555,0.150343,0.112984,-0.003896,0.000848,-0.000250,,,,,,,,
1697106409.883166,309681.000000,1697106409.860679,-0.122209,0.150025,0.112530,-0.003901,0.000841,-0.000248,,,,,,,,
1697106409.903173,309682.000000,1697106409.870634,-0.122625,0.150542,0.112625,-0.003925,0.000840,-0.000249,,,,,,,,
1697106409.905070,309683.000000,1697106409.880773,-0.122755,0.150018,0.111895,-0.003925,0.000834,-0.000252,,,,,,,,
1697106409.913032,309684.000000,1697106409.891360,-0.121264,0.146640,0.109028,-0.003865,0.000813,-0.000255,,,,,,,,
1697106409.921582,309685.000000,1697106409.900791,-0.118448,0.141249,0.104693,-0.003759,0.000781,-0.000257,,,,,,,,
1697106409.933275,309686.000000,1697106409.910825,-0.115730,0.135765,0.100541,-0.003650,0.000749,-0.000261,,,,,,,,
1697106409.937911,309687.000000,1697106409.922587,-0.112867,0.129840,0.096492,-0.003531,0.000719,-0.000263,,,,,,,,
1697106409.947966,309688.000000,1697106409.931193,-0.109233,0.123085,0.091948,-0.003391,0.000689,-0.000262,,,,,,,,
1697106409.959161,309689.000000,1697106409.944502,-0.106140,0.117169,0.087953,-0.003269,0.000663,-0.000263,,,,,,,,
1697106409.976245,309690.000000,1697106409.951145,-0.104542,0.112862,0.085256,-0.003185,0.000644,-0.000266,,,,,,,,
1697106409.986850,309692.000000,1697106409.971139,-0.103049,0.105628,0.080903,-0.003045,0.000612,-0.000267,,,,,,,,
1697106410.009100,309693.000000,1697106409.982615,-0.102217,0.102328,0.079035,-0.002977,0.000599,-0.000264,,,,,,,,
1697106410.014480,309694.000000,1697106409.991767,-0.101332,0.099331,0.077504,-0.002915,0.000589,-0.000259,,,,,,,,
1697106410.024927,309695.000000,1697106410.000698,-0.101253,0.097140,0.076665,-0.002874,0.000583,-0.000254,,,,,,,,
1697106410.033049,309696.000000,1697106410.010798,-0.101759,0.095516,0.076472,-0.002846,0.000580,-0.000248,,,,,,,,
1697106410.042149,309697.000000,1697106410.020821,-0.101949,0.093879,0.076567,-0.002814,0.000580,-0.000239,,,,,,,,
1697106410.051002,309698.000000,1697106410.030946,-0.101258,0.091818,0.076351,-0.002765,0.000579,-0.000229,,,,,,,,
1697106410.057581,309699.000000,1697106410.040802,-0.099641,0.089355,0.075318,-0.002699,0.000575,-0.000220,,,,,,,,
1697106410.073258,309700.000000,1697106410.050758,-0.098156,0.087613,0.074141,-0.002643,0.000573,-0.000214,,,,,,,,
1697106410.076169,309701.000000,1697106410.061357,-0.097540,0.087216,0.073603,-0.002617,0.000577,-0.000212,,,,,,,,
1697106410.093980,309702.000000,1697106410.070677,-0.096578,0.087030,0.073021,-0.002591,0.000581,-0.000210,,,,,,,,
1697106410.099455,309704.000000,1697106410.090680,-0.094356,0.087570,0.072361,-0.002561,0.000592,-0.000207,,,,,,,,
1697106410.108805,309705.000000,1697106410.100812,-0.093215,0.088186,0.072577,-0.002555,0.000603,-0.000202,,,,,,,,
1697106410.123551,309706.000000,1697106410.110657,-0.091918,0.088774,0.072945,-0.002550,0.000617,-0.000194,,,,,,,,
1697106410.134631,309707.000000,1697106410.120773,-0.091498,0.090092,0.073852,-0.002566,0.000636,-0.000186,,,,,,,,
1697106410.141454,309708.000000,1697106410.131032,-0.092194,0.092293,0.075392,-0.002606,0.000660,-0.000181,,,,,,,,
1697106410.152187,309709.000000,1697106410.140685,-0.093897,0.095215,0.077764,-0.002669,0.000687,-0.000178,,,,,,,,
1697106410.161825,309710.000000,1697106410.151745,-0.095918,0.098117,0.080544,-0.002735,0.000715,-0.000178,,,,,,,,
1697106410.171176,309711.000000,1697106410.161144,-0.096896,0.099851,0.082708,-0.002776,0.000736,-0.000178,,,,,,,,
1697106410.188089,309712.000000,1697106410.171579,-0.097761,0.101562,0.085214,-0.002819,0.000759,-0.000177,,,,,,,,
1697106410.206633,309713.000000,1697106410.181546,-0.100664,0.105154,0.089796,-0.002912,0.000800,-0.000177,,,,,,,,
1697106410.212573,309715.000000,1697106410.200896,-0.107881,0.112352,0.100089,-0.003111,0.000879,-0.000167,,,,,,,,
1697106410.221112,309716.000000,1697106410.210800,-0.109130,0.113058,0.102760,-0.003141,0.000892,-0.000155,,,,,,,,
1697106410.232923,309717.000000,1697106410.220849,-0.109697,0.112603,0.103952,-0.003144,0.000891,-0.000141,,,,,,,,
1697106410.241468,309718.000000,1697106410.231377,-0.110629,0.111911,0.104578,-0.003146,0.000885,-0.000127,,,,,,,,
1697106410.252061,309719.000000,1697106410.241738,-0.112392,0.111563,0.105441,-0.003161,0.000882,-0.000116,,,,,,,,
1697106410.261584,309720.000000,1697106410.250768,-0.115683,0.112563,0.107444,-0.003210,0.000885,-0.000109,,,,,,,,
1697106410.276905,309721.000000,1697106410.265232,-0.120019,0.114465,0.110706,-0.003287,0.000892,-0.000103,,,,,,,,
1697106410.288136,309722.000000,1697106410.270879,-0.122935,0.114569,0.113113,-0.003328,0.000893,-0.000097,,,,,,,,
1697106410.290546,309723.000000,1697106410.280807,-0.123429,0.112022,0.113281,-0.003309,0.000880,-0.000092,,,,,,,,
1697106410.300997,309724.000000,1697106410.290775,-0.122114,0.107989,0.111536,-0.003246,0.000859,-0.000089,,,,,,,,
1697106410.321323,309725.000000,1697106410.301051,-0.120143,0.103833,0.108890,-0.003168,0.000835,-0.000082,,,,,,,,
1697106410.331931,309727.000000,1697106410.320776,-0.115798,0.096715,0.101847,-0.003011,0.000780,-0.000066,,,,,,,,
1697106410.349942,309728.000000,1697106410.330806,-0.111024,0.092145,0.095954,-0.002888,0.000742,-0.000058,,,,,,,,
1697106410.368742,309730.000000,1697106410.350854,-0.100555,0.083974,0.084465,-0.002646,0.000674,-0.000042,,,,,,,,
1697106410.379830,309731.000000,1697106410.361204,-0.096380,0.081565,0.080147,-0.002561,0.000651,-0.000029,,,,,,,,
1697106410.389659,309732.000000,1697106410.371022,-0.093476,0.080364,0.077357,-0.002509,0.000636,-0.000015,,,,,,,,
1697106410.403660,309733.000000,1697106410.380737,-0.092315,0.080671,0.076318,-0.002499,0.000631,-0.000002,,,,,,,,
1697106410.413111,309735.000000,1697106410.400684,-0.093713,0.083895,0.076770,-0.002556,0.000628,0.000025,,,,,,,,
1697106410.425358,309736.000000,1697106410.410903,-0.093141,0.084090,0.075451,-0.002544,0.000614,0.000037,,,,,,,,
1697106410.446146,309737.000000,1697106410.422920,-0.091871,0.083596,0.073219,-0.002513,0.000594,0.000045,,,,,,,,
1697106410.448535,309738.000000,1697106410.430792,-0.090526,0.083058,0.070860,-0.002480,0.000574,0.000051,,,,,,,,
1697106410.453760,309739.000000,1697106410.440962,-0.088020,0.081335,0.067653,-0.002416,0.000548,0.000056,,,,,,,,
1697106410.463082,309740.000000,1697106410.450960,-0.083651,0.077507,0.062819,-0.002297,0.000512,0.000059,,,,,,,,
1697106410.473054,309741.000000,1697106410.462613,-0.078745,0.072868,0.057263,-0.002158,0.000472,0.000059,,,,,,,,
1697106410.496726,309742.000000,1697106410.473799,-0.074800,0.069077,0.052271,-0.002042,0.000436,0.000059,,,,,,,,
1697106410.504263,309744.000000,1697106410.490712,-0.070622,0.064671,0.044558,-0.001899,0.000381,0.000056,,,,,,,,
1697106410.520314,309745.000000,1697106410.500772,-0.069911,0.063325,0.041452,-0.001857,0.000358,0.000050,,,,,,,,
1697106410.529120,309746.000000,1697106410.510921,-0.069124,0.061859,0.038493,-0.001815,0.000336,0.000042,,,,,,,,
1697106410.542152,309747.000000,1697106410.524628,-0.068262,0.060395,0.035650,-0.001773,0.000316,0.000032,,,,,,,,
1697106410.553236,309748.000000,1697106410.534315,-0.067529,0.059067,0.032938,-0.001735,0.000299,0.000018,,,,,,,,
1697106410.559795,309749.000000,1697106410.541524,-0.066965,0.057876,0.030465,-0.001703,0.000283,0.000003,,,,,,,,
1697106410.569468,309750.000000,1697106410.551646,-0.066561,0.056935,0.028317,-0.001677,0.000271,-0.000013,,,,,,,,
1697106410.576356,309751.000000,1697106410.560684,-0.065964,0.055912,0.026232,-0.001649,0.000261,-0.000028,,,,,,,,
1697106410.588609,309752.000000,1697106410.570780,-0.065068,0.054609,0.024241,-0.001612,0.000250,-0.000042,,,,,,,,
1697106410.599554,309753.000000,1697106410.580952,-0.063715,0.052963,0.022577,-0.001566,0.000239,-0.000054,,,,,,,,
1697106410.616580,309755.000000,1697106410.600686,-0.060776,0.049965,0.020428,-0.001482,0.000225,-0.000074,,,,,,,,
1697106410.624584,309756.000000,1697106410.610792,-0.062878,0.051541,0.020841,-0.001524,0.000230,-0.000086,,,,,,,,
1697106410.637508,309757.000000,1697106410.620808,-0.067416,0.055074,0.022006,-0.001620,0.000243,-0.000100,,,,,,,,
1697106410.650059,309758.000000,1697106410.630801,-0.072535,0.059134,0.023195,-0.001729,0.000257,-0.000114,,,,,,,,
1697106410.658827,309759.000000,1697106410.640897,-0.078465,0.064101,0.024506,-0.001857,0.000273,-0.000131,,,,,,,,
1697106410.671900,309760.000000,1697106410.652011,-0.085782,0.070412,0.026046,-0.002018,0.000292,-0.000150,,,,,,,,
1697106410.680012,309762.000000,1697106410.670750,-0.099086,0.081824,0.029149,-0.002303,0.000328,-0.000188,,,,,,,,
1697106410.693143,309763.000000,1697106410.681131,-0.104043,0.086019,0.030882,-0.002405,0.000344,-0.000202,,,,,,,,
1697106410.707110,309764.000000,1697106410.690813,-0.107730,0.089354,0.032970,-0.002483,0.000361,-0.000209,,,,,,,,
1697106410.721823,309765.000000,1697106410.700817,-0.109531,0.091388,0.035209,-0.002526,0.000379,-0.000210,,,,,,,,
1697106410.722900,309766.000000,1697106410.710875,-0.108746,0.091448,0.036814,-0.002519,0.000390,-0.000205,,,,,,,,
1697106410.733400,309767.000000,1697106410.720954,-0.105350,0.089484,0.037269,-0.002462,0.000392,-0.000197,,,,,,,,
1697106410.743536,309768.000000,1697106410.730677,-0.099741,0.085739,0.036628,-0.002359,0.000388,-0.000189,,,,,,,,
1697106410.764013,309769.000000,1697106410.740762,-0.091606,0.079692,0.034867,-0.002200,0.000378,-0.000180,,,,,,,,
1697106410.772950,309770.000000,1697106410.750753,-0.081331,0.071532,0.032119,-0.001987,0.000358,-0.000167,,,,,,,,
1697106410.781371,309771.000000,1697106410.760799,-0.070245,0.062440,0.028694,-0.001748,0.000330,-0.000150,,,,,,,,
1697106410.785845,309772.000000,1697106410.770751,-0.059454,0.053496,0.025059,-0.001507,0.000298,-0.000132,,,,,,,,
1697106410.791832,309773.000000,1697106410.780658,-0.049921,0.045634,0.021761,-0.001291,0.000267,-0.000115,,,,,,,,
1697106410.805137,309774.000000,1697106410.791827,-0.042139,0.039258,0.019090,-0.001114,0.000240,-0.000101,,,,,,,,
1697106410.828677,309776.000000,1697106410.812025,-0.031677,0.030898,0.015855,-0.000880,0.000201,-0.000082,,,,,,,,
1697106410.843159,309777.000000,1697106410.821795,-0.027856,0.027887,0.014724,-0.000794,0.000185,-0.000074,,,,,,,,
1697106410.853468,309779.000000,1697106410.840802,-0.018829,0.019816,0.011019,-0.000566,0.000137,-0.000051,,,,,,,,
1697106410.864683,309780.000000,1697106410.851758,-0.014170,0.015241,0.008674,-0.000437,0.000108,-0.000039,,,,,,,,
1697106410.879165,309781.000000,1697106410.860913,-0.010798,0.011834,0.006884,-0.000340,0.000086,-0.000030,,,,,,,,
1697106410.890667,309782.000000,1697106410.870792,-0.009056,0.010101,0.005992,-0.000291,0.000074,-0.000025,,,,,,,,
1697106410.892409,309783.000000,1697106410.880757,-0.008769,0.009929,0.005997,-0.000286,0.000074,-0.000025,,,,,,,,
1697106410.905483,309784.000000,1697106410.890996,-0.009724,0.011134,0.006860,-0.000320,0.000083,-0.000028,,,,,,,,
1697106410.914100,309785.000000,1697106410.900826,-0.010863,0.012567,0.007923,-0.000360,0.000094,-0.000032,,,,,,,,
1697106410.929759,309786.000000,1697106410.910805,-0.011069,0.012946,0.008373,-0.000371,0.000098,-0.000033,,,,,,,,
1697106410.935016,309787.000000,1697106410.920827,-0.010782,0.012713,0.008434,-0.000365,0.000097,-0.000033,,,,,,,,
1697106410.945154,309788.000000,1697106410.930887,-0.010583,0.012496,0.008477,-0.000359,0.000096,-0.000033,,,,,,,,
1697106410.957943,309789.000000,1697106410.940754,-0.010747,0.012631,0.008735,-0.000364,0.000097,-0.000035,,,,,,,,
1697106410.970290,309790.000000,1697106410.950767,-0.011087,0.012937,0.009096,-0.000374,0.000099,-0.000038,,,,,,,,
1697106410.984576,309792.000000,1697106410.970777,-0.008629,0.009860,0.007116,-0.000288,0.000075,-0.000032,,,,,,,,
1697106410.994669,309793.000000,1697106410.980785,-0.006237,0.007032,0.005148,-0.000207,0.000054,-0.000024,,,,,,,,
1697106411.005977,309794.000000,1697106410.991153,-0.003009,0.003361,0.002491,-0.000100,0.000026,-0.000012,,,,,,,,
1697106411.013607,309795.000000,1697106411.000917,0.000000,0.000000,0.000000,0.000000,0.000000,0.000000,,,,,,,,
1697106411.024215,309796.000000,1697106411.010790,0.000000,0.000000,0.000000,0.000000,0.000000,0.000000,,,,,,,,
1697106411.040797,309797.000000,1697106411.020753,0.000000,0.000000,0.000000,0.000000,0.000000,0.000000,,,,,,,,
1697106411.050984,309799.000000,1697106411.040678,0.000000,0.000000,0.000000,0.000000,0.000000,0.000000,,,,,,,,
1697106411.066578,309800.000000,1697106411.050767,0.000000,0.000000,0.000000,0.000000,0.000000,0.000000,,,,,,,,
1697106411.075808,309801.000000,1697106411.060886,0.000000,0.000000,0.000000,0.000000,0.000000,0.000000,,,,,,,,
1697106411.089999,309802.000000,1697106411.071019,0.000000,0.000000,0.000000,0.000000,0.000000,0.000000,,,,,,,,
1697106411.104646,309804.000000,1697106411.091340,0.000000,0.000000,0.000000,0.000000,0.000000,0.000000,,,,,,,,
1697106411.118222,309805.000000,1697106411.100944,0.000000,0.000000,0.000000,0.000000,0.000000,0.000000,,,,,,,,
1697106411.136323,309806.000000,1697106411.111024,-0.004742,0.005615,0.004361,-0.000171,0.000043,-0.000023,,,,,,,,
1697106411.143671,309808.000000,1697106411.130798,-0.014728,0.017899,0.013389,-0.000531,0.000131,-0.000071,,,,,,,,
1697106411.158326,309809.000000,1697106411.140774,-0.020534,0.025122,0.018462,-0.000737,0.000179,-0.000098,,,,,,,,
1697106411.180068,309810.000000,1697106411.150785,-0.026510,0.032564,0.023597,-0.000945,0.000225,-0.000126,,,,,,,,
1697106411.187974,309812.000000,1697106411.170920,-0.039105,0.048319,0.033974,-0.001370,0.000313,-0.000186,,,,,,,,
1697106411.194510,309813.000000,1697106411.180663,-0.046144,0.057280,0.039704,-0.001604,0.000360,-0.000219,,,,,,,,
1697106411.208134,309814.000000,1697106411.191499,-0.052492,0.065458,0.044889,-0.001813,0.000401,-0.000248,,,,,,,,
1697106411.229112,309815.000000,1697106411.200805,-0.057124,0.071286,0.048520,-0.001962,0.000430,-0.000269,,,,,,,,
1697106411.236042,309816.000000,1697106411.210794,-0.060630,0.075413,0.051048,-0.002068,0.000449,-0.000283,,,,,,,,
1697106411.244665,309817.000000,1697106411.220812,-0.064011,0.079268,0.053344,-0.002166,0.000467,-0.000295,,,,,,,,
1697106411.252315,309818.000000,1697106411.230805,-0.067510,0.083027,0.055514,-0.002261,0.000485,-0.000305,,,,,,,,
1697106411.259772,309819.000000,1697106411.241034,-0.070982,0.086278,0.057211,-0.002345,0.000501,-0.000315,,,,,,,,
1697106411.271784,309820.000000,1697106411.250630,-0.073700,0.088234,0.057804,-0.002398,0.000509,-0.000323,,,,,,,,
1697106411.283613,309821.000000,1697106411.260824,-0.074924,0.088276,0.057024,-0.002403,0.000506,-0.000327,,,,,,,,
1697106411.285789,309822.000000,1697106411.270783,-0.074800,0.086916,0.055266,-0.002370,0.000497,-0.000326,,,,,,,,
1697106411.295090,309823.000000,1697106411.281061,-0.074526,0.085518,0.053450,-0.002336,0.000489,-0.000325,,,,,,,,
1697106411.303390,309824.000000,1697106411.290728,-0.075296,0.085058,0.052390,-0.002328,0.000486,-0.000327,,,,,,,,
1697106411.317268,309825.000000,1697106411.300769,-0.076883,0.085485,0.051945,-0.002344,0.000487,-0.000331,,,,,,,,
1697106411.335105,309826.000000,1697106411.310956,-0.078215,0.086174,0.051491,-0.002364,0.000488,-0.000334,,,,,,,,
1697106411.346457,309827.000000,1697106411.320661,-0.078371,0.086094,0.050507,-0.002362,0.000485,-0.000333,,,,,,,,
1697106411.351294,309829.000000,1697106411.340799,-0.076222,0.083275,0.047486,-0.002295,0.000469,-0.000323,,,,,,,,
1697106411.360732,309830.000000,1697106411.350782,-0.073854,0.080203,0.045523,-0.002223,0.000455,-0.000312,,,,,,,,
1697106411.370336,309831.000000,1697106411.360670,-0.069701,0.075043,0.042732,-0.002097,0.000431,-0.000292,,,,,,,,
1697106411.380385,309832.000000,1697106411.370786,-0.064983,0.069079,0.039770,-0.001952,0.000403,-0.000269,,,,,,,,
1697106411.390471,309833.000000,1697106411.380981,-0.061391,0.064183,0.037532,-0.001835,0.000378,-0.000251,,,,,,,,
1697106411.405567,309834.000000,1697106411.390670,-0.059839,0.061322,0.036418,-0.001769,0.000363,-0.000243,,,,,,,,
1697106411.419378,309835.000000,1697106411.400939,-0.059901,0.059998,0.036132,-0.001745,0.000356,-0.000243,,,,,,,,
1697106411.435976,309837.000000,1697106411.420829,-0.062015,0.059400,0.036575,-0.001752,0.000357,-0.000254,,,,,,,,
1697106411.442593,309838.000000,1697106411.430747,-0.062433,0.058626,0.036613,-0.001740,0.000358,-0.000258,,,,,,,,
1697106411.452739,309839.000000,1697106411.440897,-0.061733,0.056767,0.036193,-0.001698,0.000355,-0.000255,,,,,,,,
1697106411.463162,309840.000000,1697106411.450874,-0.060448,0.054463,0.035665,-0.001644,0.000351,-0.000248,,,,,,,,
1697106411.475209,309841.000000,1697106411.460791,-0.058422,0.051716,0.034903,-0.001576,0.000345,-0.000237,,,,,,,,
1697106411.489639,309842.000000,1697106411.472494,-0.055990,0.048793,0.033897,-0.001501,0.000337,-0.000225,,,,,,,,
1697106411.490541,309843.000000,1697106411.481033,-0.053678,0.046020,0.032801,-0.001429,0.000329,-0.000213,,,,,,,,
1697106411.501274,309844.000000,1697106411.490785,-0.051185,0.043215,0.031431,-0.001355,0.000316,-0.000201,,,,,,,,
1697106411.518145,309845.000000,1697106411.500919,-0.048316,0.040380,0.029714,-0.001275,0.000301,-0.000188,,,,,,,,
1697106411.533040,309846.000000,1697106411.515160,-0.045030,0.037498,0.027693,-0.001188,0.000283,-0.000176,,,,,,,,
1697106411.541732,309848.000000,1697106411.530763,-0.037515,0.031705,0.023160,-0.001001,0.000239,-0.000151,,,,,,,,
1697106411.565856,309849.000000,1697106411.540751,-0.034567,0.029667,0.021488,-0.000932,0.000222,-0.000144,,,,,,,,
1697106411.575429,309850.000000,1697106411.550937,-0.032098,0.027992,0.020061,-0.000874,0.000207,-0.000139,,,,,,,,
1697106411.578592,309851.000000,1697106411.560769,-0.029472,0.026035,0.018379,-0.000809,0.000190,-0.000133,,,,,,,,
1697106411.585264,309852.000000,1697106411.570762,-0.026533,0.023684,0.016446,-0.000733,0.000171,-0.000125,,,,,,,,
1697106411.610777,309853.000000,1697106411.580657,-0.023190,0.020868,0.014333,-0.000645,0.000149,-0.000114,,,,,,,,
1697106411.615684,309854.000000,1697106411.591000,-0.019196,0.017370,0.011914,-0.000538,0.000124,-0.000098,,,,,,,,
1697106411.625325,309856.000000,1697106411.610754,-0.010914,0.009967,0.007024,-0.000313,0.000072,-0.000059,,,,,,,,
1697106411.638932,309857.000000,1697106411.621180,-0.008439,0.007729,0.005552,-0.000244,0.000057,-0.000047,,,,,,,,
1697106411.640710,309858.000000,1697106411.630807,-0.007922,0.007250,0.005322,-0.000230,0.000053,-0.000045,,,,,,,,
1697106411.654203,309859.000000,1697106411.640780,-0.008557,0.007786,0.005869,-0.000249,0.000058,-0.000048,,,,,,,,
1697106411.671015,309860.000000,1697106411.651031,-0.009364,0.008430,0.006550,-0.000272,0.000063,-0.000052,,,,,,,,
1697106411.677322,309861.000000,1697106411.660795,-0.009914,0.008802,0.007065,-0.000287,0.000067,-0.000054,,,,,,,,
1697106411.683450,309862.000000,1697106411.670794,-0.010616,0.009255,0.007679,-0.000304,0.000071,-0.000057,,,,,,,,
1697106411.704005,309863.000000,1697106411.680758,-0.012695,0.010798,0.009232,-0.000358,0.000083,-0.000066,,,,,,,,
1697106411.713857,309865.000000,1697106411.700670,-0.019614,0.015733,0.013985,-0.000529,0.000121,-0.000092,,,,,,,,
1697106411.724270,309866.000000,1697106411.710796,-0.022765,0.017869,0.016032,-0.000603,0.000137,-0.000100,,,,,,,,
1697106411.740496,309867.000000,1697106411.721119,-0.027289,0.021136,0.018948,-0.000710,0.000160,-0.000112,,,,,,,,
1697106411.753963,309869.000000,1697106411.741543,-0.039492,0.030151,0.026279,-0.000992,0.000216,-0.000142,,,,,,,,
1697106411.771818,309870.000000,1697106411.750774,-0.044220,0.033742,0.028657,-0.001095,0.000235,-0.000150,,,,,,,,
1697106411.789254,309871.000000,1697106411.761071,-0.047316,0.036215,0.029799,-0.001160,0.000246,-0.000153,,,,,,,,
1697106411.794151,309872.000000,1697106411.770653,-0.049637,0.038164,0.030455,-0.001208,0.000252,-0.000154,,,,,,,,
1697106411.802346,309873.000000,1697106411.780792,-0.051998,0.040195,0.031182,-0.001258,0.000259,-0.000157,,,,,,,,
1697106411.816720,309874.000000,1697106411.791886,-0.054734,0.042606,0.032056,-0.001318,0.000267,-0.000163,,,,,,,,
1697106411.817049,309875.000000,1697106411.800925,-0.057429,0.045212,0.032849,-0.001378,0.000275,-0.000171,,,,,,,,
1697106411.830979,309876.000000,1697106411.810891,-0.060397,0.048331,0.033879,-0.001448,0.000285,-0.000181,,,,,,,,
1697106411.836929,309877.000000,1697106411.820756,-0.064372,0.052458,0.035674,-0.001543,0.000301,-0.000195,,,,,,,,
1697106411.846295,309878.000000,1697106411.830906,-0.069431,0.057491,0.038232,-0.001662,0.000322,-0.000212,,,,,,,,
1697106411.857577,309879.000000,1697106411.840667,-0.075101,0.062866,0.041106,-0.001794,0.000344,-0.000229,,,,,,,,
1697106411.874352,309880.000000,1697106411.850750,-0.080159,0.067351,0.043622,-0.001908,0.000362,-0.000243,,,,,,,,
1697106411.883423,309881.000000,1697106411.860752,-0.083896,0.070299,0.045477,-0.001989,0.000372,-0.000254,,,,,,,,
1697106411.885112,309882.000000,1697106411.873397,-0.087157,0.072774,0.047348,-0.002059,0.000380,-0.000263,,,,,,,,
1697106411.897078,309883.000000,1697106411.880795,-0.090560,0.075639,0.049957,-0.002137,0.000393,-0.000273,,,,,,,,
1697106411.913995,309884.000000,1697106411.890740,-0.093414,0.078273,0.052804,-0.002208,0.000408,-0.000283,,,,,,,,
1697106411.924551,309886.000000,1697106411.910665,-0.096906,0.081271,0.057209,-0.002303,0.000426,-0.000302,,,,,,,,
1697106411.938602,309887.000000,1697106411.921288,-0.096982,0.080683,0.057695,-0.002304,0.000422,-0.000309,,,,,,,,
1697106411.950923,309888.000000,1697106411.933306,-0.095509,0.078547,0.057011,-0.002268,0.000411,-0.000309,,,,,,,,
1697106411.962156,309890.000000,1697106411.950783,-0.091670,0.073748,0.054528,-0.002178,0.000393,-0.000304,,,,,,,,
1697106411.971793,309891.000000,1697106411.960912,-0.087395,0.069908,0.051478,-0.002085,0.000380,-0.000291,,,,,,,,
1697106411.985828,309892.000000,1697106411.970962,-0.080900,0.064460,0.047095,-0.001941,0.000361,-0.000269,,,,,,,,
1697106411.998666,309893.000000,1697106411.980626,-0.072233,0.057350,0.041447,-0.001746,0.000333,-0.000238,,,,,,,,
1697106412.014901,309894.000000,1697106411.991102,-0.061904,0.049053,0.034780,-0.001510,0.000295,-0.000201,,,,,,,,
1697106412.020963,309895.000000,1697106412.005130,-0.051548,0.040897,0.028286,-0.001271,0.000254,-0.000165,,,,,,,,
1697106412.026177,309896.000000,1697106412.011148,-0.041790,0.033320,0.022529,-0.001044,0.000213,-0.000132,,,,,,,,
1697106412.034060,309897.000000,1697106412.020874,-0.031179,0.025125,0.016706,-0.000795,0.000167,-0.000098,,,,,,,,
1697106412.046690,309898.000000,1697106412.030794,-0.019609,0.016070,0.010615,-0.000513,0.000111,-0.000061,,,,,,,,
1697106412.057190,309899.000000,1697106412.040908,-0.008517,0.007125,0.004715,-0.000230,0.000052,-0.000026,,,,,,,,
1697106412.067715,309900.000000,1697106412.050946,0.000000,0.000000,0.000000,0.000000,0.000000,0.000000,,,,,,,,
1697106412.076374,309901.000000,1697106412.060791,0.000000,0.000000,0.000000,0.000000,0.000000,0.000000,,,,,,,,
1697106412.088530,309902.000000,1697106412.071144,0.000000,0.000000,0.000000,0.000000,0.000000,0.000000,,,,,,,,
1697106412.097743,309903.000000,1697106412.080791,0.000000,0.000000,0.000000,0.000000,0.000000,0.000000,,,,,,,,
1697106412.110929,309904.000000,1697106412.094407,0.000000,0.000000,0.000000,0.000000,0.000000,0.000000,,,,,,,,
1697106412.115309,309905.000000,1697106412.102292,0.000000,0.000000,0.000000,0.000000,0.000000,0.000000,,,,,,,,
1697106412.120008,309906.000000,1697106412.110877,0.000000,0.000000,0.000000,0.000000,0.000000,0.000000,,,,,,,,
1697106412.137983,309907.000000,1697106412.120779,0.000000,0.000000,0.000000,0.000000,0.000000,0.000000,,,,,,,,
1697106412.159268,309908.000000,1697106412.143475,0.000000,0.000000,0.000000,0.000000,0.000000,0.000000,,,,,,,,
1697106412.165397,309910.000000,1697106412.150836,0.000000,0.000000,0.000000,0.000000,0.000000,0.000000,,,,,,,,
1697106412.180546,309911.000000,1697106412.166480,0.000000,0.000000,0.000000,0.000000,0.000000,0.000000,,,,,,,,
1697106412.189192,309912.000000,1697106412.170750,0.000000,0.000000,0.000000,0.000000,0.000000,0.000000,,,,,,,,
1697106412.201944,309913.000000,1697106412.183754,0.000000,0.000000,0.000000,0.000000,0.000000,0.000000,,,,,,,,
1697106412.209275,309914.000000,1697106412.190746,0.000000,0.000000,0.000000,0.000000,0.000000,0.000000,,,,,,,,
1697106412.223661,309915.000000,1697106412.203738,-0.000044,0.000043,0.000039,-0.000001,0.000000,-0.000000,,,,,,,,
1697106412.235862,309916.000000,1697106412.211182,-0.003819,0.003686,0.003496,-0.000124,0.000028,-0.000008,,,,,,,,
1697106412.242193,309918.000000,1697106412.230912,-0.005865,0.005723,0.005788,-0.000194,0.000044,-0.000012,,,,,,,,
1697106412.265674,309919.000000,1697106412.246247,-0.005000,0.004922,0.005064,-0.000167,0.000038,-0.000011,,,,,,,,
1697106412.273180,309921.000000,1697106412.262272,-0.003026,0.003063,0.003192,-0.000104,0.000024,-0.000007,,,,,,,,
1697106412.291203,309922.000000,1697106412.270831,-0.001720,0.001778,0.001857,-0.000060,0.000014,-0.000004,,,,,,,,
1697106412.300186,309923.000000,1697106412.280901,-0.000419,0.000443,0.000462,-0.000015,0.000004,-0.000001,,,,,,,,
1697106412.309119,309924.000000,1697106412.292440,0.000000,0.000000,0.000000,0.000000,0.000000,0.000000,,,,,,,,
1697106412.322365,309925.000000,1697106412.302935,0.000000,0.000000,0.000000,0.000000,0.000000,0.000000,,,,,,,,
1697106412.330196,309926.000000,1697106412.310748,0.000000,0.000000,0.000000,0.000000,0.000000,0.000000,,,,,,,,
1697106412.338535,309927.000000,1697106412.320878,0.000000,0.000000,0.000000,0.000000,0.000000,0.000000,,,,,,,,
1697106412.362921,309928.000000,1697106412.330781,0.000000,0.000000,0.000000,0.000000,0.000000,0.000000,,,,,,,,
1697106412.368726,309930.000000,1697106412.350916,0.000000,0.000000,0.000000,0.000000,0.000000,0.000000,,,,,,,,
1697106412.373739,309931.000000,1697106412.360752,0.000000,0.000000,0.000000,0.000000,0.000000,0.000000,,,,,,,,
1697106412.393314,309932.000000,1697106412.370919,0.000000,0.000000,0.000000,0.000000,0.000000,0.000000,,,,,,,,
1697106412.401398,309933.000000,1697106412.384029,0.000000,0.000000,0.000000,0.000000,0.000000,0.000000,,,,,,,,
1697106412.414289,309934.000000,1697106412.392249,0.000000,0.000000,0.000000,0.000000,0.000000,0.000000,,,,,,,,
1697106412.420585,309935.000000,1697106412.400918,0.000000,0.000000,0.000000,0.000000,0.000000,0.000000,,,,,,,,
1697106412.429734,309936.000000,1697106412.410759,0.000000,0.000000,0.000000,0.000000,0.000000,0.000000,,,,,,,,
1697106412.438305,309937.000000,1697106412.420916,0.000000,0.000000,0.000000,0.000000,0.000000,0.000000,,,,,,,,
1697106412.444306,309938.000000,1697106412.431212,0.000000,0.000000,0.000000,0.000000,0.000000,0.000000,,,,,,,,
1697106412.450918,309939.000000,1697106412.440765,0.000000,0.000000,0.000000,0.000000,0.000000,0.000000,,,,,,,,
1697106412.462243,309940.000000,1697106412.451202,0.000000,0.000000,0.000000,0.000000,0.000000,0.000000,,,,,,,,
1697106412.467869,309941.000000,1697106412.460793,0.000000,0.000000,0.000000,0.000000,0.000000,0.000000,,,,,,,,
1697106412.478369,309942.000000,1697106412.470771,0.000000,0.000000,0.000000,0.000000,0.000000,0.000000,,,,,,,,
1697106412.499142,309943.000000,1697106412.485692,0.000000,0.000000,0.000000,0.000000,0.000000,0.000000,,,,,,,,
1697106412.510761,309944.000000,1697106412.492622,0.000000,0.000000,0.000000,0.000000,0.000000,0.000000,,,,,,,,
1697106412.526261,309945.000000,1697106412.502089,0.000000,0.000000,0.000000,0.000000,0.000000,0.000000,,,,,,,,
1697106412.529085,309946.000000,1697106412.511526,0.000000,0.000000,0.000000,0.000000,0.000000,0.000000,,,,,,,,
1697106412.538851,309947.000000,1697106412.522348,0.000000,0.000000,0.000000,0.000000,0.000000,0.000000,,,,,,,,
1697106412.550427,309948.000000,1697106412.532566,0.000000,0.000000,0.000000,0.000000,0.000000,0.000000,,,,,,,,
1697106412.575655,309949.000000,1697106412.540920,0.000000,0.000000,0.000000,0.000000,0.000000,0.000000,,,,,,,,
1697106412.583426,309951.000000,1697106412.560844,-0.000387,0.000389,0.000262,-0.000012,0.000003,-0.000001,,,,,,,,
1697106412.599230,309952.000000,1697106412.570785,-0.005477,0.005468,0.003581,-0.000170,0.000043,-0.000020,,,,,,,,
1697106412.600523,309953.000000,1697106412.580780,-0.010174,0.010085,0.006476,-0.000310,0.000078,-0.000036,,,,,,,,
1697106412.609700,309954.000000,1697106412.590995,-0.014539,0.014346,0.009111,-0.000438,0.000109,-0.000050,,,,,,,,
1697106412.625082,309955.000000,1697106412.601373,-0.017881,0.017610,0.011153,-0.000534,0.000132,-0.000059,,,,,,,,
1697106412.641979,309956.000000,1697106412.611491,-0.019918,0.019584,0.012452,-0.000591,0.000146,-0.000064,,,,,,,,
1697106412.642341,309957.000000,1697106412.624207,-0.020339,0.019930,0.012822,-0.000600,0.000150,-0.000063,,,,,,,,
1697106412.661487,309958.000000,1697106412.631532,-0.020036,0.019518,0.012780,-0.000589,0.000147,-0.000060,,,,,,,,
1697106412.664726,309959.000000,1697106412.642808,-0.019745,0.019019,0.012683,-0.000576,0.000144,-0.000056,,,,,,,,
1697106412.684492,309961.000000,1697106412.661136,-0.018343,0.016992,0.011792,-0.000522,0.000128,-0.000046,,,,,,,,
1697106412.716378,309963.000000,1697106412.682183,-0.016817,0.014795,0.010852,-0.000464,0.000111,-0.000038,,,,,,,,
1697106412.733044,309966.000000,1697106412.712825,-0.012555,0.010312,0.007931,-0.000333,0.000074,-0.000026,,,,,,,,
1697106412.741722,309967.000000,1697106412.720934,-0.010570,0.008552,0.006603,-0.000279,0.000060,-0.000021,,,,,,,,
1697106412.745776,309968.000000,1697106412.733153,-0.008107,0.006499,0.005033,-0.000213,0.000045,-0.000016,,,,,,,,
1697106412.754877,309969.000000,1697106412.743566,-0.005752,0.004588,0.003558,-0.000151,0.000031,-0.000011,,,,,,,,
1697106412.764131,309970.000000,1697106412.751959,-0.004169,0.003314,0.002559,-0.000110,0.000022,-0.000007,,,,,,,,
1697106412.774039,309971.000000,1697106412.761146,-0.003547,0.002813,0.002147,-0.000093,0.000019,-0.000006,,,,,,,,
1697106412.785560,309972.000000,1697106412.770944,-0.003543,0.002808,0.002113,-0.000093,0.000018,-0.000005,,,,,,,,
1697106412.794147,309973.000000,1697106412.782564,-0.003574,0.002846,0.002113,-0.000094,0.000018,-0.000005,,,,,,,,
1697106412.811655,309974.000000,1697106412.803161,-0.003435,0.002757,0.002022,-0.000091,0.000018,-0.000005,,,,,,,,
1697106412.818173,309975.000000,1697106412.804978,-0.002847,0.002307,0.001672,-0.000076,0.000015,-0.000004,,,,,,,,
1697106412.818188,309976.000000,1697106412.810740,-0.001637,0.001343,0.000960,-0.000044,0.000009,-0.000002,,,,,,,,
1697106412.832701,309977.000000,1697106412.820743,0.000000,0.000000,0.000000,0.000000,0.000000,0.000000,,,,,,,,
1697106412.845806,309978.000000,1697106412.830772,0.000000,0.000000,0.000000,0.000000,0.000000,0.000000,,,,,,,,
1697106412.854730,309979.000000,1697106412.840877,0.000000,0.000000,0.000000,0.000000,0.000000,0.000000,,,,,,,,
1697106412.872452,309980.000000,1697106412.852200,0.000000,0.000000,0.000000,0.000000,0.000000,0.000000,,,,,,,,
1697106412.887231,309981.000000,1697106412.860772,0.000000,0.000000,0.000000,0.000000,0.000000,0.000000,,,,,,,,
1697106412.887247,309982.000000,1697106412.872134,0.000000,0.000000,0.000000,0.000000,0.000000,0.000000,,,,,,,,
1697106412.900758,309983.000000,1697106412.881196,0.000000,0.000000,0.000000,0.000000,0.000000,0.000000,,,,,,,,
1697106412.910261,309984.000000,1697106412.891654,0.000000,0.000000,0.000000,0.000000,0.000000,0.000000,,,,,,,,
1697106412.933328,309985.000000,1697106412.901136,0.000000,0.000000,0.000000,0.000000,0.000000,0.000000,,,,,,,,
1697106412.940657,309986.000000,1697106412.917890,0.000000,0.000000,0.000000,0.000000,0.000000,0.000000,,,,,,,,
1697106412.940671,309987.000000,1697106412.920751,0.000000,0.000000,0.000000,0.000000,0.000000,0.000000,,,,,,,,
1697106412.957055,309988.000000,1697106412.931597,0.000000,0.000000,0.000000,0.000000,0.000000,0.000000,,,,,,,,
1697106412.962992,309989.000000,1697106412.942440,0.000000,0.000000,0.000000,0.000000,0.000000,0.000000,,,,,,,,
1697106412.973074,309990.000000,1697106412.952288,0.000000,0.000000,0.000000,0.000000,0.000000,0.000000,,,,,,,,
1697106412.978392,309991.000000,1697106412.961915,0.000000,0.000000,0.000000,0.000000,0.000000,0.000000,,,,,,,,
1697106412.993165,309992.000000,1697106412.973127,0.000000,0.000000,0.000000,0.000000,0.000000,0.000000,,,,,,,,
1697106413.000201,309993.000000,1697106412.982768,0.000000,0.000000,0.000000,0.000000,0.000000,0.000000,,,,,,,,
1697106413.000214,309994.000000,1697106412.990745,0.000000,0.000000,0.000000,0.000000,0.000000,0.000000,,,,,,,,
1697106413.017754,309995.000000,1697106413.006781,0.000000,0.000000,0.000000,0.000000,0.000000,0.000000,,,,,,,,
1697106413.032901,309996.000000,1697106413.012210,0.000000,0.000000,0.000000,0.000000,0.000000,0.000000,,,,,,,,
1697106413.042240,309997.000000,1697106413.023027,0.000000,0.000000,0.000000,0.000000,0.000000,0.000000,,,,,,,,
1697106413.048981,309998.000000,1697106413.032775,0.000000,0.000000,0.000000,0.000000,0.000000,0.000000,,,,,,,,
1697106413.059030,309999.000000,1697106413.051188,0.000000,0.000000,0.000000,0.000000,0.000000,0.000000,,,,,,,,
1697106413.071918,310000.000000,1697106413.053447,0.000000,0.000000,0.000000,0.000000,0.000000,0.000000,,,,,,,,
1697106413.077293,310001.000000,1697106413.060843,0.000000,0.000000,0.000000,0.000000,0.000000,0.000000,,,,,,,,
1697106413.081596,310002.000000,1697106413.073321,0.000000,0.000000,0.000000,0.000000,0.000000,0.000000,,,,,,,,
1697106413.098762,310003.000000,1697106413.081181,0.000000,0.000000,0.000000,0.000000,0.000000,0.000000,,,,,,,,
1697106413.108437,310004.000000,1697106413.093805,0.000000,0.000000,0.000000,0.000000,0.000000,0.000000,,,,,,,,
1697106413.121823,310005.000000,1697106413.105759,0.000000,0.000000,0.000000,0.000000,0.000000,0.000000,,,,,,,,
1697106413.131812,310006.000000,1697106413.113244,0.000000,0.000000,0.000000,0.000000,0.000000,0.000000,,,,,,,,
1697106413.139579,310007.000000,1697106413.121088,0.000000,0.000000,0.000000,0.000000,0.000000,0.000000,,,,,,,,
1697106413.141067,310008.000000,1697106413.132090,0.000000,0.000000,0.000000,0.000000,0.000000,0.000000,,,,,,,,
1697106413.155276,310009.000000,1697106413.142001,0.000000,0.000000,0.000000,0.000000,0.000000,0.000000,,,,,,,,
1697106413.164325,310010.000000,1697106413.150903,0.000000,0.000000,0.000000,0.000000,0.000000,0.000000,,,,,,,,
1697106413.181433,310011.000000,1697106413.163411,0.000000,0.000000,0.000000,0.000000,0.000000,0.000000,,,,,,,,
1697106413.190437,310012.000000,1697106413.174445,0.000000,0.000000,0.000000,0.000000,0.000000,0.000000,,,,,,,,
1697106413.207278,310013.000000,1697106413.181997,0.000000,0.000000,0.000000,0.000000,0.000000,0.000000,,,,,,,,
1697106413.211560,310014.000000,1697106413.190785,0.000000,0.000000,0.000000,0.000000,0.000000,0.000000,,,,,,,,
1697106413.221234,310015.000000,1697106413.202240,0.000000,0.000000,0.000000,0.000000,0.000000,0.000000,,,,,,,,
1697106413.224353,310016.000000,1697106413.210743,0.000000,0.000000,0.000000,0.000000,0.000000,0.000000,,,,,,,,
1697106413.233315,310017.000000,1697106413.221137,0.000000,0.000000,0.000000,0.000000,0.000000,0.000000,,,,,,,,
1697106413.246589,310018.000000,1697106413.231780,0.000000,0.000000,0.000000,0.000000,0.000000,0.000000,,,,,,,,
1697106413.260065,310019.000000,1697106413.243614,0.000000,0.000000,0.000000,0.000000,0.000000,0.000000,,,,,,,,
1697106413.279685,310021.000000,1697106413.260762,0.000000,0.000000,0.000000,0.000000,0.000000,0.000000,,,,,,,,
1697106413.291358,310022.000000,1697106413.271330,0.000000,0.000000,0.000000,0.000000,0.000000,0.000000,,,,,,,,
1697106413.295692,310023.000000,1697106413.280781,0.000000,0.000000,0.000000,0.000000,0.000000,0.000000,,,,,,,,
1697106413.313224,310024.000000,1697106413.290953,0.000000,0.000000,0.000000,0.000000,0.000000,0.000000,,,,,,,,
1697106413.321580,310026.000000,1697106413.310793,0.000000,0.000000,0.000000,0.000000,0.000000,0.000000,,,,,,,,
1697106413.331539,310027.000000,1697106413.320997,0.000000,0.000000,0.000000,0.000000,0.000000,0.000000,,,,,,,,
1697106413.344093,310028.000000,1697106413.331477,0.000000,0.000000,0.000000,0.000000,0.000000,0.000000,,,,,,,,
1697106413.356881,310029.000000,1697106413.345874,0.000000,0.000000,0.000000,0.000000,0.000000,0.000000,,,,,,,,
1697106413.373324,310030.000000,1697106413.354589,0.000000,0.000000,0.000000,0.000000,0.000000,0.000000,,,,,,,,
1697106413.384686,310032.000000,1697106413.373321,0.000000,0.000000,0.000000,0.000000,0.000000,0.000000,,,,,,,,
1697106413.396694,310033.000000,1697106413.383000,0.000000,0.000000,0.000000,0.000000,0.000000,0.000000,,,,,,,,
1697106413.411744,310034.000000,1697106413.390998,0.000000,0.000000,0.000000,0.000000,0.000000,0.000000,,,,,,,,
1697106413.421566,310035.000000,1697106413.402375,0.000000,0.000000,0.000000,0.000000,0.000000,0.000000,,,,,,,,
1697106413.429864,310037.000000,1697106413.420772,0.000000,0.000000,0.000000,0.000000,0.000000,0.000000,,,,,,,,
1697106413.446569,310038.000000,1697106413.431351,0.000000,0.000000,0.000000,0.000000,0.000000,0.000000,,,,,,,,
1697106413.463626,310039.000000,1697106413.443154,0.000000,0.000000,0.000000,0.000000,0.000000,0.000000,,,,,,,,
1697106413.470048,310041.000000,1697106413.460913,0.000000,0.000000,0.000000,0.000000,0.000000,0.000000,,,,,,,,
1697106413.487599,310042.000000,1697106413.473480,0.000000,0.000000,0.000000,0.000000,0.000000,0.000000,,,,,,,,
1697106413.497162,310043.000000,1697106413.480764,0.000000,0.000000,0.000000,0.000000,0.000000,0.000000,,,,,,,,
1697106413.517352,310044.000000,1697106413.490763,0.000000,0.000000,0.000000,0.000000,0.000000,0.000000,,,,,,,,
1697106413.530886,310045.000000,1697106413.505503,0.000000,0.000000,0.000000,0.000000,0.000000,0.000000,,,,,,,,
1697106413.531727,310046.000000,1697106413.510736,0.000000,0.000000,0.000000,0.000000,0.000000,0.000000,,,,,,,,
1697106413.545573,310047.000000,1697106413.520763,0.000000,0.000000,0.000000,0.000000,0.000000,0.000000,,,,,,,,
1697106413.547652,310048.000000,1697106413.530987,0.000000,0.000000,0.000000,0.000000,0.000000,0.000000,,,,,,,,
1697106413.554220,310049.000000,1697106413.541081,0.000000,0.000000,0.000000,0.000000,0.000000,0.000000,,,,,,,,
1697106413.567890,310050.000000,1697106413.550762,0.000000,0.000000,0.000000,0.000000,0.000000,0.000000,,,,,,,,
1697106413.572448,310051.000000,1697106413.560757,0.000000,0.000000,0.000000,0.000000,0.000000,0.000000,,,,,,,,
1697106413.583037,310052.000000,1697106413.570752,0.000000,0.000000,0.000000,0.000000,0.000000,0.000000,,,,,,,,
1697106413.593183,310053.000000,1697106413.580683,0.000000,0.000000,0.000000,0.000000,0.000000,0.000000,,,,,,,,
1697106413.603378,310054.000000,1697106413.591293,0.000000,0.000000,0.000000,0.000000,0.000000,0.000000,,,,,,,,
1697106413.618594,310055.000000,1697106413.601852,0.000000,0.000000,0.000000,0.000000,0.000000,0.000000,,,,,,,,
1697106413.624494,310056.000000,1697106413.611001,0.000000,0.000000,0.000000,0.000000,0.000000,0.000000,,,,,,,,
1697106413.641879,310057.000000,1697106413.620731,0.000000,0.000000,0.000000,0.000000,0.000000,0.000000,,,,,,,,
1697106413.647750,310058.000000,1697106413.631117,0.000000,0.000000,0.000000,0.000000,0.000000,0.000000,,,,,,,,
1697106413.653495,310059.000000,1697106413.640784,0.000000,0.000000,0.000000,0.000000,0.000000,0.000000,,,,,,,,
1697106413.667460,310060.000000,1697106413.651690,0.000000,0.000000,0.000000,0.000000,0.000000,0.000000,,,,,,,,
1697106413.676874,310061.000000,1697106413.660736,0.000000,0.000000,0.000000,0.000000,0.000000,0.000000,,,,,,,,
1697106413.695834,310062.000000,1697106413.671277,0.000000,0.000000,0.000000,0.000000,0.000000,0.000000,,,,,,,,
1697106413.703848,310063.000000,1697106413.680639,0.000000,0.000000,0.000000,0.000000,0.000000,0.000000,,,,,,,,
1697106413.710825,310064.000000,1697106413.690718,0.000000,0.000000,0.000000,0.000000,0.000000,0.000000,,,,,,,,
1697106413.720660,310065.000000,1697106413.700785,0.000000,0.000000,0.000000,0.000000,0.000000,0.000000,,,,,,,,
1697106413.730910,310066.000000,1697106413.710876,0.000000,0.000000,0.000000,0.000000,0.000000,0.000000,,,,,,,,
1697106413.738212,310067.000000,1697106413.721880,0.000000,0.000000,0.000000,0.000000,0.000000,0.000000,,,,,,,,
1697106413.742711,310068.000000,1697106413.730853,0.000000,0.000000,0.000000,0.000000,0.000000,0.000000,,,,,,,,
1697106413.756557,310069.000000,1697106413.741283,0.000000,0.000000,0.000000,0.000000,0.000000,0.000000,,,,,,,,
1697106413.771528,310070.000000,1697106413.750854,0.000000,0.000000,0.000000,0.000000,0.000000,0.000000,,,,,,,,
1697106413.797108,310071.000000,1697106413.760686,0.000000,0.000000,0.000000,0.000000,0.000000,0.000000,,,,,,,,
1697106413.801845,310073.000000,1697106413.780788,0.000000,0.000000,0.000000,0.000000,0.000000,0.000000,,,,,,,,
1697106413.809041,310074.000000,1697106413.790761,0.000000,0.000000,0.000000,0.000000,0.000000,0.000000,,,,,,,,
1697106413.816191,310075.000000,1697106413.800976,0.000000,0.000000,0.000000,0.000000,0.000000,0.000000,,,,,,,,
1697106413.832830,310076.000000,1697106413.810888,0.000000,0.000000,0.000000,0.000000,0.000000,0.000000,,,,,,,,
1697106413.835810,310077.000000,1697106413.820654,-0.003894,0.002363,0.002064,-0.000095,0.000017,-0.000016,,,,,,,,
1697106413.846614,310078.000000,1697106413.831203,-0.007602,0.004643,0.003951,-0.000184,0.000032,-0.000030,,,,,,,,
1697106413.864682,310080.000000,1697106413.850777,-0.014086,0.008859,0.007075,-0.000339,0.000060,-0.000055,,,,,,,,
1697106413.875936,310081.000000,1697106413.860773,-0.017221,0.011008,0.008503,-0.000414,0.000073,-0.000067,,,,,,,,
1697106413.890130,310082.000000,1697106413.870722,-0.019001,0.012329,0.009162,-0.000455,0.000080,-0.000074,,,,,,,,
1697106413.899619,310084.000000,1697106413.890763,-0.015779,0.010579,0.007226,-0.000379,0.000067,-0.000061,,,,,,,,
1697106413.910473,310085.000000,1697106413.902155,-0.010180,0.006923,0.004545,-0.000246,0.000044,-0.000039,,,,,,,,
1697106413.916839,310086.000000,1697106413.911118,-0.002549,0.001755,0.001100,-0.000062,0.000011,-0.000010,,,,,,,,
1697106413.935550,310087.000000,1697106413.920766,0.000000,0.000000,0.000000,0.000000,0.000000,0.000000,,,,,,,,
1697106413.941644,310088.000000,1697106413.930729,0.000000,0.000000,0.000000,0.000000,0.000000,0.000000,,,,,,,,
1697106413.955171,310089.000000,1697106413.947032,0.000000,0.000000,0.000000,0.000000,0.000000,0.000000,,,,,,,,
1697106413.963424,310090.000000,1697106413.954897,0.000000,0.000000,0.000000,0.000000,0.000000,0.000000,,,,,,,,
1697106413.973015,310091.000000,1697106413.961083,0.000000,0.000000,0.000000,0.000000,0.000000,0.000000,,,,,,,,
1697106413.998884,310092.000000,1697106413.985733,0.000000,0.000000,0.000000,0.000000,0.000000,0.000000,,,,,,,,
1697106413.999187,310094.000000,1697106413.990775,0.000000,0.000000,0.000000,0.000000,0.000000,0.000000,,,,,,,,
1697106414.012580,310095.000000,1697106414.001121,0.000000,0.000000,0.000000,0.000000,0.000000,0.000000,,,,,,,,
1697106414.022143,310096.000000,1697106414.010751,0.000000,0.000000,0.000000,0.000000,0.000000,0.000000,,,,,,,,
1697106414.034803,310097.000000,1697106414.020903,0.000000,0.000000,0.000000,0.000000,0.000000,0.000000,,,,,,,,
1697106414.049380,310098.000000,1697106414.030767,0.000000,0.000000,0.000000,0.000000,0.000000,0.000000,,,,,,,,
1697106414.063941,310100.000000,1697106414.050915,0.000000,0.000000,0.000000,0.000000,0.000000,0.000000,,,,,,,,
1697106414.077596,310101.000000,1697106414.061518,0.000000,0.000000,0.000000,0.000000,0.000000,0.000000,,,,,,,,
1697106414.081450,310102.000000,1697106414.070774,0.000000,0.000000,0.000000,0.000000,0.000000,0.000000,,,,,,,,
1697106414.093646,310103.000000,1697106414.080838,0.000000,0.000000,0.000000,0.000000,0.000000,0.000000,,,,,,,,
1697106414.104415,310104.000000,1697106414.090846,0.000000,0.000000,0.000000,0.000000,0.000000,0.000000,,,,,,,,
1697106414.114691,310105.000000,1697106414.100769,0.000000,0.000000,0.000000,0.000000,0.000000,0.000000,,,,,,,,
1697106414.125512,310106.000000,1697106414.110732,0.000000,0.000000,0.000000,0.000000,0.000000,0.000000,,,,,,,,
1697106414.131018,310107.000000,1697106414.120903,0.000000,0.000000,0.000000,0.000000,0.000000,0.000000,,,,,,,,
1697106414.141704,310108.000000,1697106414.130761,0.000000,0.000000,0.000000,0.000000,0.000000,0.000000,,,,,,,,
1697106414.150313,310109.000000,1697106414.142739,0.000000,0.000000,0.000000,0.000000,0.000000,0.000000,,,,,,,,
1697106414.159041,310110.000000,1697106414.150731,0.000000,0.000000,0.000000,0.000000,0.000000,0.000000,,,,,,,,
1697106414.169645,310111.000000,1697106414.160767,0.000000,0.000000,0.000000,0.000000,0.000000,0.000000,,,,,,,,
1697106414.181875,310112.000000,1697106414.171524,0.000000,0.000000,0.000000,0.000000,0.000000,0.000000,,,,,,,,
1697106414.191884,310113.000000,1697106414.180739,0.000000,0.000000,0.000000,0.000000,0.000000,0.000000,,,,,,,,
1697106414.200139,310114.000000,1697106414.190975,0.000000,0.000000,0.000000,0.000000,0.000000,0.000000,,,,,,,,
1697106414.209229,310115.000000,1697106414.200638,0.000000,0.000000,0.000000,0.000000,0.000000,0.000000,,,,,,,,
1697106414.219219,310116.000000,1697106414.211724,0.000000,0.000000,0.000000,0.000000,0.000000,0.000000,,,,,,,,
1697106414.232258,310117.000000,1697106414.220725,0.000000,0.000000,0.000000,0.000000,0.000000,0.000000,,,,,,,,
1697106414.243875,310118.000000,1697106414.230957,0.000000,0.000000,0.000000,0.000000,0.000000,0.000000,,,,,,,,
1697106414.251420,310119.000000,1697106414.241640,0.000000,0.000000,0.000000,0.000000,0.000000,0.000000,,,,,,,,
1697106414.263058,310120.000000,1697106414.250718,0.000000,0.000000,0.000000,0.000000,0.000000,0.000000,,,,,,,,
1697106414.275398,310121.000000,1697106414.260890,0.000000,0.000000,0.000000,0.000000,0.000000,0.000000,,,,,,,,
1697106414.283884,310122.000000,1697106414.270638,0.000000,0.000000,0.000000,0.000000,0.000000,0.000000,,,,,,,,
1697106414.287753,310123.000000,1697106414.280774,0.000000,0.000000,0.000000,0.000000,0.000000,0.000000,,,,,,,,
1697106414.298992,310124.000000,1697106414.290768,0.000000,0.000000,0.000000,0.000000,0.000000,0.000000,,,,,,,,
1697106414.318430,310125.000000,1697106414.301181,0.000000,0.000000,0.000000,0.000000,0.000000,0.000000,,,,,,,,
1697106414.328057,310126.000000,1697106414.313863,0.000000,0.000000,0.000000,0.000000,0.000000,0.000000,,,,,,,,
1697106414.335812,310127.000000,1697106414.321002,0.000000,0.000000,0.000000,0.000000,0.000000,0.000000,,,,,,,,
1697106414.341177,310128.000000,1697106414.330876,0.000000,0.000000,0.000000,0.000000,0.000000,0.000000,,,,,,,,
1697106414.348448,310129.000000,1697106414.340628,0.000000,0.000000,0.000000,0.000000,0.000000,0.000000,,,,,,,,
1697106414.358067,310130.000000,1697106414.350764,0.000000,0.000000,0.000000,0.000000,0.000000,0.000000,,,,,,,,
1697106414.377867,310131.000000,1697106414.360756,0.000000,0.000000,0.000000,0.000000,0.000000,0.000000,,,,,,,,
1697106414.387146,310132.000000,1697106414.370764,0.000000,0.000000,0.000000,0.000000,0.000000,0.000000,,,,,,,,
1697106414.391849,310133.000000,1697106414.380984,0.000000,0.000000,0.000000,0.000000,0.000000,0.000000,,,,,,,,
1697106414.406501,310134.000000,1697106414.390741,-0.005374,0.004336,0.000648,-0.000136,0.000017,-0.000011,,,,,,,,
1697106414.411577,310135.000000,1697106414.400902,-0.010276,0.008407,0.001232,-0.000261,0.000034,-0.000022,,,,,,,,
1697106414.424141,310136.000000,1697106414.410642,-0.013029,0.010825,0.001506,-0.000334,0.000044,-0.000027,,,,,,,,
1697106414.432596,310137.000000,1697106414.420771,-0.013920,0.011711,0.001514,-0.000361,0.000048,-0.000030,,,,,,,,
1697106414.441831,310138.000000,1697106414.430848,-0.013480,0.011434,0.001365,-0.000353,0.000048,-0.000030,,,,,,,,
1697106414.448018,310139.000000,1697106414.440845,-0.011980,0.010213,0.001111,-0.000317,0.000043,-0.000028,,,,,,,,
1697106414.459107,310140.000000,1697106414.450791,-0.008766,0.007508,0.000725,-0.000234,0.000032,-0.000021,,,,,,,,
1697106414.467390,310141.000000,1697106414.460769,-0.003768,0.003243,0.000275,-0.000102,0.000014,-0.000009,,,,,,,,
1697106414.479631,310142.000000,1697106414.471287,0.000000,0.000000,0.000000,0.000000,0.000000,0.000000,,,,,,,,
1697106414.489467,310143.000000,1697106414.480642,0.000000,0.000000,0.000000,0.000000,0.000000,0.000000,,,,,,,,
1697106414.503593,310144.000000,1697106414.490837,0.000000,0.000000,0.000000,0.000000,0.000000,0.000000,,,,,,,,
1697106414.513919,310145.000000,1697106414.500738,0.000000,0.000000,0.000000,0.000000,0.000000,0.000000,,,,,,,,
1697106414.521667,310146.000000,1697106414.510772,0.000000,0.000000,0.000000,0.000000,0.000000,0.000000,,,,,,,,
1697106414.530685,310147.000000,1697106414.520717,0.000000,0.000000,0.000000,0.000000,0.000000,0.000000,,,,,,,,
1697106414.541961,310148.000000,1697106414.531049,0.000000,0.000000,0.000000,0.000000,0.000000,0.000000,,,,,,,,
1697106414.549746,310149.000000,1697106414.540868,0.000000,0.000000,0.000000,0.000000,0.000000,0.000000,,,,,,,,
1697106414.556240,310150.000000,1697106414.550711,0.000000,0.000000,0.000000,0.000000,0.000000,0.000000,,,,,,,,
1697106414.578300,310151.000000,1697106414.561187,0.000000,0.000000,0.000000,0.000000,0.000000,0.000000,,,,,,,,
1697106414.589212,310152.000000,1697106414.577582,0.000000,0.000000,0.000000,0.000000,0.000000,0.000000,,,,,,,,
1697106414.599856,310153.000000,1697106414.580758,0.000000,0.000000,0.000000,0.000000,0.000000,0.000000,,,,,,,,
1697106414.602032,310154.000000,1697106414.590906,0.000000,0.000000,0.000000,0.000000,0.000000,0.000000,,,,,,,,
1697106414.616537,310155.000000,1697106414.600782,0.000000,0.000000,0.000000,0.000000,0.000000,0.000000,,,,,,,,
1697106414.625880,310156.000000,1697106414.611276,0.000000,0.000000,0.000000,0.000000,0.000000,0.000000,,,,,,,,
1697106414.636349,310157.000000,1697106414.620719,0.000000,0.000000,0.000000,0.000000,0.000000,0.000000,,,,,,,,
1697106414.649427,310158.000000,1697106414.630675,0.000000,0.000000,0.000000,0.000000,0.000000,0.000000,,,,,,,,
1697106414.661400,310160.000000,1697106414.650720,0.000000,0.000000,0.000000,0.000000,0.000000,0.000000,,,,,,,,
1697106414.668698,310161.000000,1697106414.660727,0.000000,0.000000,0.000000,0.000000,0.000000,0.000000,,,,,,,,
1697106414.682353,310162.000000,1697106414.670678,0.000000,0.000000,0.000000,0.000000,0.000000,0.000000,,,,,,,,
1697106414.694155,310163.000000,1697106414.680758,0.000000,0.000000,0.000000,0.000000,0.000000,0.000000,,,,,,,,
1697106414.708657,310164.000000,1697106414.690714,0.000000,0.000000,0.000000,0.000000,0.000000,0.000000,,,,,,,,
1697106414.714089,310165.000000,1697106414.700717,0.000000,0.000000,0.000000,0.000000,0.000000,0.000000,,,,,,,,
1697106414.721748,310166.000000,1697106414.710913,0.000000,0.000000,0.000000,0.000000,0.000000,0.000000,,,,,,,,
1697106414.731101,310167.000000,1697106414.720715,0.000000,0.000000,0.000000,0.000000,0.000000,0.000000,,,,,,,,
1697106414.741485,310168.000000,1697106414.730779,0.000000,0.000000,0.000000,0.000000,0.000000,0.000000,,,,,,,,
1697106414.756066,310169.000000,1697106414.744134,0.000000,0.000000,0.000000,0.000000,0.000000,0.000000,,,,,,,,
1697106414.767746,310170.000000,1697106414.750742,0.000000,0.000000,0.000000,0.000000,0.000000,0.000000,,,,,,,,
1697106414.778713,310171.000000,1697106414.760714,0.000000,0.000000,0.000000,0.000000,0.000000,0.000000,,,,,,,,
1697106414.784445,310172.000000,1697106414.770713,0.000000,0.000000,0.000000,0.000000,0.000000,0.000000,,,,,,,,
1697106414.797238,310173.000000,1697106414.780921,0.000000,0.000000,0.000000,0.000000,0.000000,0.000000,,,,,,,,
1697106414.805192,310174.000000,1697106414.790714,0.000000,0.000000,0.000000,0.000000,0.000000,0.000000,,,,,,,,
1697106414.815361,310175.000000,1697106414.800752,0.000000,0.000000,0.000000,0.000000,0.000000,0.000000,,,,,,,,
1697106414.825304,310176.000000,1697106414.811383,0.000000,0.000000,0.000000,0.000000,0.000000,0.000000,,,,,,,,
1697106414.833105,310177.000000,1697106414.821293,0.000000,0.000000,0.000000,0.000000,0.000000,0.000000,,,,,,,,
1697106414.842662,310178.000000,1697106414.830751,0.000000,0.000000,0.000000,0.000000,0.000000,0.000000,,,,,,,,
1697106414.852186,310179.000000,1697106414.840768,0.000000,0.000000,0.000000,0.000000,0.000000,0.000000,,,,,,,,
1697106414.863941,310180.000000,1697106414.851017,0.000000,0.000000,0.000000,0.000000,0.000000,0.000000,,,,,,,,
1697106414.873129,310181.000000,1697106414.860631,0.000000,0.000000,0.000000,0.000000,0.000000,0.000000,,,,,,,,
