__time,/kms40_driver/wrench/header/seq,/kms40_driver/wrench/header/stamp,/kms40_driver/wrench/wrench/force/x,/kms40_driver/wrench/wrench/force/y,/kms40_driver/wrench/wrench/force/z,/kms40_driver/wrench/wrench/torque/x,/kms40_driver/wrench/wrench/torque/y,/kms40_driver/wrench/wrench/torque/z
1696854133.486771,4980197.000000000,1696854133.486385822,-0.035000000,0.068000000,0.000000000,0.003000000,0.001000000,-0.001000000
1696854133.488489,4980198.000000000,1696854133.488404751,-0.035000000,0.068000000,0.000000000,0.003000000,0.001000000,-0.001000000
1696854133.490515,4980199.000000000,1696854133.490396500,-0.034000000,0.068000000,-0.001000000,0.003000000,0.001000000,-0.001000000
1696854133.492509,4980200.000000000,1696854133.492417336,-0.034000000,0.069000000,0.000000000,0.003000000,0.001000000,-0.001000000
1696854133.494518,4980201.000000000,1696854133.494402409,-0.034000000,0.070000000,0.000000000,0.003000000,0.001000000,-0.001000000
1696854133.496517,4980202.000000000,1696854133.496403933,-0.034000000,0.071000000,0.000000000,0.002000000,0.001000000,-0.001000000
1696854133.498539,4980203.000000000,1696854133.498402596,-0.034000000,0.072000000,-0.001000000,0.002000000,0.001000000,-0.001000000
1696854133.500565,4980204.000000000,1696854133.500417471,-0.033000000,0.073000000,-0.002000000,0.002000000,0.001000000,-0.001000000
1696854133.502653,4980205.000000000,1696854133.502435446,-0.033000000,0.074000000,-0.004000000,0.002000000,0.001000000,-0.001000000
1696854133.504716,4980206.000000000,1696854133.504536152,-0.033000000,0.074000000,-0.005000000,0.002000000,0.001000000,-0.001000000
1696854133.506984,4980207.000000000,1696854133.506536961,-0.032000000,0.073000000,-0.008000000,0.002000000,0.001000000,-0.001000000
1696854133.508595,4980208.000000000,1696854133.508407354,-0.032000000,0.072000000,-0.010000000,0.002000000,0.001000000,-0.001000000
1696854133.510499,4980209.000000000,1696854133.510388851,-0.031000000,0.071000000,-0.013000000,0.003000000,0.001000000,-0.001000000
1696854133.526195,4980216.000000000,1696854133.524388313,-0.030000000,0.075000000,-0.030000000,0.002000000,0.001000000,0.000000000
1696854133.534768,4980221.000000000,1696854133.534381151,-0.030000000,0.073000000,-0.051000000,0.003000000,0.001000000,0.000000000
1696854133.536562,4980222.000000000,1696854133.536408663,-0.029000000,0.073000000,-0.054000000,0.003000000,0.001000000,0.000000000
1696854133.538846,4980223.000000000,1696854133.538380384,-0.030000000,0.074000000,-0.058000000,0.003000000,0.001000000,0.000000000
1696854133.540555,4980224.000000000,1696854133.540408850,-0.030000000,0.075000000,-0.062000000,0.003000000,0.001000000,0.000000000
1696854133.542472,4980225.000000000,1696854133.542386532,-0.030000000,0.076000000,-0.065000000,0.003000000,0.001000000,0.000000000
1696854133.544562,4980226.000000000,1696854133.544407129,-0.030000000,0.077000000,-0.068000000,0.003000000,0.001000000,0.000000000
1696854133.546515,4980227.000000000,1696854133.546406746,-0.031000000,0.078000000,-0.073000000,0.003000000,0.001000000,0.000000000
1696854133.548601,4980228.000000000,1696854133.548449755,-0.031000000,0.078000000,-0.077000000,0.003000000,0.001000000,0.000000000
1696854133.550590,4980229.000000000,1696854133.550399542,-0.032000000,0.078000000,-0.080000000,0.003000000,0.001000000,0.000000000
1696854133.552694,4980230.000000000,1696854133.552506447,-0.032000000,0.078000000,-0.085000000,0.003000000,0.001000000,0.000000000
1696854133.554560,4980231.000000000,1696854133.554384708,-0.032000000,0.077000000,-0.089000000,0.003000000,0.001000000,0.000000000
1696854133.556540,4980232.000000000,1696854133.556437492,-0.032000000,0.076000000,-0.093000000,0.003000000,0.001000000,0.000000000
1696854133.558509,4980233.000000000,1696854133.558408260,-0.032000000,0.076000000,-0.096000000,0.003000000,0.001000000,0.000000000
1696854133.560561,4980234.000000000,1696854133.560418606,-0.033000000,0.076000000,-0.098000000,0.003000000,0.001000000,0.000000000
1696854133.562560,4980235.000000000,1696854133.562386751,-0.033000000,0.077000000,-0.101000000,0.003000000,0.001000000,0.000000000
1696854133.564542,4980236.000000000,1696854133.564426184,-0.033000000,0.078000000,-0.102000000,0.003000000,0.001000000,0.000000000
1696854133.579695,4980243.000000000,1696854133.578421354,-0.034000000,0.076000000,-0.106000000,0.003000000,0.001000000,0.001000000
1696854133.592268,4980249.000000000,1696854133.590362310,-0.034000000,0.075000000,-0.090000000,0.003000000,0.001000000,0.000000000
1696854133.592552,4980250.000000000,1696854133.592447519,-0.034000000,0.075000000,-0.086000000,0.003000000,0.001000000,0.000000000
1696854133.594505,4980251.000000000,1696854133.594400406,-0.033000000,0.075000000,-0.083000000,0.003000000,0.001000000,0.000000000
1696854133.596542,4980252.000000000,1696854133.596410990,-0.033000000,0.073000000,-0.079000000,0.003000000,0.001000000,0.000000000
1696854133.598880,4980253.000000000,1696854133.598404646,-0.033000000,0.072000000,-0.074000000,0.003000000,0.001000000,0.000000000
1696854133.600574,4980254.000000000,1696854133.600431204,-0.033000000,0.070000000,-0.071000000,0.003000000,0.001000000,0.000000000
1696854133.602514,4980255.000000000,1696854133.602388620,-0.033000000,0.069000000,-0.065000000,0.003000000,0.001000000,0.000000000
1696854133.607388,4980257.000000000,1696854133.606364489,-0.032000000,0.067000000,-0.055000000,0.003000000,0.001000000,0.000000000
1696854133.608579,4980258.000000000,1696854133.608406067,-0.031000000,0.067000000,-0.049000000,0.003000000,0.001000000,0.000000000
1696854133.610544,4980259.000000000,1696854133.610404253,-0.031000000,0.067000000,-0.043000000,0.002000000,0.001000000,0.000000000
1696854133.612627,4980260.000000000,1696854133.612419128,-0.031000000,0.068000000,-0.037000000,0.002000000,0.001000000,0.000000000
1696854133.614636,4980261.000000000,1696854133.614396572,-0.031000000,0.068000000,-0.031000000,0.002000000,0.001000000,0.000000000
1696854133.616767,4980262.000000000,1696854133.616429567,-0.031000000,0.067000000,-0.027000000,0.002000000,0.001000000,0.000000000
1696854133.618634,4980263.000000000,1696854133.618398666,-0.031000000,0.067000000,-0.022000000,0.002000000,0.001000000,0.000000000
1696854133.620661,4980264.000000000,1696854133.620416880,-0.031000000,0.065000000,-0.017000000,0.002000000,0.001000000,0.000000000
1696854133.642629,4980275.000000000,1696854133.642407894,-0.030000000,0.062000000,0.022000000,0.002000000,0.001000000,-0.001000000
1696854133.644541,4980276.000000000,1696854133.644419670,-0.030000000,0.061000000,0.023000000,0.002000000,0.001000000,-0.001000000
1696854133.649972,4980278.000000000,1696854133.648425817,-0.029000000,0.059000000,0.025000000,0.002000000,0.001000000,-0.001000000
1696854133.650660,4980279.000000000,1696854133.650433302,-0.029000000,0.059000000,0.024000000,0.002000000,0.001000000,-0.001000000
1696854133.652596,4980280.000000000,1696854133.652412653,-0.029000000,0.059000000,0.026000000,0.002000000,0.001000000,-0.001000000
1696854133.654618,4980281.000000000,1696854133.654391050,-0.029000000,0.060000000,0.026000000,0.002000000,0.001000000,-0.001000000
1696854133.656798,4980282.000000000,1696854133.656404018,-0.029000000,0.060000000,0.027000000,0.002000000,0.001000000,-0.001000000
1696854133.658719,4980283.000000000,1696854133.658470392,-0.029000000,0.061000000,0.026000000,0.002000000,0.001000000,-0.001000000
1696854133.660637,4980284.000000000,1696854133.660404205,-0.029000000,0.062000000,0.027000000,0.002000000,0.001000000,-0.001000000
1696854133.662633,4980285.000000000,1696854133.662391901,-0.029000000,0.062000000,0.028000000,0.002000000,0.001000000,-0.001000000
1696854133.664583,4980286.000000000,1696854133.664402723,-0.029000000,0.062000000,0.025000000,0.002000000,0.001000000,-0.001000000
1696854133.683286,4980295.000000000,1696854133.682420015,-0.027000000,0.061000000,0.012000000,0.003000000,0.001000000,-0.001000000
1696854133.684513,4980296.000000000,1696854133.684424400,-0.027000000,0.061000000,0.010000000,0.003000000,0.001000000,-0.001000000
1696854133.687371,4980297.000000000,1696854133.686378956,-0.027000000,0.061000000,0.008000000,0.003000000,0.001000000,-0.001000000
1696854133.688575,4980298.000000000,1696854133.688421726,-0.027000000,0.061000000,0.006000000,0.003000000,0.001000000,-0.001000000
1696854133.690647,4980299.000000000,1696854133.690412998,-0.026000000,0.060000000,0.004000000,0.003000000,0.001000000,-0.001000000
1696854133.692604,4980300.000000000,1696854133.692416668,-0.026000000,0.059000000,0.002000000,0.003000000,0.001000000,-0.001000000
1696854133.694692,4980301.000000000,1696854133.694404364,-0.026000000,0.059000000,0.000000000,0.003000000,0.001000000,-0.001000000
1696854133.696592,4980302.000000000,1696854133.696424723,-0.025000000,0.059000000,-0.001000000,0.003000000,0.001000000,-0.001000000
1696854133.698676,4980303.000000000,1696854133.698425770,-0.025000000,0.059000000,-0.002000000,0.003000000,0.001000000,-0.001000000
1696854133.700597,4980304.000000000,1696854133.700400352,-0.025000000,0.061000000,-0.003000000,0.003000000,0.001000000,-0.001000000
1696854133.702547,4980305.000000000,1696854133.702431440,-0.025000000,0.062000000,-0.003000000,0.003000000,0.001000000,-0.001000000
1696854133.704601,4980306.000000000,1696854133.704437494,-0.025000000,0.063000000,-0.004000000,0.003000000,0.001000000,-0.001000000
1696854133.706731,4980307.000000000,1696854133.706419706,-0.025000000,0.064000000,-0.005000000,0.003000000,0.001000000,-0.001000000
1696854133.708553,4980308.000000000,1696854133.708401680,-0.025000000,0.065000000,-0.006000000,0.003000000,0.001000000,-0.001000000
1696854133.722687,4980314.000000000,1696854133.720408201,-0.024000000,0.063000000,-0.011000000,0.003000000,0.001000000,-0.001000000
1696854133.723035,4980315.000000000,1696854133.722399235,-0.024000000,0.064000000,-0.011000000,0.003000000,0.001000000,-0.001000000
1696854133.724573,4980316.000000000,1696854133.724445581,-0.025000000,0.065000000,-0.009000000,0.003000000,0.001000000,-0.001000000
1696854133.726501,4980317.000000000,1696854133.726408243,-0.025000000,0.066000000,-0.010000000,0.002000000,0.001000000,-0.001000000
1696854133.728527,4980318.000000000,1696854133.728439093,-0.025000000,0.068000000,-0.008000000,0.002000000,0.001000000,-0.001000000
1696854133.730507,4980319.000000000,1696854133.730401993,-0.025000000,0.068000000,-0.009000000,0.002000000,0.001000000,-0.001000000
1696854133.732675,4980320.000000000,1696854133.732414007,-0.026000000,0.067000000,-0.008000000,0.002000000,0.001000000,-0.001000000
1696854133.734966,4980321.000000000,1696854133.734381676,-0.026000000,0.067000000,-0.008000000,0.002000000,0.000000000,-0.001000000
1696854133.736578,4980322.000000000,1696854133.736408949,-0.026000000,0.066000000,-0.008000000,0.002000000,0.001000000,-0.001000000
1696854133.738617,4980323.000000000,1696854133.738400221,-0.026000000,0.065000000,-0.008000000,0.002000000,0.001000000,-0.001000000
1696854133.740860,4980324.000000000,1696854133.740404844,-0.026000000,0.064000000,-0.008000000,0.003000000,0.001000000,-0.001000000
1696854133.742492,4980325.000000000,1696854133.742381573,-0.026000000,0.064000000,-0.007000000,0.003000000,0.001000000,-0.001000000
1696854133.744603,4980326.000000000,1696854133.744432688,-0.027000000,0.064000000,-0.006000000,0.003000000,0.001000000,-0.001000000
1696854133.746590,4980327.000000000,1696854133.746425152,-0.028000000,0.064000000,-0.003000000,0.002000000,0.001000000,-0.001000000
1696854133.748528,4980328.000000000,1696854133.748415470,-0.028000000,0.065000000,-0.002000000,0.002000000,0.001000000,-0.001000000
1696854133.750470,4980329.000000000,1696854133.750383854,-0.029000000,0.065000000,-0.001000000,0.002000000,0.001000000,-0.001000000
1696854133.752496,4980330.000000000,1696854133.752413034,-0.029000000,0.065000000,0.000000000,0.002000000,0.001000000,-0.001000000
1696854133.754546,4980331.000000000,1696854133.754405737,-0.030000000,0.064000000,0.000000000,0.002000000,0.001000000,-0.001000000
1696854133.777900,4980342.000000000,1696854133.776415348,-0.036000000,0.058000000,0.013000000,0.003000000,0.001000000,-0.001000000
1696854133.778769,4980343.000000000,1696854133.778417110,-0.036000000,0.058000000,0.014000000,0.003000000,0.001000000,-0.001000000
1696854133.782556,4980344.000000000,1696854133.780409336,-0.037000000,0.057000000,0.015000000,0.003000000,0.001000000,-0.001000000
1696854133.783002,4980345.000000000,1696854133.782393694,-0.037000000,0.056000000,0.015000000,0.003000000,0.001000000,-0.001000000
1696854133.784832,4980346.000000000,1696854133.784551144,-0.037000000,0.055000000,0.016000000,0.003000000,0.001000000,-0.001000000
1696854133.786566,4980347.000000000,1696854133.786406755,-0.038000000,0.055000000,0.018000000,0.003000000,0.001000000,-0.001000000
1696854133.788575,4980348.000000000,1696854133.788398504,-0.038000000,0.054000000,0.019000000,0.003000000,0.001000000,-0.001000000
1696854133.790600,4980349.000000000,1696854133.790417671,-0.039000000,0.055000000,0.020000000,0.003000000,0.001000000,-0.001000000
1696854133.792705,4980350.000000000,1696854133.792433500,-0.039000000,0.057000000,0.022000000,0.003000000,0.001000000,-0.001000000
1696854133.794651,4980351.000000000,1696854133.794447184,-0.040000000,0.058000000,0.025000000,0.003000000,0.001000000,-0.002000000
1696854133.796796,4980352.000000000,1696854133.796427727,-0.041000000,0.060000000,0.026000000,0.003000000,0.001000000,-0.002000000
1696854133.809161,4980358.000000000,1696854133.808460236,-0.044000000,0.063000000,0.028000000,0.003000000,0.001000000,-0.002000000
1696854133.811073,4980359.000000000,1696854133.810430765,-0.045000000,0.064000000,0.028000000,0.003000000,0.001000000,-0.002000000
1696854133.812662,4980360.000000000,1696854133.812530756,-0.045000000,0.066000000,0.027000000,0.003000000,0.001000000,-0.002000000
1696854133.814639,4980361.000000000,1696854133.814407825,-0.046000000,0.068000000,0.027000000,0.003000000,0.001000000,-0.002000000
1696854133.816493,4980362.000000000,1696854133.816401482,-0.047000000,0.071000000,0.028000000,0.003000000,0.001000000,-0.002000000
1696854133.819653,4980363.000000000,1696854133.819463968,-0.048000000,0.074000000,0.026000000,0.002000000,0.001000000,-0.002000000
1696854133.820729,4980364.000000000,1696854133.820595264,-0.048000000,0.077000000,0.025000000,0.002000000,0.001000000,-0.002000000
1696854133.822516,4980365.000000000,1696854133.822402954,-0.049000000,0.078000000,0.024000000,0.002000000,0.001000000,-0.001000000
1696854133.824629,4980366.000000000,1696854133.824406624,-0.050000000,0.079000000,0.021000000,0.002000000,0.001000000,-0.001000000
1696854133.827817,4980367.000000000,1696854133.826453447,-0.050000000,0.080000000,0.018000000,0.002000000,0.001000000,-0.001000000
1696854133.828594,4980368.000000000,1696854133.828410864,-0.051000000,0.081000000,0.015000000,0.002000000,0.001000000,-0.001000000
1696854133.830525,4980369.000000000,1696854133.830404758,-0.050000000,0.082000000,0.011000000,0.002000000,0.001000000,-0.001000000
1696854133.832552,4980370.000000000,1696854133.832402468,-0.051000000,0.083000000,0.009000000,0.002000000,0.001000000,-0.001000000
1696854133.834603,4980371.000000000,1696854133.834467173,-0.051000000,0.085000000,0.005000000,0.002000000,0.001000000,-0.001000000
1696854133.836531,4980372.000000000,1696854133.836398125,-0.052000000,0.087000000,0.002000000,0.002000000,0.001000000,-0.001000000
1696854133.838543,4980373.000000000,1696854133.838392735,-0.052000000,0.090000000,0.000000000,0.002000000,0.001000000,-0.001000000
1696854133.848630,4980378.000000000,1696854133.848444223,-0.053000000,0.096000000,-0.018000000,0.002000000,0.001000000,-0.001000000
1696854133.850539,4980379.000000000,1696854133.850402594,-0.053000000,0.096000000,-0.022000000,0.002000000,0.001000000,0.000000000
1696854133.852579,4980380.000000000,1696854133.852415562,-0.053000000,0.095000000,-0.027000000,0.002000000,0.001000000,0.000000000
1696854133.854584,4980381.000000000,1696854133.854408979,-0.052000000,0.095000000,-0.030000000,0.002000000,0.001000000,0.000000000
1696854133.856609,4980382.000000000,1696854133.856448412,-0.052000000,0.095000000,-0.033000000,0.002000000,0.001000000,0.000000000
1696854133.858540,4980383.000000000,1696854133.858416796,-0.052000000,0.096000000,-0.036000000,0.002000000,0.001000000,0.000000000
1696854133.860842,4980384.000000000,1696854133.860429287,-0.051000000,0.096000000,-0.038000000,0.002000000,0.001000000,0.000000000
1696854133.862498,4980385.000000000,1696854133.862389803,-0.051000000,0.097000000,-0.040000000,0.002000000,0.001000000,0.000000000
1696854133.864501,4980386.000000000,1696854133.864418745,-0.051000000,0.098000000,-0.042000000,0.002000000,0.001000000,0.000000000
1696854133.866892,4980387.000000000,1696854133.866400957,-0.051000000,0.098000000,-0.044000000,0.002000000,0.001000000,0.000000000
1696854133.868551,4980388.000000000,1696854133.868400812,-0.050000000,0.097000000,-0.045000000,0.002000000,0.001000000,0.000000000
1696854133.871115,4980389.000000000,1696854133.870381832,-0.050000000,0.095000000,-0.047000000,0.002000000,0.001000000,0.000000000
1696854133.872481,4980390.000000000,1696854133.872401953,-0.049000000,0.094000000,-0.049000000,0.002000000,0.001000000,0.000000000
1696854133.875278,4980391.000000000,1696854133.874397516,-0.048000000,0.091000000,-0.050000000,0.002000000,0.001000000,0.000000000
1696854133.876510,4980392.000000000,1696854133.876420498,-0.047000000,0.089000000,-0.051000000,0.002000000,0.001000000,0.000000000
1696854133.878517,4980393.000000000,1696854133.878431797,-0.046000000,0.088000000,-0.051000000,0.003000000,0.001000000,0.000000000
1696854133.880596,4980394.000000000,1696854133.880411625,-0.046000000,0.087000000,-0.050000000,0.003000000,0.001000000,0.000000000
1696854133.897889,4980402.000000000,1696854133.896440268,-0.041000000,0.076000000,-0.037000000,0.003000000,0.001000000,0.000000000
1696854133.916548,4980411.000000000,1696854133.914400578,-0.036000000,0.066000000,-0.017000000,0.003000000,0.001000000,-0.001000000
1696854133.932747,4980420.000000000,1696854133.932420015,-0.034000000,0.060000000,-0.004000000,0.003000000,0.001000000,-0.001000000
1696854133.969564,4980438.000000000,1696854133.968432903,-0.031000000,0.056000000,0.003000000,0.003000000,0.001000000,-0.001000000
1696854133.978105,4980442.000000000,1696854133.976428270,-0.031000000,0.058000000,0.007000000,0.002000000,0.001000000,-0.001000000
1696854133.978693,4980443.000000000,1696854133.978394985,-0.032000000,0.060000000,0.010000000,0.002000000,0.001000000,-0.001000000
1696854133.980553,4980444.000000000,1696854133.980434895,-0.032000000,0.060000000,0.010000000,0.002000000,0.001000000,-0.001000000
1696854133.982574,4980445.000000000,1696854133.982401133,-0.032000000,0.060000000,0.010000000,0.002000000,0.001000000,-0.001000000
1696854133.984510,4980446.000000000,1696854133.984427452,-0.033000000,0.060000000,0.011000000,0.002000000,0.001000000,-0.001000000
1696854133.986603,4980447.000000000,1696854133.986429214,-0.032000000,0.059000000,0.011000000,0.002000000,0.001000000,-0.001000000
1696854133.988534,4980448.000000000,1696854133.988460064,-0.032000000,0.058000000,0.011000000,0.002000000,0.001000000,-0.001000000
1696854133.990467,4980449.000000000,1696854133.990387201,-0.032000000,0.058000000,0.011000000,0.003000000,0.001000000,-0.001000000
1696854133.992496,4980450.000000000,1696854133.992418528,-0.032000000,0.058000000,0.012000000,0.003000000,0.001000000,-0.001000000
1696854133.994526,4980451.000000000,1696854133.994418859,-0.033000000,0.058000000,0.013000000,0.003000000,0.001000000,-0.001000000
1696854133.996621,4980452.000000000,1696854133.996469021,-0.033000000,0.059000000,0.013000000,0.003000000,0.001000000,-0.001000000
1696854133.998524,4980453.000000000,1696854133.998371124,-0.033000000,0.061000000,0.015000000,0.002000000,0.001000000,-0.001000000
1696854134.000584,4980454.000000000,1696854134.000426769,-0.034000000,0.062000000,0.016000000,0.002000000,0.001000000,-0.001000000
1696854134.002567,4980455.000000000,1696854134.002403259,-0.034000000,0.063000000,0.017000000,0.002000000,0.001000000,-0.001000000
1696854134.004546,4980456.000000000,1696854134.004442692,-0.035000000,0.064000000,0.017000000,0.002000000,0.001000000,-0.001000000
1696854134.006475,4980457.000000000,1696854134.006401300,-0.035000000,0.064000000,0.017000000,0.002000000,0.001000000,-0.001000000
1696854134.008639,4980458.000000000,1696854134.008470774,-0.036000000,0.064000000,0.018000000,0.002000000,0.001000000,-0.001000000
1696854134.010542,4980459.000000000,1696854134.010436773,-0.036000000,0.063000000,0.017000000,0.002000000,0.001000000,-0.001000000
1696854134.022147,4980464.000000000,1696854134.020420790,-0.037000000,0.065000000,0.018000000,0.003000000,0.001000000,-0.002000000
1696854134.029112,4980468.000000000,1696854134.028414249,-0.038000000,0.068000000,0.019000000,0.002000000,0.001000000,-0.001000000
1696854134.030515,4980469.000000000,1696854134.030417919,-0.039000000,0.067000000,0.018000000,0.002000000,0.001000000,-0.001000000
1696854134.032737,4980470.000000000,1696854134.032456875,-0.039000000,0.067000000,0.017000000,0.003000000,0.001000000,-0.001000000
1696854134.034525,4980471.000000000,1696854134.034425497,-0.039000000,0.066000000,0.016000000,0.003000000,0.001000000,-0.001000000
1696854134.036588,4980472.000000000,1696854134.036425829,-0.038000000,0.065000000,0.015000000,0.003000000,0.001000000,-0.001000000
1696854134.038472,4980473.000000000,1696854134.038389921,-0.038000000,0.064000000,0.015000000,0.003000000,0.001000000,-0.001000000
1696854134.040495,4980474.000000000,1696854134.040420294,-0.038000000,0.065000000,0.015000000,0.003000000,0.001000000,-0.001000000
1696854134.042563,4980475.000000000,1696854134.042412758,-0.039000000,0.066000000,0.015000000,0.003000000,0.001000000,-0.001000000
1696854134.044535,4980476.000000000,1696854134.044432878,-0.039000000,0.067000000,0.015000000,0.003000000,0.001000000,-0.001000000
1696854134.046488,4980477.000000000,1696854134.046384811,-0.039000000,0.068000000,0.016000000,0.003000000,0.001000000,-0.001000000
1696854134.048682,4980478.000000000,1696854134.048427820,-0.039000000,0.068000000,0.016000000,0.002000000,0.001000000,-0.001000000
1696854134.050511,4980479.000000000,1696854134.050406933,-0.039000000,0.069000000,0.016000000,0.002000000,0.001000000,-0.001000000
1696854134.052589,4980480.000000000,1696854134.052483320,-0.039000000,0.068000000,0.014000000,0.003000000,0.001000000,-0.001000000
1696854134.054615,4980481.000000000,1696854134.054466724,-0.039000000,0.067000000,0.014000000,0.003000000,0.001000000,-0.001000000
1696854134.056690,4980482.000000000,1696854134.056537151,-0.039000000,0.066000000,0.013000000,0.003000000,0.001000000,-0.001000000
1696854134.062668,4980484.000000000,1696854134.060446739,-0.038000000,0.064000000,0.011000000,0.003000000,0.001000000,-0.001000000
1696854134.064296,4980485.000000000,1696854134.062491179,-0.038000000,0.064000000,0.011000000,0.003000000,0.001000000,-0.001000000
1696854134.081545,4980494.000000000,1696854134.080427885,-0.039000000,0.063000000,0.009000000,0.003000000,0.001000000,-0.001000000
1696854134.085636,4980496.000000000,1696854134.084431648,-0.040000000,0.062000000,0.008000000,0.003000000,0.001000000,-0.001000000
1696854134.086567,4980497.000000000,1696854134.086408138,-0.040000000,0.062000000,0.008000000,0.003000000,0.001000000,-0.001000000
1696854134.088520,4980498.000000000,1696854134.088430643,-0.041000000,0.063000000,0.008000000,0.003000000,0.001000000,-0.001000000
1696854134.090656,4980499.000000000,1696854134.090413809,-0.041000000,0.065000000,0.008000000,0.003000000,0.001000000,-0.001000000
1696854134.092533,4980500.000000000,1696854134.092436314,-0.042000000,0.066000000,0.008000000,0.003000000,0.001000000,-0.001000000
1696854134.094492,4980501.000000000,1696854134.094392300,-0.042000000,0.066000000,0.007000000,0.003000000,0.001000000,-0.001000000
1696854134.096563,4980502.000000000,1696854134.096446991,-0.043000000,0.067000000,0.006000000,0.003000000,0.001000000,-0.001000000
1696854134.098670,4980503.000000000,1696854134.098443031,-0.044000000,0.066000000,0.004000000,0.003000000,0.001000000,-0.001000000
1696854134.100583,4980504.000000000,1696854134.100424767,-0.044000000,0.066000000,0.002000000,0.003000000,0.001000000,-0.001000000
1696854134.102500,4980505.000000000,1696854134.102402210,-0.045000000,0.065000000,0.000000000,0.003000000,0.001000000,-0.001000000
1696854134.104575,4980506.000000000,1696854134.104439497,-0.045000000,0.065000000,-0.001000000,0.003000000,0.001000000,-0.001000000
1696854134.120198,4980513.000000000,1696854134.118401527,-0.051000000,0.073000000,-0.019000000,0.002000000,0.001000000,0.000000000
1696854134.120604,4980514.000000000,1696854134.120452881,-0.051000000,0.074000000,-0.024000000,0.002000000,0.001000000,0.000000000
1696854134.122568,4980515.000000000,1696854134.122410297,-0.052000000,0.074000000,-0.027000000,0.002000000,0.001000000,0.000000000
1696854134.124502,4980516.000000000,1696854134.124420166,-0.052000000,0.074000000,-0.031000000,0.002000000,0.001000000,0.000000000
1696854134.126480,4980517.000000000,1696854134.126393795,-0.052000000,0.074000000,-0.037000000,0.002000000,0.001000000,0.000000000
1696854134.128588,4980518.000000000,1696854134.128422260,-0.053000000,0.074000000,-0.040000000,0.002000000,0.001000000,0.000000000
1696854134.130563,4980519.000000000,1696854134.130424738,-0.053000000,0.075000000,-0.044000000,0.002000000,0.001000000,0.000000000
1696854134.132931,4980520.000000000,1696854134.132430315,-0.054000000,0.076000000,-0.047000000,0.002000000,0.001000000,0.000000000
1696854134.134513,4980521.000000000,1696854134.134389400,-0.054000000,0.078000000,-0.051000000,0.002000000,0.001000000,0.000000000
1696854134.136547,4980522.000000000,1696854134.136422396,-0.055000000,0.081000000,-0.054000000,0.002000000,0.001000000,0.000000000
1696854134.138574,4980523.000000000,1696854134.138443232,-0.055000000,0.082000000,-0.056000000,0.002000000,0.001000000,0.000000000
1696854134.140599,4980524.000000000,1696854134.140471458,-0.055000000,0.084000000,-0.060000000,0.002000000,0.001000000,0.000000000
1696854134.142569,4980525.000000000,1696854134.142428160,-0.056000000,0.085000000,-0.062000000,0.002000000,0.001000000,0.000000000
1696854134.144770,4980526.000000000,1696854134.144460201,-0.056000000,0.085000000,-0.067000000,0.002000000,0.001000000,0.000000000
1696854134.147305,4980527.000000000,1696854134.146502256,-0.056000000,0.085000000,-0.069000000,0.002000000,0.001000000,0.000000000
1696854134.149423,4980528.000000000,1696854134.148452520,-0.055000000,0.085000000,-0.074000000,0.002000000,0.001000000,0.000000000
1696854134.173055,4980540.000000000,1696854134.172434807,-0.050000000,0.087000000,-0.076000000,0.003000000,0.001000000,0.000000000
1696854134.174625,4980541.000000000,1696854134.174395800,-0.049000000,0.086000000,-0.075000000,0.003000000,0.001000000,0.000000000
1696854134.182126,4980544.000000000,1696854134.180450201,-0.046000000,0.085000000,-0.067000000,0.003000000,0.001000000,0.000000000
1696854134.182886,4980545.000000000,1696854134.182413816,-0.046000000,0.086000000,-0.064000000,0.003000000,0.001000000,0.000000000
1696854134.184595,4980546.000000000,1696854134.184433222,-0.045000000,0.086000000,-0.060000000,0.003000000,0.001000000,0.000000000
1696854134.186617,4980547.000000000,1696854134.186438084,-0.044000000,0.085000000,-0.057000000,0.003000000,0.001000000,0.000000000
1696854134.188597,4980548.000000000,1696854134.188428402,-0.043000000,0.084000000,-0.054000000,0.003000000,0.001000000,0.000000000
1696854134.190592,4980549.000000000,1696854134.190414190,-0.043000000,0.083000000,-0.051000000,0.003000000,0.001000000,0.000000000
1696854134.201691,4980554.000000000,1696854134.200450659,-0.038000000,0.074000000,-0.037000000,0.003000000,0.001000000,0.000000000
1696854134.202531,4980555.000000000,1696854134.202425241,-0.037000000,0.074000000,-0.034000000,0.003000000,0.001000000,0.000000000
1696854134.204598,4980556.000000000,1696854134.204451084,-0.037000000,0.074000000,-0.030000000,0.003000000,0.001000000,0.000000000
1696854134.207426,4980557.000000000,1696854134.206460953,-0.036000000,0.074000000,-0.026000000,0.003000000,0.001000000,0.000000000
1696854134.209526,4980558.000000000,1696854134.208476305,-0.036000000,0.073000000,-0.023000000,0.003000000,0.001000000,0.000000000
1696854134.210595,4980559.000000000,1696854134.210429192,-0.035000000,0.072000000,-0.022000000,0.003000000,0.001000000,0.000000000
1696854134.212709,4980560.000000000,1696854134.212466478,-0.035000000,0.071000000,-0.020000000,0.003000000,0.001000000,0.000000000
1696854134.214788,4980561.000000000,1696854134.214408875,-0.034000000,0.069000000,-0.018000000,0.003000000,0.001000000,0.000000000
1696854134.216588,4980562.000000000,1696854134.216423512,-0.034000000,0.067000000,-0.017000000,0.003000000,0.001000000,0.000000000
1696854134.218513,4980563.000000000,1696854134.218410015,-0.033000000,0.065000000,-0.016000000,0.003000000,0.001000000,0.000000000
1696854134.220522,4980564.000000000,1696854134.220431566,-0.033000000,0.063000000,-0.015000000,0.003000000,0.001000000,0.000000000
1696854134.222492,4980565.000000000,1696854134.222400665,-0.032000000,0.062000000,-0.014000000,0.003000000,0.001000000,0.000000000
1696854134.224541,4980566.000000000,1696854134.224434137,-0.032000000,0.062000000,-0.013000000,0.003000000,0.001000000,0.000000000
1696854134.226605,4980567.000000000,1696854134.226406574,-0.032000000,0.062000000,-0.011000000,0.003000000,0.001000000,-0.001000000
1696854134.228562,4980568.000000000,1696854134.228441715,-0.032000000,0.063000000,-0.011000000,0.003000000,0.001000000,0.000000000
1696854134.230586,4980569.000000000,1696854134.230454206,-0.032000000,0.063000000,-0.009000000,0.003000000,0.001000000,-0.001000000
1696854134.244529,4980575.000000000,1696854134.242435932,-0.032000000,0.056000000,-0.013000000,0.003000000,0.001000000,0.000000000
1696854134.253156,4980580.000000000,1696854134.252491474,-0.033000000,0.056000000,-0.015000000,0.003000000,0.001000000,0.000000000
1696854134.254571,4980581.000000000,1696854134.254416704,-0.033000000,0.056000000,-0.015000000,0.002000000,0.001000000,0.000000000
1696854134.256550,4980582.000000000,1696854134.256442308,-0.033000000,0.056000000,-0.015000000,0.002000000,0.001000000,0.000000000
1696854134.258899,4980583.000000000,1696854134.258438349,-0.033000000,0.055000000,-0.017000000,0.002000000,0.001000000,0.000000000
1696854134.260602,4980584.000000000,1696854134.260463953,-0.033000000,0.053000000,-0.018000000,0.003000000,0.001000000,0.000000000
1696854134.262539,4980585.000000000,1696854134.262418509,-0.033000000,0.051000000,-0.020000000,0.003000000,0.001000000,0.000000000
1696854134.264532,4980586.000000000,1696854134.264435053,-0.033000000,0.050000000,-0.021000000,0.003000000,0.001000000,0.000000000
1696854134.267565,4980587.000000000,1696854134.266409636,-0.033000000,0.049000000,-0.022000000,0.003000000,0.001000000,0.000000000
1696854134.268862,4980588.000000000,1696854134.268521786,-0.033000000,0.048000000,-0.022000000,0.003000000,0.001000000,0.000000000
1696854134.270527,4980589.000000000,1696854134.270417690,-0.033000000,0.049000000,-0.022000000,0.003000000,0.001000000,0.000000000
1696854134.272537,4980590.000000000,1696854134.272446871,-0.033000000,0.050000000,-0.021000000,0.003000000,0.001000000,0.000000000
1696854134.274580,4980591.000000000,1696854134.274463177,-0.033000000,0.050000000,-0.022000000,0.003000000,0.001000000,0.000000000
1696854134.276574,4980592.000000000,1696854134.276461840,-0.033000000,0.050000000,-0.021000000,0.003000000,0.001000000,0.000000000
1696854134.278526,4980593.000000000,1696854134.278423548,-0.033000000,0.050000000,-0.020000000,0.002000000,0.001000000,0.000000000
1696854134.280544,4980594.000000000,1696854134.280446053,-0.033000000,0.049000000,-0.021000000,0.002000000,0.001000000,0.000000000
1696854134.282785,4980595.000000000,1696854134.282435656,-0.033000000,0.048000000,-0.021000000,0.003000000,0.001000000,0.000000000
1696854134.284544,4980596.000000000,1696854134.284445524,-0.033000000,0.047000000,-0.021000000,0.003000000,0.001000000,0.000000000
1696854134.295130,4980601.000000000,1696854134.294406414,-0.033000000,0.045000000,-0.017000000,0.003000000,0.001000000,0.000000000
1696854134.304961,4980606.000000000,1696854134.304472208,-0.035000000,0.047000000,-0.009000000,0.003000000,0.001000000,0.000000000
1696854134.306638,4980607.000000000,1696854134.306435823,-0.035000000,0.047000000,-0.008000000,0.003000000,0.001000000,0.000000000
1696854134.308573,4980608.000000000,1696854134.308480024,-0.035000000,0.046000000,-0.006000000,0.003000000,0.001000000,-0.001000000
1696854134.310569,4980609.000000000,1696854134.310432911,-0.035000000,0.046000000,-0.004000000,0.003000000,0.001000000,-0.001000000
1696854134.312572,4980610.000000000,1696854134.312451363,-0.035000000,0.046000000,-0.002000000,0.003000000,0.001000000,-0.001000000
1696854134.314546,4980611.000000000,1696854134.314423084,-0.036000000,0.046000000,-0.001000000,0.003000000,0.001000000,-0.001000000
1696854134.316585,4980612.000000000,1696854134.316444397,-0.037000000,0.048000000,0.002000000,0.003000000,0.001000000,-0.001000000
1696854134.318626,4980613.000000000,1696854134.318452597,-0.037000000,0.050000000,0.004000000,0.003000000,0.001000000,-0.001000000
1696854134.320527,4980614.000000000,1696854134.320443392,-0.038000000,0.051000000,0.007000000,0.002000000,0.001000000,-0.001000000
1696854134.322510,4980615.000000000,1696854134.322406054,-0.038000000,0.053000000,0.009000000,0.002000000,0.001000000,-0.001000000
1696854134.324549,4980616.000000000,1696854134.324448109,-0.039000000,0.054000000,0.012000000,0.002000000,0.001000000,-0.001000000
1696854134.326496,4980617.000000000,1696854134.326406956,-0.040000000,0.054000000,0.013000000,0.002000000,0.001000000,-0.001000000
1696854134.328544,4980618.000000000,1696854134.328442812,-0.040000000,0.054000000,0.014000000,0.002000000,0.001000000,-0.001000000
1696854134.330601,4980619.000000000,1696854134.330426216,-0.041000000,0.054000000,0.015000000,0.002000000,0.001000000,-0.001000000
1696854134.332857,4980620.000000000,1696854134.332477808,-0.041000000,0.054000000,0.017000000,0.002000000,0.001000000,-0.001000000
1696854134.334602,4980621.000000000,1696854134.334406614,-0.041000000,0.054000000,0.018000000,0.002000000,0.001000000,-0.001000000
1696854134.336855,4980622.000000000,1696854134.336466551,-0.041000000,0.054000000,0.019000000,0.002000000,0.001000000,-0.001000000
1696854134.353478,4980630.000000000,1696854134.352460861,-0.045000000,0.062000000,0.027000000,0.002000000,0.001000000,-0.001000000
1696854134.354518,4980631.000000000,1696854134.354402781,-0.045000000,0.062000000,0.027000000,0.002000000,0.001000000,-0.001000000
1696854134.356690,4980632.000000000,1696854134.356452465,-0.045000000,0.061000000,0.026000000,0.002000000,0.001000000,-0.002000000
1696854134.358582,4980633.000000000,1696854134.358413458,-0.045000000,0.062000000,0.027000000,0.002000000,0.001000000,-0.002000000
1696854134.360724,4980634.000000000,1696854134.360449791,-0.045000000,0.062000000,0.026000000,0.002000000,0.001000000,-0.002000000
1696854134.363131,4980635.000000000,1696854134.362507105,-0.046000000,0.063000000,0.027000000,0.002000000,0.001000000,-0.002000000
1696854134.364872,4980636.000000000,1696854134.364438772,-0.046000000,0.064000000,0.027000000,0.002000000,0.001000000,-0.002000000
1696854134.366764,4980637.000000000,1696854134.366440535,-0.046000000,0.066000000,0.027000000,0.002000000,0.001000000,-0.002000000
1696854134.368688,4980638.000000000,1696854134.368495703,-0.047000000,0.067000000,0.027000000,0.002000000,0.001000000,-0.001000000
1696854134.370736,4980639.000000000,1696854134.370440722,-0.047000000,0.067000000,0.026000000,0.002000000,0.001000000,-0.001000000
1696854134.372734,4980640.000000000,1696854134.372451544,-0.047000000,0.066000000,0.024000000,0.002000000,0.001000000,-0.001000000
1696854134.374688,4980641.000000000,1696854134.374437571,-0.047000000,0.066000000,0.022000000,0.002000000,0.001000000,-0.001000000
1696854134.376839,4980642.000000000,1696854134.376489162,-0.046000000,0.065000000,0.020000000,0.002000000,0.001000000,-0.001000000
1696854134.378702,4980643.000000000,1696854134.378449202,-0.046000000,0.064000000,0.018000000,0.002000000,0.001000000,-0.001000000
1696854134.380581,4980644.000000000,1696854134.380435944,-0.046000000,0.064000000,0.016000000,0.002000000,0.001000000,-0.001000000
1696854134.382693,4980645.000000000,1696854134.382430792,-0.046000000,0.064000000,0.015000000,0.002000000,0.001000000,-0.001000000
1696854134.384720,4980646.000000000,1696854134.384495020,-0.046000000,0.065000000,0.013000000,0.002000000,0.001000000,-0.001000000
1696854134.386697,4980647.000000000,1696854134.386475801,-0.046000000,0.066000000,0.012000000,0.002000000,0.001000000,-0.001000000
1696854134.388586,4980648.000000000,1696854134.388436079,-0.047000000,0.067000000,0.009000000,0.002000000,0.001000000,-0.001000000
1696854134.390623,4980649.000000000,1696854134.390408754,-0.047000000,0.069000000,0.008000000,0.002000000,0.001000000,-0.001000000
1696854134.392619,4980650.000000000,1696854134.392459154,-0.047000000,0.069000000,0.004000000,0.002000000,0.001000000,-0.001000000
1696854134.394610,4980651.000000000,1696854134.394452810,-0.047000000,0.069000000,0.001000000,0.002000000,0.001000000,-0.001000000
1696854134.396578,4980652.000000000,1696854134.396461248,-0.047000000,0.069000000,-0.002000000,0.002000000,0.001000000,-0.001000000
1696854134.400300,4980653.000000000,1696854134.399583817,-0.047000000,0.069000000,-0.006000000,0.003000000,0.001000000,-0.001000000
1696854134.401051,4980654.000000000,1696854134.400550127,-0.047000000,0.069000000,-0.012000000,0.003000000,0.001000000,-0.001000000
1696854134.402787,4980655.000000000,1696854134.402675152,-0.047000000,0.069000000,-0.015000000,0.003000000,0.001000000,-0.001000000
1696854134.405577,4980656.000000000,1696854134.404469728,-0.047000000,0.070000000,-0.018000000,0.003000000,0.001000000,0.000000000
1696854134.407014,4980657.000000000,1696854134.406453848,-0.047000000,0.071000000,-0.023000000,0.003000000,0.001000000,0.000000000
1696854134.408675,4980658.000000000,1696854134.408545256,-0.047000000,0.073000000,-0.026000000,0.003000000,0.001000000,0.000000000
1696854134.410781,4980659.000000000,1696854134.410454035,-0.047000000,0.075000000,-0.029000000,0.003000000,0.001000000,0.000000000
1696854134.412576,4980660.000000000,1696854134.412456751,-0.048000000,0.077000000,-0.033000000,0.003000000,0.001000000,0.000000000
1696854134.414536,4980661.000000000,1696854134.414422750,-0.048000000,0.079000000,-0.037000000,0.003000000,0.001000000,0.000000000
1696854134.416684,4980662.000000000,1696854134.416468143,-0.048000000,0.080000000,-0.041000000,0.003000000,0.001000000,0.000000000
1696854134.418587,4980663.000000000,1696854134.418464422,-0.048000000,0.081000000,-0.046000000,0.003000000,0.001000000,0.000000000
1696854134.420552,4980664.000000000,1696854134.420440912,-0.048000000,0.081000000,-0.050000000,0.003000000,0.001000000,0.000000000
1696854134.422516,4980665.000000000,1696854134.422412634,-0.048000000,0.082000000,-0.056000000,0.003000000,0.001000000,0.000000000
1696854134.424803,4980666.000000000,1696854134.424476385,-0.047000000,0.082000000,-0.060000000,0.003000000,0.001000000,0.000000000
1696854134.426571,4980667.000000000,1696854134.426429510,-0.047000000,0.083000000,-0.064000000,0.003000000,0.001000000,0.000000000
1696854134.428726,4980668.000000000,1696854134.428502560,-0.047000000,0.084000000,-0.067000000,0.003000000,0.001000000,0.000000000
1696854134.430566,4980669.000000000,1696854134.430400610,-0.047000000,0.086000000,-0.070000000,0.003000000,0.001000000,0.000000000
1696854134.432659,4980670.000000000,1696854134.432470560,-0.046000000,0.089000000,-0.073000000,0.003000000,0.001000000,0.000000000
1696854134.434599,4980671.000000000,1696854134.434415817,-0.047000000,0.091000000,-0.075000000,0.003000000,0.001000000,0.000000000
1696854134.436585,4980672.000000000,1696854134.436439514,-0.046000000,0.093000000,-0.078000000,0.003000000,0.001000000,0.000000000
1696854134.438519,4980673.000000000,1696854134.438408136,-0.046000000,0.094000000,-0.080000000,0.003000000,0.001000000,0.000000000
1696854134.440578,4980674.000000000,1696854134.440453529,-0.046000000,0.095000000,-0.083000000,0.003000000,0.001000000,0.000000000
1696854134.442893,4980675.000000000,1696854134.442439318,-0.046000000,0.095000000,-0.085000000,0.003000000,0.001000000,0.000000000
1696854134.444640,4980676.000000000,1696854134.444460630,-0.045000000,0.094000000,-0.087000000,0.003000000,0.001000000,0.000000000
1696854134.446514,4980677.000000000,1696854134.446406126,-0.044000000,0.094000000,-0.090000000,0.003000000,0.001000000,0.000000000
1696854134.448600,4980678.000000000,1696854134.448477745,-0.044000000,0.094000000,-0.090000000,0.003000000,0.001000000,0.000000000
1696854134.450663,4980679.000000000,1696854134.450473309,-0.043000000,0.094000000,-0.090000000,0.003000000,0.001000000,0.000000000
1696854134.452553,4980680.000000000,1696854134.452440262,-0.042000000,0.095000000,-0.091000000,0.003000000,0.001000000,0.000000000
1696854134.454524,4980681.000000000,1696854134.454409361,-0.042000000,0.095000000,-0.089000000,0.003000000,0.001000000,0.000000000
1696854134.456557,4980682.000000000,1696854134.456427097,-0.042000000,0.097000000,-0.088000000,0.003000000,0.001000000,0.000000000
1696854134.458628,4980683.000000000,1696854134.458438635,-0.042000000,0.097000000,-0.085000000,0.003000000,0.001000000,0.000000000
1696854134.460579,4980684.000000000,1696854134.460438967,-0.041000000,0.098000000,-0.085000000,0.003000000,0.001000000,0.000000000
1696854134.462669,4980685.000000000,1696854134.462412119,-0.041000000,0.097000000,-0.083000000,0.002000000,0.001000000,0.000000000
1696854134.464606,4980686.000000000,1696854134.464445114,-0.040000000,0.096000000,-0.082000000,0.003000000,0.001000000,0.000000000
1696854134.466770,4980687.000000000,1696854134.466436625,-0.039000000,0.095000000,-0.080000000,0.003000000,0.001000000,0.000000000
1696854134.468552,4980688.000000000,1696854134.468438625,-0.038000000,0.093000000,-0.078000000,0.003000000,0.001000000,0.000000000
1696854134.470533,4980689.000000000,1696854134.470425844,-0.038000000,0.091000000,-0.075000000,0.003000000,0.001000000,0.000000000
1696854134.473089,4980690.000000000,1696854134.472468376,-0.037000000,0.090000000,-0.072000000,0.003000000,0.001000000,0.000000000
1696854134.474568,4980691.000000000,1696854134.474434614,-0.036000000,0.089000000,-0.069000000,0.003000000,0.001000000,0.000000000
1696854134.476617,4980692.000000000,1696854134.476464748,-0.036000000,0.089000000,-0.065000000,0.003000000,0.001000000,0.000000000
1696854134.478575,4980693.000000000,1696854134.478453875,-0.035000000,0.089000000,-0.061000000,0.003000000,0.001000000,0.000000000
1696854134.480669,4980694.000000000,1696854134.480461121,-0.035000000,0.090000000,-0.056000000,0.003000000,0.001000000,0.000000000
1696854134.482618,4980695.000000000,1696854134.482453346,-0.035000000,0.089000000,-0.053000000,0.003000000,0.001000000,0.000000000
1696854134.484681,4980696.000000000,1696854134.484457016,-0.035000000,0.088000000,-0.048000000,0.003000000,0.001000000,0.000000000
1696854134.486747,4980697.000000000,1696854134.486424685,-0.035000000,0.087000000,-0.046000000,0.003000000,0.001000000,0.000000000
1696854134.488685,4980698.000000000,1696854134.488440990,-0.034000000,0.085000000,-0.042000000,0.003000000,0.001000000,0.000000000
1696854134.490616,4980699.000000000,1696854134.490452051,-0.034000000,0.083000000,-0.038000000,0.003000000,0.001000000,0.000000000
1696854134.492581,4980700.000000000,1696854134.492439747,-0.033000000,0.081000000,-0.035000000,0.003000000,0.001000000,0.000000000
1696854134.494606,4980701.000000000,1696854134.494467258,-0.033000000,0.080000000,-0.031000000,0.003000000,0.001000000,0.000000000
1696854134.496594,4980702.000000000,1696854134.496454000,-0.033000000,0.079000000,-0.028000000,0.003000000,0.001000000,0.000000000
1696854134.498577,4980703.000000000,1696854134.498443365,-0.032000000,0.078000000,-0.024000000,0.003000000,0.001000000,-0.001000000
1696854134.500564,4980704.000000000,1696854134.500460386,-0.032000000,0.079000000,-0.020000000,0.003000000,0.001000000,-0.001000000
1696854134.502511,4980705.000000000,1696854134.502424002,-0.032000000,0.079000000,-0.016000000,0.003000000,0.001000000,-0.001000000
1696854134.504624,4980706.000000000,1696854134.504513264,-0.033000000,0.079000000,-0.012000000,0.003000000,0.001000000,-0.001000000
1696854134.506690,4980707.000000000,1696854134.506548643,-0.033000000,0.079000000,-0.010000000,0.003000000,0.001000000,-0.001000000
1696854134.508641,4980708.000000000,1696854134.508453846,-0.033000000,0.078000000,-0.007000000,0.003000000,0.001000000,-0.001000000
1696854134.510824,4980709.000000000,1696854134.510424137,-0.033000000,0.076000000,-0.005000000,0.003000000,0.001000000,-0.001000000
1696854134.512611,4980710.000000000,1696854134.512452841,-0.032000000,0.075000000,-0.003000000,0.003000000,0.001000000,-0.001000000
1696854134.514592,4980711.000000000,1696854134.514454365,-0.032000000,0.074000000,-0.002000000,0.003000000,0.001000000,-0.001000000
1696854134.516659,4980712.000000000,1696854134.516474009,-0.032000000,0.073000000,0.000000000,0.003000000,0.001000000,-0.001000000
1696854134.518575,4980713.000000000,1696854134.518422842,-0.032000000,0.072000000,0.001000000,0.003000000,0.001000000,-0.001000000
1696854134.520564,4980714.000000000,1696854134.520441055,-0.032000000,0.072000000,0.004000000,0.003000000,0.001000000,-0.001000000
1696854134.522743,4980715.000000000,1696854134.522498608,-0.032000000,0.073000000,0.006000000,0.003000000,0.001000000,-0.001000000
1696854134.524631,4980716.000000000,1696854134.524460316,-0.032000000,0.074000000,0.007000000,0.003000000,0.001000000,-0.001000000
1696854134.526673,4980717.000000000,1696854134.526418209,-0.033000000,0.074000000,0.009000000,0.003000000,0.001000000,-0.001000000
1696854134.528696,4980718.000000000,1696854134.528455257,-0.033000000,0.075000000,0.012000000,0.003000000,0.001000000,-0.001000000
1696854134.530646,4980719.000000000,1696854134.530433178,-0.033000000,0.075000000,0.013000000,0.003000000,0.001000000,-0.001000000
1696854134.532796,4980720.000000000,1696854134.532480717,-0.033000000,0.074000000,0.013000000,0.003000000,0.001000000,-0.001000000
1696854134.534568,4980721.000000000,1696854134.534421682,-0.034000000,0.073000000,0.013000000,0.003000000,0.001000000,-0.001000000
1696854134.536684,4980722.000000000,1696854134.536458015,-0.034000000,0.072000000,0.014000000,0.003000000,0.001000000,-0.001000000
1696854134.538663,4980723.000000000,1696854134.538471460,-0.033000000,0.071000000,0.014000000,0.003000000,0.001000000,-0.001000000
1696854134.540571,4980724.000000000,1696854134.540455818,-0.033000000,0.071000000,0.014000000,0.003000000,0.001000000,-0.001000000
1696854134.542540,4980725.000000000,1696854134.542431831,-0.034000000,0.071000000,0.015000000,0.003000000,0.001000000,-0.001000000
1696854134.544616,4980726.000000000,1696854134.544452190,-0.034000000,0.072000000,0.017000000,0.003000000,0.001000000,-0.001000000
1696854134.546644,4980727.000000000,1696854134.546436787,-0.034000000,0.073000000,0.018000000,0.003000000,0.001000000,-0.001000000
1696854134.548635,4980728.000000000,1696854134.548451900,-0.034000000,0.074000000,0.018000000,0.003000000,0.001000000,-0.001000000
1696854134.550646,4980729.000000000,1696854134.550441265,-0.035000000,0.075000000,0.019000000,0.003000000,0.001000000,-0.001000000
1696854134.552683,4980730.000000000,1696854134.552453518,-0.035000000,0.075000000,0.020000000,0.003000000,0.001000000,-0.001000000
1696854134.554698,4980731.000000000,1696854134.554473877,-0.035000000,0.075000000,0.019000000,0.003000000,0.001000000,-0.001000000
1696854134.556628,4980732.000000000,1696854134.556456804,-0.035000000,0.074000000,0.019000000,0.003000000,0.001000000,-0.001000000
1696854134.558589,4980733.000000000,1696854134.558433056,-0.036000000,0.073000000,0.019000000,0.003000000,0.001000000,-0.001000000
1696854134.560745,4980734.000000000,1696854134.560504913,-0.035000000,0.072000000,0.018000000,0.003000000,0.001000000,-0.001000000
1696854134.562696,4980735.000000000,1696854134.562447071,-0.035000000,0.071000000,0.017000000,0.003000000,0.001000000,-0.001000000
1696854134.564594,4980736.000000000,1696854134.564455986,-0.035000000,0.071000000,0.017000000,0.003000000,0.001000000,-0.001000000
1696854134.566663,4980737.000000000,1696854134.566428661,-0.035000000,0.072000000,0.017000000,0.003000000,0.001000000,-0.001000000
1696854134.568643,4980738.000000000,1696854134.568450451,-0.035000000,0.072000000,0.018000000,0.003000000,0.001000000,-0.001000000
1696854134.570603,4980739.000000000,1696854134.570446730,-0.035000000,0.074000000,0.018000000,0.003000000,0.001000000,-0.001000000
1696854134.572634,4980740.000000000,1696854134.572481871,-0.035000000,0.075000000,0.017000000,0.003000000,0.001000000,-0.001000000
1696854134.575145,4980741.000000000,1696854134.574436188,-0.036000000,0.075000000,0.017000000,0.003000000,0.001000000,-0.001000000
1696854134.576742,4980742.000000000,1696854134.576472044,-0.035000000,0.075000000,0.016000000,0.003000000,0.001000000,-0.001000000
1696854134.578625,4980743.000000000,1696854134.578436375,-0.035000000,0.074000000,0.014000000,0.003000000,0.001000000,-0.001000000
1696854134.580603,4980744.000000000,1696854134.580456972,-0.035000000,0.073000000,0.013000000,0.003000000,0.001000000,-0.001000000
1696854134.582624,4980745.000000000,1696854134.582457066,-0.034000000,0.072000000,0.012000000,0.003000000,0.001000000,-0.001000000
1696854134.584683,4980746.000000000,1696854134.584448338,-0.034000000,0.071000000,0.010000000,0.003000000,0.001000000,-0.001000000
1696854134.586705,4980747.000000000,1696854134.586453915,-0.033000000,0.070000000,0.008000000,0.003000000,0.001000000,-0.001000000
1696854134.588840,4980748.000000000,1696854134.588469505,-0.033000000,0.070000000,0.008000000,0.003000000,0.001000000,-0.001000000
1696854134.590648,4980749.000000000,1696854134.590433836,-0.033000000,0.071000000,0.006000000,0.003000000,0.001000000,-0.001000000
1696854134.592695,4980750.000000000,1696854134.592455149,-0.032000000,0.072000000,0.006000000,0.003000000,0.001000000,-0.001000000
1696854134.594640,4980751.000000000,1696854134.594443321,-0.032000000,0.072000000,0.005000000,0.003000000,0.001000000,-0.001000000
1696854134.596637,4980752.000000000,1696854134.596472979,-0.032000000,0.073000000,0.004000000,0.003000000,0.001000000,-0.001000000
1696854134.598526,4980753.000000000,1696854134.598433018,-0.032000000,0.073000000,0.003000000,0.003000000,0.001000000,-0.001000000
1696854134.600552,4980754.000000000,1696854134.600458860,-0.032000000,0.072000000,0.000000000,0.003000000,0.001000000,-0.001000000
1696854134.602597,4980755.000000000,1696854134.602444649,-0.031000000,0.071000000,-0.001000000,0.003000000,0.001000000,-0.001000000
1696854134.604620,4980756.000000000,1696854134.604503155,-0.031000000,0.070000000,-0.002000000,0.003000000,0.001000000,-0.001000000
1696854134.606601,4980757.000000000,1696854134.606443167,-0.030000000,0.069000000,-0.005000000,0.003000000,0.001000000,-0.001000000
1696854134.609003,4980758.000000000,1696854134.608466148,-0.030000000,0.068000000,-0.007000000,0.003000000,0.001000000,-0.001000000
1696854134.610539,4980759.000000000,1696854134.610443115,-0.030000000,0.068000000,-0.007000000,0.003000000,0.001000000,-0.001000000
1696854134.612547,4980760.000000000,1696854134.612460136,-0.029000000,0.068000000,-0.009000000,0.003000000,0.001000000,-0.001000000
1696854134.614948,4980761.000000000,1696854134.614491463,-0.029000000,0.069000000,-0.008000000,0.003000000,0.001000000,-0.001000000
1696854134.617214,4980762.000000000,1696854134.616467237,-0.029000000,0.070000000,-0.009000000,0.003000000,0.001000000,-0.001000000
1696854134.618546,4980763.000000000,1696854134.618443727,-0.030000000,0.071000000,-0.010000000,0.003000000,0.001000000,-0.001000000
1696854134.620661,4980764.000000000,1696854134.620461226,-0.030000000,0.071000000,-0.010000000,0.003000000,0.001000000,-0.001000000
1696854134.622629,4980765.000000000,1696854134.622435093,-0.030000000,0.071000000,-0.010000000,0.003000000,0.001000000,-0.001000000
1696854134.624688,4980766.000000000,1696854134.624451160,-0.030000000,0.070000000,-0.012000000,0.003000000,0.001000000,-0.001000000
1696854134.626890,4980767.000000000,1696854134.626506329,-0.030000000,0.069000000,-0.013000000,0.003000000,0.001000000,-0.001000000
1696854134.628687,4980768.000000000,1696854134.628457546,-0.030000000,0.068000000,-0.012000000,0.003000000,0.001000000,-0.001000000
1696854134.630560,4980769.000000000,1696854134.630438089,-0.030000000,0.067000000,-0.013000000,0.003000000,0.001000000,-0.001000000
1696854134.632708,4980770.000000000,1696854134.632454872,-0.030000000,0.067000000,-0.012000000,0.003000000,0.001000000,-0.001000000
1696854134.634623,4980771.000000000,1696854134.634450436,-0.031000000,0.068000000,-0.011000000,0.003000000,0.001000000,-0.001000000
1696854134.636580,4980772.000000000,1696854134.636456251,-0.031000000,0.068000000,-0.010000000,0.003000000,0.001000000,-0.001000000
1696854134.638534,4980773.000000000,1696854134.638433456,-0.032000000,0.070000000,-0.008000000,0.003000000,0.001000000,-0.001000000
1696854134.640632,4980774.000000000,1696854134.640459776,-0.032000000,0.071000000,-0.007000000,0.003000000,0.001000000,-0.001000000
1696854134.642587,4980775.000000000,1696854134.642455339,-0.033000000,0.071000000,-0.006000000,0.003000000,0.001000000,-0.001000000
1696854134.644624,4980776.000000000,1696854134.644457102,-0.034000000,0.071000000,-0.005000000,0.003000000,0.001000000,-0.001000000
1696854134.647126,4980777.000000000,1696854134.646524668,-0.034000000,0.071000000,-0.004000000,0.003000000,0.001000000,-0.001000000
1696854134.648593,4980778.000000000,1696854134.648485184,-0.035000000,0.070000000,-0.003000000,0.003000000,0.001000000,-0.001000000
1696854134.650619,4980779.000000000,1696854134.650447369,-0.035000000,0.069000000,-0.003000000,0.003000000,0.001000000,-0.001000000
1696854134.652679,4980780.000000000,1696854134.652457714,-0.035000000,0.069000000,-0.001000000,0.003000000,0.001000000,-0.001000000
1696854134.655069,4980781.000000000,1696854134.654431343,-0.036000000,0.069000000,0.000000000,0.003000000,0.001000000,-0.001000000
1696854134.656664,4980782.000000000,1696854134.656464577,-0.036000000,0.069000000,0.001000000,0.003000000,0.001000000,-0.001000000
1696854134.659030,4980783.000000000,1696854134.658816576,-0.037000000,0.070000000,0.004000000,0.003000000,0.001000000,-0.001000000
1696854134.661109,4980784.000000000,1696854134.661000013,-0.037000000,0.071000000,0.005000000,0.003000000,0.001000000,-0.001000000
1696854134.662520,4980785.000000000,1696854134.662431479,-0.038000000,0.073000000,0.008000000,0.003000000,0.001000000,-0.001000000
1696854134.664593,4980786.000000000,1696854134.664442062,-0.038000000,0.073000000,0.008000000,0.003000000,0.001000000,-0.001000000
1696854134.666932,4980787.000000000,1696854134.666503191,-0.039000000,0.074000000,0.010000000,0.003000000,0.001000000,-0.001000000
1696854134.668600,4980788.000000000,1696854134.668456078,-0.039000000,0.074000000,0.011000000,0.003000000,0.001000000,-0.001000000
1696854134.670575,4980789.000000000,1696854134.670469999,-0.039000000,0.074000000,0.011000000,0.003000000,0.001000000,-0.001000000
1696854134.672634,4980790.000000000,1696854134.672456264,-0.039000000,0.073000000,0.011000000,0.003000000,0.001000000,-0.001000000
1696854134.674661,4980791.000000000,1696854134.674482346,-0.040000000,0.072000000,0.009000000,0.003000000,0.001000000,-0.001000000
1696854134.676658,4980792.000000000,1696854134.676455975,-0.040000000,0.072000000,0.010000000,0.003000000,0.001000000,-0.001000000
1696854134.678808,4980793.000000000,1696854134.678469419,-0.040000000,0.073000000,0.009000000,0.003000000,0.001000000,-0.001000000
1696854134.680815,4980794.000000000,1696854134.680455208,-0.040000000,0.074000000,0.007000000,0.003000000,0.001000000,-0.001000000
1696854134.682629,4980795.000000000,1696854134.682456493,-0.040000000,0.075000000,0.008000000,0.003000000,0.001000000,-0.001000000
1696854134.684658,4980796.000000000,1696854134.684455395,-0.040000000,0.077000000,0.007000000,0.003000000,0.001000000,-0.001000000
1696854134.686572,4980797.000000000,1696854134.686435223,-0.040000000,0.079000000,0.005000000,0.003000000,0.001000000,-0.001000000
1696854134.688660,4980798.000000000,1696854134.688453436,-0.040000000,0.080000000,0.003000000,0.003000000,0.001000000,-0.001000000
1696854134.690677,4980799.000000000,1696854134.690452337,-0.041000000,0.081000000,0.000000000,0.003000000,0.001000000,-0.001000000
1696854134.692724,4980800.000000000,1696854134.692494154,-0.041000000,0.081000000,-0.002000000,0.003000000,0.001000000,-0.001000000
1696854134.694564,4980801.000000000,1696854134.694429398,-0.041000000,0.081000000,-0.006000000,0.003000000,0.001000000,-0.001000000
1696854134.696554,4980802.000000000,1696854134.696463346,-0.041000000,0.081000000,-0.010000000,0.003000000,0.001000000,-0.001000000
1696854134.698677,4980803.000000000,1696854134.698497772,-0.040000000,0.081000000,-0.015000000,0.003000000,0.001000000,-0.001000000
1696854134.702092,4980804.000000000,1696854134.701852560,-0.040000000,0.082000000,-0.020000000,0.003000000,0.001000000,-0.001000000
1696854134.703081,4980805.000000000,1696854134.702955961,-0.040000000,0.083000000,-0.024000000,0.003000000,0.001000000,-0.001000000
1696854134.704565,4980806.000000000,1696854134.704455137,-0.040000000,0.085000000,-0.029000000,0.003000000,0.001000000,-0.001000000
1696854134.707302,4980807.000000000,1696854134.706451416,-0.041000000,0.087000000,-0.033000000,0.003000000,0.001000000,0.000000000
1696854134.708627,4980808.000000000,1696854134.708437443,-0.041000000,0.089000000,-0.037000000,0.003000000,0.001000000,0.000000000
1696854134.710587,4980809.000000000,1696854134.710435867,-0.041000000,0.091000000,-0.043000000,0.003000000,0.001000000,0.000000000
1696854134.712541,4980810.000000000,1696854134.712445974,-0.041000000,0.092000000,-0.049000000,0.003000000,0.001000000,0.000000000
1696854134.714680,4980811.000000000,1696854134.714486599,-0.041000000,0.093000000,-0.054000000,0.003000000,0.001000000,0.000000000
1696854134.716551,4980812.000000000,1696854134.716446877,-0.042000000,0.093000000,-0.061000000,0.003000000,0.001000000,0.000000000
1696854134.718550,4980813.000000000,1696854134.718436241,-0.041000000,0.093000000,-0.066000000,0.003000000,0.001000000,0.000000000
1696854134.720576,4980814.000000000,1696854134.720454216,-0.042000000,0.093000000,-0.072000000,0.003000000,0.001000000,0.000000000
1696854134.722582,4980815.000000000,1696854134.722452164,-0.041000000,0.093000000,-0.078000000,0.003000000,0.001000000,0.000000000
1696854134.724652,4980816.000000000,1696854134.724457979,-0.041000000,0.094000000,-0.083000000,0.003000000,0.001000000,0.000000000
1696854134.726595,4980817.000000000,1696854134.726450443,-0.042000000,0.095000000,-0.088000000,0.003000000,0.001000000,0.000000000
1696854134.728653,4980818.000000000,1696854134.728461266,-0.042000000,0.097000000,-0.091000000,0.003000000,0.001000000,0.000000000
1696854134.730568,4980819.000000000,1696854134.730460882,-0.042000000,0.098000000,-0.095000000,0.003000000,0.001000000,0.000000000
1696854134.732811,4980820.000000000,1696854134.732461929,-0.042000000,0.099000000,-0.099000000,0.003000000,0.001000000,0.000000000
1696854134.734525,4980821.000000000,1696854134.734439850,-0.043000000,0.100000000,-0.102000000,0.003000000,0.001000000,0.000000000
1696854134.736625,4980822.000000000,1696854134.736475468,-0.043000000,0.100000000,-0.105000000,0.003000000,0.001000000,0.000000000
1696854134.738592,4980823.000000000,1696854134.738433838,-0.043000000,0.099000000,-0.109000000,0.003000000,0.001000000,0.000000000
