__time,/hsrb/joint_states/arm_flex_joint/effort,/hsrb/joint_states/arm_flex_joint/position,/hsrb/joint_states/arm_flex_joint/velocity,/hsrb/joint_states/arm_lift_joint/effort,/hsrb/joint_states/arm_lift_joint/position,/hsrb/joint_states/arm_lift_joint/velocity,/hsrb/joint_states/arm_roll_joint/effort,/hsrb/joint_states/arm_roll_joint/position,/hsrb/joint_states/arm_roll_joint/velocity,/hsrb/joint_states/base_l_drive_wheel_joint/effort,/hsrb/joint_states/base_l_drive_wheel_joint/position,/hsrb/joint_states/base_l_drive_wheel_joint/velocity,/hsrb/joint_states/base_r_drive_wheel_joint/effort,/hsrb/joint_states/base_r_drive_wheel_joint/position,/hsrb/joint_states/base_r_drive_wheel_joint/velocity,/hsrb/joint_states/base_roll_joint/effort,/hsrb/joint_states/base_roll_joint/position,/hsrb/joint_states/base_roll_joint/velocity,/hsrb/joint_states/hand_l_spring_proximal_joint/effort,/hsrb/joint_states/hand_l_spring_proximal_joint/position,/hsrb/joint_states/hand_l_spring_proximal_joint/velocity,/hsrb/joint_states/hand_motor_joint/effort,/hsrb/joint_states/hand_motor_joint/position,/hsrb/joint_states/hand_motor_joint/velocity,/hsrb/joint_states/hand_r_spring_proximal_joint/effort,/hsrb/joint_states/hand_r_spring_proximal_joint/position,/hsrb/joint_states/hand_r_spring_proximal_joint/velocity,/hsrb/joint_states/head_pan_joint/effort,/hsrb/joint_states/head_pan_joint/position,/hsrb/joint_states/head_pan_joint/velocity,/hsrb/joint_states/head_tilt_joint/effort,/hsrb/joint_states/head_tilt_joint/position,/hsrb/joint_states/head_tilt_joint/velocity,/hsrb/joint_states/header/seq,/hsrb/joint_states/header/stamp,/hsrb/joint_states/wrist_flex_joint/effort,/hsrb/joint_states/wrist_flex_joint/position,/hsrb/joint_states/wrist_flex_joint/velocity,/hsrb/joint_states/wrist_roll_joint/effort,/hsrb/joint_states/wrist_roll_joint/position,/hsrb/joint_states/wrist_roll_joint/velocity,/hsrb/pressure_sensor/data,/hsrb/wrist_wrench/compensated/header/seq,/hsrb/wrist_wrench/compensated/header/stamp,/hsrb/wrist_wrench/compensated/wrench/force/x,/hsrb/wrist_wrench/compensated/wrench/force/y,/hsrb/wrist_wrench/compensated/wrench/force/z,/hsrb/wrist_wrench/compensated/wrench/torque/x,/hsrb/wrist_wrench/compensated/wrench/torque/y,/hsrb/wrist_wrench/compensated/wrench/torque/z
1692626101.062255,4.270781,-0.539534,0.000018,92.554252,0.205492,-0.000008,-0.110400,0.048121,0.000046,0.010788,-2.718867,-0.000653,0.026970,11.929027,-0.002236,0.364320,-0.484810,-0.000094,-1.927000,-0.057910,-0.026000,0.026612,1.227909,0.005318,-1.633000,0.001090,0.008999,0.040480,0.000000,-0.000138,-1.531143,0.000002,-0.000038,18315.000000,1692626101.053875,0.951543,-1.031934,-0.000048,0.005257,-0.024769,0.000048,,,,,,,,,
1692626101.087549,4.189895,-0.539534,-0.000018,91.972150,0.205492,-0.000008,-0.281520,0.048121,0.000046,0.010788,-2.718867,-0.000653,0.008091,11.929047,0.001207,0.331200,-0.484810,-0.000094,-1.922000,-0.052954,-0.024000,0.028661,1.224954,-0.003545,-1.626000,0.007045,0.023000,-0.001840,0.000000,-0.000138,-1.570571,0.000002,-0.000038,18316.000000,1692626101.073883,0.888457,-1.031934,-0.000048,0.015771,-0.024769,0.000048,,,,,,,,,
1692626101.100449,4.173718,-0.539534,0.000018,92.263201,0.205492,-0.000008,-0.160080,0.048121,0.000046,0.018879,-2.718867,-0.000653,0.000000,11.929027,-0.003008,0.331200,-0.484810,-0.000094,-1.925000,-0.054955,-0.013000,0.024154,1.224954,-0.008863,-1.626000,0.007045,0.020999,0.025760,0.000000,-0.000138,-1.478571,0.000002,-0.000038,18317.000000,1692626101.093875,1.009371,-1.031934,-0.000048,0.120914,-0.024769,0.000048,,,,,,,,,
1692626101.120360,4.319313,-0.539534,0.001080,92.554252,0.205492,-0.000008,-0.149040,0.048121,0.000046,0.010788,-2.718867,-0.000653,0.000000,11.929027,-0.003345,0.342240,-0.484810,-0.000094,-1.914000,-0.045363,-0.016000,0.025795,1.224363,-0.011227,-1.625000,0.006636,0.014000,-0.003680,0.000000,-0.000138,-1.518000,0.000002,-0.000038,18318.000000,1692626101.113876,1.030400,-1.031934,-0.000048,0.015771,-0.024769,0.000048,,,,,,,,,
1692626101.147125,4.286959,-0.539534,-0.000018,92.554252,0.205492,-0.000008,-0.143520,0.048121,0.000046,0.018879,-2.718867,-0.000653,-0.002697,11.929047,0.002018,0.342240,-0.484810,-0.000094,-1.914000,-0.047363,0.013000,0.024566,1.224363,-0.013590,-1.620000,0.008637,0.017999,0.003680,0.000000,-0.000138,-1.445714,0.000002,-0.000038,18319.000000,1692626101.133875,0.983086,-1.031934,-0.000048,0.021029,-0.024769,0.000048,,,,,,,,,
1692626101.162800,3.478099,-0.539152,0.000018,92.845303,0.205492,-0.000008,-0.204240,0.048121,0.000046,0.016182,-2.718867,-0.000653,0.010788,11.929047,0.000653,0.331200,-0.484810,-0.000094,-1.914000,-0.047546,0.013000,0.027841,1.225545,-0.007090,-1.620000,0.007455,0.020999,0.018400,0.000000,-0.000138,-1.610000,0.000002,-0.000038,18320.000000,1692626101.153874,1.051429,-1.031934,-0.000048,0.052571,-0.024769,0.000048,,,,,,,,,
1692626101.186360,4.319313,-0.539534,0.000052,92.554252,0.205492,-0.000008,-0.132480,0.048121,0.000046,0.018879,-2.718867,-0.000653,0.018879,11.929027,-0.003127,0.353280,-0.484810,-0.000094,-1.909000,-0.045546,0.026000,0.026612,1.225545,-0.004136,-1.621000,0.005454,0.014000,0.036800,0.000000,-0.000138,-1.504857,0.000002,-0.000038,18321.000000,1692626101.173894,1.025143,-1.031934,-0.000048,0.063086,-0.024769,0.000075,,,,,,,,,
1692626101.204036,2.782479,-0.539152,-0.000018,92.845303,0.205492,-0.000008,-0.220800,0.048121,0.000046,0.018879,-2.718867,-0.000653,0.005394,11.929047,0.001326,0.320160,-0.484810,-0.000094,-1.904000,-0.044136,0.024000,0.027020,1.226136,-0.004136,-1.618000,0.007863,0.008999,-0.003680,0.000000,-0.000138,-1.583714,0.000002,-0.000038,18322.000000,1692626101.193880,1.014629,-1.031934,-0.000048,0.021029,-0.024769,0.000048,,,,,,,,,
1692626101.216614,4.319313,-0.539534,0.000018,92.554252,0.205492,-0.000008,-0.132480,0.048121,0.000046,0.024273,-2.718867,-0.000653,0.026970,11.929047,0.002236,0.320160,-0.484810,-0.000094,-1.906000,-0.045318,0.032000,0.026204,1.227318,-0.001181,-1.621000,0.004681,0.023000,0.025760,0.000000,-0.000138,-1.478571,0.000002,-0.000038,18323.000000,1692626101.203880,0.967314,-1.031934,-0.000048,0.005257,-0.024769,0.000048,,,,,,,,,
1692626101.243041,2.475112,-0.539152,-0.000018,93.136354,0.205492,-0.000008,-0.077280,0.048121,0.000046,0.018879,-2.718867,-0.000653,0.024273,11.929047,0.002533,0.342240,-0.484810,-0.000094,-1.904000,-0.045728,0.024000,0.023746,1.226727,0.001772,-1.615000,0.007272,0.016000,0.007360,0.000000,-0.000138,-1.577143,0.000002,-0.000038,18324.000000,1692626101.233874,0.877943,-1.031934,-0.000048,-0.073600,-0.024769,0.000048,,,,,,,,,
1692626101.269960,3.494276,-0.539152,-0.000767,93.427405,0.205492,-0.000008,-0.215280,0.048121,0.000046,0.021576,-2.718867,-0.000653,0.008091,11.929027,-0.003325,0.342240,-0.484810,-0.000094,-1.909000,-0.051728,0.026000,0.024154,1.226727,0.001772,-1.616000,0.005272,0.014999,0.022080,0.000000,-0.000138,-1.557429,0.000002,-0.000038,18325.000000,1692626101.253873,1.040914,-1.031934,-0.000048,0.052571,-0.024769,0.000048,,,,,,,,,
1692626101.273906,,,,,,,,,,,,,,,,,,,,,,,,,,,,,,,,,,,,,,,,,,,35875.000000,1692626101.264400,0.000000,0.000000,0.000000,0.000000,0.000000,0.000000
1692626101.281048,3.122200,-0.539152,-0.000579,93.718456,0.205492,-0.000008,-0.154560,0.048121,0.000046,0.008091,-2.718867,-0.000653,0.035061,11.929047,0.002296,0.342240,-0.484810,-0.000094,-1.907000,-0.049727,0.000000,0.025795,1.226727,0.001772,-1.618000,0.004272,0.004999,-0.005520,0.000000,-0.000138,-1.307714,0.000002,-0.000038,18326.000000,1692626101.273873,1.161829,-1.031934,-0.000048,0.115657,-0.024769,0.000048,,,,,,,,,
1692626101.283409,,,,,,,,,,,,,,,,,,,,,,,,,,,,,,,,,,,,,,,,,,,35876.000000,1692626101.275240,0.000000,0.000000,0.000000,0.000000,0.000000,0.000000
1692626101.298744,,,,,,,,,,,,,,,,,,,,,,,,,,,,,,,,,,,,,,,,,,,35877.000000,1692626101.284610,0.000000,0.000000,0.000000,0.000000,0.000000,0.000000
1692626101.304407,,,,,,,,,,,,,,,,,,,,,,,,,,,,,,,,,,,,,,,,,,0.000000,,,,,,,,
1692626101.304514,3.283972,-0.539152,-0.000105,93.427405,0.205492,-0.000008,-0.182160,0.048121,0.000046,0.010788,-2.718867,-0.000653,0.024273,11.929027,-0.002573,0.331200,-0.484810,-0.000094,-1.909000,-0.051137,0.000000,0.027020,1.226136,-0.001181,-1.618000,0.003864,0.000000,0.009200,0.000000,-0.000138,-1.504857,0.000002,-0.000038,18327.000000,1692626101.293874,0.967314,-1.031934,-0.000048,-0.021029,-0.024769,0.000048,,,,,,,,,
1692626101.304541,,,,,,,,,,,,,,,,,,,,,,,,,,,,,,,,,,,,,,,,,,,35878.000000,1692626101.297241,0.000000,0.000000,0.000000,0.000000,0.000000,0.000000
1692626101.314022,,,,,,,,,,,,,,,,,,,,,,,,,,,,,,,,,,,,,,,,,,,35879.000000,1692626101.304526,0.000000,0.000000,0.000000,0.000000,0.000000,0.000000
1692626101.322261,2.280986,-0.539152,-0.000313,93.718456,0.205492,-0.000008,-0.121440,0.048121,0.000046,0.008091,-2.718867,-0.000653,0.008091,11.929047,0.000692,0.375360,-0.484810,-0.000094,-1.909000,-0.052136,-0.009999,0.026204,1.226136,-0.001181,-1.618000,0.003864,0.000000,0.027600,0.000000,-0.000138,-1.426000,0.000002,-0.000038,18328.000000,1692626101.313873,1.056686,-1.031934,-0.000048,0.042057,-0.024769,0.000048,,,,,,,,,
1692626101.328691,,,,,,,,,,,,,,,,,,,,,,,,,,,,,,,,,,,,,,,,,,,35880.000000,1692626101.314462,0.000000,0.000000,0.000000,0.000000,0.000000,0.000000
1692626101.331133,,,,,,,,,,,,,,,,,,,,,,,,,,,,,,,,,,,,,,,,,,,35881.000000,1692626101.324646,0.000000,0.000000,0.000000,0.000000,0.000000,0.000000
1692626101.339720,,,,,,,,,,,,,,,,,,,,,,,,,,,,,,,,,,,,,,,,,,,35882.000000,1692626101.334391,0.000000,0.000000,0.000000,0.000000,0.000000,0.000000
1692626101.340650,2.814833,-0.539152,-0.000046,94.300558,0.205492,-0.000008,-0.182160,0.048121,0.000046,0.008091,-2.718867,-0.000653,0.013485,11.929027,-0.002909,0.331200,-0.484810,-0.000094,-1.906000,-0.050137,-0.004000,0.027020,1.226136,-0.001181,-1.616000,0.004863,0.004000,0.018400,0.000000,-0.000138,-1.399714,0.000002,-0.000038,18329.000000,1692626101.333877,1.109257,-1.031934,-0.000048,0.073600,-0.024769,0.000306,,,,,,,,,
1692626101.347687,,,,,,,,,,,,,,,,,,,,,,,,,,,,,,,,,,,,,,,,,,,35883.000000,1692626101.345087,0.000000,0.000000,0.000000,0.000000,0.000000,0.000000
1692626101.359186,,,,,,,,,,,,,,,,,,,,,,,,,,,,,,,,,,,,,,,,,,,35884.000000,1692626101.357470,0.000000,0.000000,0.000000,0.000000,0.000000,0.000000
1692626101.361070,3.494276,-0.539534,0.000028,93.718456,0.205492,-0.000008,-0.237360,0.048121,0.000046,0.008091,-2.718867,-0.000653,0.029667,11.929047,0.002968,0.331200,-0.484810,-0.000094,-1.904000,-0.048545,0.001000,0.022929,1.225545,-0.006499,-1.615000,0.005454,0.004000,-0.003680,0.000000,-0.000138,-1.452286,0.000002,-0.000038,18330.000000,1692626101.353877,0.856914,-1.031934,-0.000048,0.068343,-0.024769,0.000123,,,,,,,,,
1692626101.375505,,,,,,,,,,,,,,,,,,,,,,,,,,,,,,,,,,,,,,,,,,,35885.000000,1692626101.364828,0.000000,0.000000,0.000000,0.000000,0.000000,0.000000
1692626101.381621,,,,,,,,,,,,,,,,,,,,,,,,,,,,,,,,,,,,,,,,,,,35886.000000,1692626101.374798,0.000000,0.000000,0.000000,0.000000,0.000000,0.000000
1692626101.387524,1.811847,-0.539152,-0.000476,94.591609,0.205492,-0.000008,-0.298080,0.048121,0.000046,0.016182,-2.718867,-0.000653,0.016182,11.929047,0.002553,0.353280,-0.484810,-0.000094,-1.902000,-0.048182,0.004999,0.029070,1.223181,-0.003545,-1.611000,0.007818,-0.001000,0.014720,0.000000,-0.000138,-1.386571,0.000002,-0.000038,18331.000000,1692626101.373871,1.004114,-1.031934,-0.000048,0.015771,-0.024769,0.000048,,,,,,,,,
1692626101.390772,,,,,,,,,,,,,,,,,,,,,,,,,,,,,,,,,,,,,,,,,,,35887.000000,1692626101.384825,0.000000,0.000000,0.000000,0.000000,0.000000,0.000000
1692626101.395752,1.601543,-0.539152,0.000018,94.009507,0.205492,-0.000008,-0.226320,0.048121,0.000046,0.013485,-2.718867,-0.000653,-0.010788,11.929027,-0.002968,0.342240,-0.484810,-0.000094,-1.904000,-0.049772,-0.009999,0.022929,1.223772,-0.014772,-1.611000,0.007227,0.004000,0.005520,0.000000,-0.000138,-1.728286,0.000002,-0.000038,18332.000000,1692626101.383879,0.898971,-1.031934,-0.000048,0.031543,-0.024769,0.000048,,,,,,,,,
1692626101.403972,,,,,,,,,,,,,,,,,,,,,,,,,,,,,,,,,,,,,,,,,,,35888.000000,1692626101.394939,0.000000,0.000000,0.000000,0.000000,0.000000,0.000000
1692626101.405957,,,,,,,,,,,,,,,,,,,,,,,,,,,,,,,,,,,,,,,,,,0.000000,,,,,,,,
1692626101.405985,,,,,,,,,,,,,,,,,,,,,,,,,,,,,,,,,,,,,,,,,,,35889.000000,1692626101.404643,0.000000,0.000000,0.000000,0.000000,0.000000,0.000000
1692626101.418072,,,,,,,,,,,,,,,,,,,,,,,,,,,,,,,,,,,,,,,,,,,35890.000000,1692626101.416731,0.000000,0.000000,0.000000,0.000000,0.000000,0.000000
1692626101.425339,2.523644,-0.539152,-0.000143,94.300558,0.205492,-0.000008,-0.187680,0.048116,-0.000046,0.016182,-2.718867,-0.000653,0.016182,11.929027,-0.002790,0.331200,-0.484810,-0.000094,-1.902000,-0.048773,0.001000,0.027020,1.223772,-0.011227,-1.595000,0.016228,0.043000,0.001840,0.000000,-0.000138,-1.603429,0.000002,-0.000038,18333.000000,1692626101.413876,1.035657,-1.031934,-0.000048,0.105143,-0.024769,0.000048,,,,,,,,,
1692626101.430021,,,,,,,,,,,,,,,,,,,,,,,,,,,,,,,,,,,,,,,,,,,35891.000000,1692626101.424523,0.000000,0.000000,0.000000,0.000000,0.000000,0.000000
1692626101.437820,,,,,,,,,,,,,,,,,,,,,,,,,,,,,,,,,,,,,,,,,,,35892.000000,1692626101.434466,0.000000,0.000000,0.000000,0.000000,0.000000,0.000000
1692626101.441682,3.251618,-0.539534,0.000018,94.300558,0.205492,-0.000008,-0.138000,0.048116,-0.000046,0.021576,-2.718867,-0.000653,0.005394,11.929027,-0.003582,0.331200,-0.484810,-0.000094,-1.891000,-0.041364,0.030999,0.024975,1.224363,-0.008272,-1.595000,0.013637,0.043000,0.000000,0.000000,-0.000138,-1.596857,0.000006,0.000038,18334.000000,1692626101.433878,1.104000,-1.031934,-0.000048,0.047314,-0.024769,0.000048,,,,,,,,,
1692626101.451617,,,,,,,,,,,,,,,,,,,,,,,,,,,,,,,,,,,,,,,,,,,35893.000000,1692626101.444515,0.000000,0.000000,0.000000,0.000000,0.000000,0.000000
1692626101.462508,,,,,,,,,,,,,,,,,,,,,,,,,,,,,,,,,,,,,,,,,,,35894.000000,1692626101.454500,0.000000,0.000000,0.000000,0.000000,0.000000,0.000000
1692626101.462519,2.361872,-0.539152,-0.001294,94.591609,0.205492,-0.000008,-0.264960,0.048116,-0.000046,0.008091,-2.718867,-0.000653,0.021576,11.929047,0.002117,0.320160,-0.484810,-0.000094,-1.891000,-0.043364,0.028999,0.027432,1.224363,-0.008272,-1.595000,0.010637,0.014999,-0.007360,0.000000,-0.000138,-1.472000,0.000002,-0.000038,18335.000000,1692626101.453869,0.951543,-1.031934,-0.000048,0.000000,-0.024769,0.001379,,,,,,,,,
1692626101.472183,,,,,,,,,,,,,,,,,,,,,,,,,,,,,,,,,,,,,,,,,,,35895.000000,1692626101.468487,0.000000,0.000000,0.000000,0.000000,0.000000,0.000000
1692626101.481313,,,,,,,,,,,,,,,,,,,,,,,,,,,,,,,,,,,,,,,,,,,35896.000000,1692626101.474524,0.000000,0.000000,0.000000,0.000000,0.000000,0.000000
1692626101.481328,3.316327,-0.539152,-0.000650,95.173712,0.205493,0.000549,-0.154560,0.048116,-0.000046,0.018879,-2.718867,-0.000653,0.024273,11.929027,-0.002157,0.331200,-0.484810,-0.000094,-1.894000,-0.045954,0.008000,0.026612,1.224954,-0.008272,-1.595000,0.010046,0.014999,0.036800,0.000000,-0.000138,-1.524571,0.000002,-0.000038,18336.000000,1692626101.473872,1.114514,-1.031934,-0.000048,0.141943,-0.024769,0.000048,,,,,,,,,
1692626101.489120,,,,,,,,,,,,,,,,,,,,,,,,,,,,,,,,,,,,,,,,,,,35897.000000,1692626101.484512,0.000000,0.000000,0.000000,0.000000,0.000000,0.000000
1692626101.505603,,,,,,,,,,,,,,,,,,,,,,,,,,,,,,,,,,,,,,,,,,,35898.000000,1692626101.494472,0.000000,0.000000,0.000000,0.000000,0.000000,0.000000
1692626101.505637,1.455948,-0.539152,-0.000272,94.009507,0.205493,0.000008,-0.104880,0.048116,-0.000046,0.016182,-2.718867,-0.000653,0.026970,11.929027,-0.001939,0.331200,-0.484810,-0.000094,-1.888000,-0.042136,0.032000,0.025383,1.226136,0.000590,-1.598000,0.006864,0.004999,-0.007360,0.000000,-0.000138,-1.419429,0.000002,-0.000038,18337.000000,1692626101.493882,1.030400,-1.031934,-0.000048,0.005257,-0.024769,0.000048,,,,,,,,,
1692626101.522260,,,,,,,,,,,,,,,,,,,,,,,,,,,,,,,,,,,,,,,,,,0.000000,,,,,,,,
1692626101.522288,,,,,,,,,,,,,,,,,,,,,,,,,,,,,,,,,,,,,,,,,,,35899.000000,1692626101.513912,0.000000,0.000000,0.000000,0.000000,0.000000,0.000000
1692626101.522313,2.766302,-0.539152,-0.001227,94.009507,0.205493,0.000008,-0.154560,0.048116,-0.000046,0.010788,-2.718867,-0.000653,0.013485,11.929047,0.002256,0.331200,-0.484810,-0.000094,-1.891000,-0.046137,0.019999,0.024566,1.226136,0.000590,-1.603000,0.003864,0.000000,-0.009200,0.000000,-0.000138,-1.557429,0.000002,-0.000038,18338.000000,1692626101.513875,0.983086,-1.031934,-0.000048,0.026286,-0.024769,0.000048,,,,,,,,,
1692626101.528551,,,,,,,,,,,,,,,,,,,,,,,,,,,,,,,,,,,,,,,,,,,35900.000000,1692626101.515121,0.000000,0.000000,0.000000,0.000000,0.000000,0.000000
1692626101.538860,1.423594,-0.539152,0.000218,92.554252,0.205493,0.000008,-0.115920,0.048116,-0.000046,0.010788,-2.718867,-0.000653,0.037758,11.929047,0.002533,0.331200,-0.484810,-0.000094,-1.889000,-0.044136,0.008999,0.029478,1.226136,0.000590,-1.603000,0.003864,-0.008999,0.046000,0.000000,-0.000138,-1.531143,0.000002,-0.000038,18339.000000,1692626101.523888,0.988343,-1.031934,-0.000048,0.110400,-0.024769,0.000048,,,,,,,,,
1692626101.539023,,,,,,,,,,,,,,,,,,,,,,,,,,,,,,,,,,,,,,,,,,,35902.000000,1692626101.534636,0.000000,0.000000,0.000000,0.000000,0.000000,0.000000
1692626101.553300,,,,,,,,,,,,,,,,,,,,,,,,,,,,,,,,,,,,,,,,,,,35903.000000,1692626101.544468,0.000000,0.000000,0.000000,0.000000,0.000000,0.000000
1692626101.565015,3.186909,-0.539534,-0.000468,92.263201,0.205493,0.000008,-0.138000,0.048116,-0.000046,0.016182,-2.718867,-0.000653,0.008091,11.929027,-0.002790,0.342240,-0.484810,-0.000094,-1.888000,-0.044319,0.020999,0.026204,1.227318,0.005318,-1.606000,0.002682,-0.003000,0.036800,0.000000,-0.000138,-1.531143,0.000002,-0.000038,18340.000000,1692626101.553874,1.046171,-1.031934,-0.000048,0.099886,-0.024769,0.000048,,,,,,,,,
1692626101.565606,,,,,,,,,,,,,,,,,,,,,,,,,,,,,,,,,,,,,,,,,,,35904.000000,1692626101.554881,0.000000,0.000000,0.000000,0.000000,0.000000,0.000000
1692626101.569829,,,,,,,,,,,,,,,,,,,,,,,,,,,,,,,,,,,,,,,,,,,35905.000000,1692626101.564722,0.000000,0.000000,0.000000,0.000000,0.000000,0.000000
1692626101.580788,,,,,,,,,,,,,,,,,,,,,,,,,,,,,,,,,,,,,,,,,,,35906.000000,1692626101.574476,0.000000,0.000000,0.000000,0.000000,0.000000,0.000000
1692626101.582991,3.445744,-0.539534,0.000468,91.098996,0.205493,0.000008,-0.093840,0.048116,-0.000046,0.008091,-2.718867,-0.000653,0.008091,11.929027,-0.002850,0.353280,-0.484810,-0.000094,-1.886000,-0.043728,0.018999,0.028249,1.226727,0.002363,-1.616000,-0.002728,-0.007000,-0.009200,0.000000,-0.000138,-1.439143,0.000002,-0.000077,18341.000000,1692626101.573877,1.072457,-1.031934,-0.000048,0.026286,-0.024769,0.000048,,,,,,,,,
1692626101.589239,,,,,,,,,,,,,,,,,,,,,,,,,,,,,,,,,,,,,,,,,,,35907.000000,1692626101.585319,0.000000,0.000000,0.000000,0.000000,0.000000,0.000000
1692626101.600681,,,,,,,,,,,,,,,,,,,,,,,,,,,,,,,,,,,,,,,,,,,35908.000000,1692626101.594474,0.000000,0.000000,0.000000,0.000000,0.000000,0.000000
1692626101.607231,3.995769,-0.539534,-0.000884,91.098996,0.205493,0.000008,-0.071760,0.048116,-0.000046,0.013485,-2.718867,-0.000653,0.013485,11.929027,-0.002889,0.331200,-0.484810,-0.000094,-1.891000,-0.047727,-0.001000,0.027020,1.226727,0.002363,-1.616000,-0.000728,-0.029999,0.018400,0.000000,-0.000138,-1.458857,0.000002,-0.000038,18342.000000,1692626101.593883,1.072457,-1.031934,-0.000048,0.026286,-0.024769,0.000048,,,,,,,,,
1692626101.617967,,,,,,,,,,,,,,,,,,,,,,,,,,,,,,,,,,,,,,,,,,,35909.000000,1692626101.604612,0.000000,0.000000,0.000000,0.000000,0.000000,0.000000
1692626101.623436,2.475112,-0.539534,0.000529,90.807945,0.205493,0.000008,-0.077280,0.048116,-0.000046,0.016182,-2.718867,-0.000653,0.016182,11.929027,-0.003048,0.353280,-0.484810,-0.000094,-1.891000,-0.047319,0.008999,0.027020,1.227318,0.004727,-1.620000,-0.002318,-0.027000,0.031280,0.000000,-0.000138,-1.498286,0.000002,-0.000038,18343.000000,1692626101.613871,1.051429,-1.031934,-0.000048,0.063086,-0.024769,0.000048,,,,,,,,,
1692626101.646923,,,,,,,,,,,,,,,,,,,,,,,,,,,,,,,,,,,,,,,,,,0.000000,,,,,,,,
1692626101.646933,,,,,,,,,,,,,,,,,,,,,,,,,,,,,,,,,,,,,,,,,,,35912.000000,1692626101.634688,0.000000,0.000000,0.000000,0.000000,0.000000,0.000000
1692626101.646944,3.203086,-0.539534,0.000026,92.263201,0.205492,-0.000008,-0.143520,0.048116,-0.000046,0.016182,-2.718867,-0.000653,0.016182,11.929027,-0.002315,0.342240,-0.484810,-0.000094,-1.896000,-0.050909,0.004000,0.024566,1.227909,0.004727,-1.620000,-0.001910,-0.026000,0.047840,0.000000,-0.000138,-1.544286,0.000002,-0.000038,18344.000000,1692626101.623877,1.125029,-1.031934,-0.000048,-0.021029,-0.024769,0.000048,,,,,,,,,
1692626101.678781,,,,,,,,,,,,,,,,,,,,,,,,,,,,,,,,,,,,,,,,,,,35915.000000,1692626101.664497,0.000000,0.000000,0.000000,0.000000,0.000000,0.000000
1692626101.678795,4.222250,-0.539534,0.000468,92.263201,0.205492,-0.000008,0.011040,0.048116,-0.000046,0.000000,-2.718867,-0.000653,0.005394,11.929047,0.002672,0.364320,-0.484810,-0.000094,-1.896000,-0.048909,-0.001000,0.026612,1.227909,0.007090,-1.621000,-0.000910,-0.018999,0.009200,0.000000,-0.000138,-1.570571,0.000002,-0.000038,18345.000000,1692626101.653870,0.977829,-1.031934,-0.000048,-0.042057,-0.024769,0.002856,,,,,,,,,
1692626101.683340,3.445744,-0.539534,0.000206,91.681098,0.205492,-0.000008,-0.055200,0.048121,0.000046,0.008091,-2.718867,-0.000653,0.008091,11.929047,0.001444,0.331200,-0.484810,-0.000094,-1.899000,-0.050909,-0.009999,0.026612,1.227909,0.007090,-1.618000,0.001090,-0.008999,0.020240,0.000000,-0.000138,-1.406286,0.000002,-0.000038,18346.000000,1692626101.673871,1.067200,-1.031934,-0.000048,0.073600,-0.024769,0.000048,,,,,,,,,
1692626101.685367,,,,,,,,,,,,,,,,,,,,,,,,,,,,,,,,,,,,,,,,,,,35916.000000,1692626101.674557,0.000000,0.000000,0.000000,0.000000,0.000000,0.000000
1692626101.692369,,,,,,,,,,,,,,,,,,,,,,,,,,,,,,,,,,,,,,,,,,,35917.000000,1692626101.684471,0.000000,0.000000,0.000000,0.000000,0.000000,0.000000
1692626101.698641,,,,,,,,,,,,,,,,,,,,,,,,,,,,,,,,,,,,,,,,,,,35918.000000,1692626101.694515,0.000000,0.000000,0.000000,0.000000,0.000000,0.000000
1692626101.704249,4.189895,-0.539152,-0.000638,92.554252,0.205492,-0.000008,-0.121440,0.048121,0.000046,0.008091,-2.718867,-0.000653,0.013485,11.929027,-0.002474,0.342240,-0.484810,-0.000094,-1.899000,-0.050909,-0.009999,0.024975,1.227909,0.007090,-1.616000,0.003090,-0.004000,0.001840,0.000000,-0.000138,-1.511429,0.000002,-0.000038,18347.000000,1692626101.693874,1.109257,-1.031934,-0.000048,0.173486,-0.024769,0.004338,,,,,,,,,
1692626101.712827,,,,,,,,,,,,,,,,,,,,,,,,,,,,,,,,,,,,,,,,,,,35919.000000,1692626101.706001,0.000000,0.000000,0.000000,0.000000,0.000000,0.000000
1692626101.713861,3.170732,-0.539152,-0.000836,92.554252,0.205492,-0.000008,-0.132480,0.048121,0.000046,0.005394,-2.718867,-0.000653,0.008091,11.929027,-0.002216,0.331200,-0.484810,-0.000094,-1.899000,-0.051499,-0.009999,0.026204,1.228499,0.007090,-1.618000,0.001501,0.006000,0.033120,0.000000,-0.000138,-1.524571,0.000002,-0.000038,18348.000000,1692626101.703882,1.025143,-1.031934,-0.000048,0.026286,-0.024769,0.000048,,,,,,,,,
1692626101.721595,,,,,,,,,,,,,,,,,,,,,,,,,,,,,,,,,,,,,,,,,,,35920.000000,1692626101.714726,0.000000,0.000000,0.000000,0.000000,0.000000,0.000000
1692626101.733332,,,,,,,,,,,,,,,,,,,,,,,,,,,,,,,,,,,,,,,,,,,35921.000000,1692626101.724591,0.000000,0.000000,0.000000,0.000000,0.000000,0.000000
1692626101.733340,,,,,,,,,,,,,,,,,,,,,,,,,,,,,,,,,,,,,,,,,,0.000000,,,,,,,,
1692626101.735052,4.335490,-0.539534,-0.000193,92.554252,0.205492,-0.000008,-0.044160,0.048121,0.000046,0.016182,-2.718867,-0.000653,0.008091,11.929047,0.000969,0.353280,-0.484810,-0.000094,-1.904000,-0.053909,-0.024000,0.027432,1.227909,0.006499,-1.615000,0.004090,0.019999,0.034960,0.000000,-0.000138,-1.445714,0.000002,-0.000038,18349.000000,1692626101.723881,1.082971,-1.031934,-0.000048,0.110400,-0.024769,0.002856,,,,,,,,,
1692626101.743392,,,,,,,,,,,,,,,,,,,,,,,,,,,,,,,,,,,,,,,,,,,35922.000000,1692626101.734504,0.000000,0.000000,0.000000,0.000000,0.000000,0.000000
1692626101.753317,1.197113,-0.539152,-0.001650,92.263201,0.205492,-0.000008,-0.110400,0.048121,0.000046,0.021576,-2.718867,-0.000653,0.002697,11.929047,0.001167,0.364320,-0.484810,-0.000094,-1.894000,-0.045728,0.013000,0.027841,1.226727,0.003545,-1.611000,0.006273,0.009999,0.003680,0.000000,-0.000138,-1.531143,0.000002,-0.000038,18350.000000,1692626101.743881,1.072457,-1.031934,-0.000048,-0.036800,-0.024769,0.000048,,,,,,,,,
1692626101.759474,,,,,,,,,,,,,,,,,,,,,,,,,,,,,,,,,,,,,,,,,,,35923.000000,1692626101.744651,0.000000,0.000000,0.000000,0.000000,0.000000,0.000000
1692626101.764509,,,,,,,,,,,,,,,,,,,,,,,,,,,,,,,,,,,,,,,,,,,35924.000000,1692626101.754422,0.000000,0.000000,0.000000,0.000000,0.000000,0.000000
1692626101.777096,,,,,,,,,,,,,,,,,,,,,,,,,,,,,,,,,,,,,,,,,,,35925.000000,1692626101.764517,0.000000,0.000000,0.000000,0.000000,0.000000,0.000000
1692626101.781266,,,,,,,,,,,,,,,,,,,,,,,,,,,,,,,,,,,,,,,,,,,35926.000000,1692626101.774858,0.000000,0.000000,0.000000,0.000000,0.000000,0.000000
1692626101.782989,3.251618,-0.539534,0.000236,92.263201,0.205492,-0.000008,-0.066240,0.048121,0.000046,0.000000,-2.718867,-0.000653,-0.008091,11.929047,0.001563,0.320160,-0.484810,-0.000094,-1.899000,-0.049727,-0.002000,0.028249,1.226727,0.000590,-1.611000,0.005272,0.008999,0.018400,0.000000,-0.000138,-1.623143,0.000006,0.000038,18351.000000,1692626101.773873,1.151314,-1.031934,-0.000048,0.068343,-0.024769,0.000048,,,,,,,,,
1692626101.791028,,,,,,,,,,,,,,,,,,,,,,,,,,,,,,,,,,,,,,,,,,,35927.000000,1692626101.787457,0.000000,0.000000,0.000000,0.000000,0.000000,0.000000
1692626101.793325,3.461921,-0.539534,0.000311,92.263201,0.205492,-0.000008,-0.077280,0.048121,0.000046,0.010788,-2.718867,-0.000653,0.026970,11.929047,0.002493,0.364320,-0.484810,-0.000094,-1.899000,-0.049727,-0.006000,0.024975,1.226727,0.000590,-1.613000,0.004272,0.008999,-0.022080,0.000000,-0.000138,-1.537714,0.000006,0.000038,18352.000000,1692626101.783882,1.072457,-1.031934,-0.000048,-0.015771,-0.024769,0.000048,,,,,,,,,
1692626101.800457,,,,,,,,,,,,,,,,,,,,,,,,,,,,,,,,,,,,,,,,,,,35928.000000,1692626101.798361,0.000000,0.000000,0.000000,0.000000,0.000000,0.000000
1692626101.818464,,,,,,,,,,,,,,,,,,,,,,,,,,,,,,,,,,,,,,,,,,,35929.000000,1692626101.804518,0.000000,0.000000,0.000000,0.000000,0.000000,0.000000
1692626101.820988,4.578148,-0.539534,-0.000654,93.136354,0.205492,-0.000008,-0.066240,0.048121,0.000046,0.013485,-2.718867,-0.000653,0.010788,11.929047,0.000950,0.342240,-0.484810,-0.000094,-1.896000,-0.047727,0.008999,0.028249,1.226727,0.000590,-1.613000,0.005272,0.008000,0.009200,0.000000,-0.000138,-1.570571,0.000006,0.000038,18353.000000,1692626101.813874,1.146057,-1.031934,-0.000048,0.015771,-0.024769,0.000048,,,,,,,,,
1692626101.825683,,,,,,,,,,,,,,,,,,,,,,,,,,,,,,,,,,,,,,,,,,,35930.000000,1692626101.814511,0.000000,0.000000,0.000000,0.000000,0.000000,0.000000
1692626101.835648,,,,,,,,,,,,,,,,,,,,,,,,,,,,,,,,,,,,,,,,,,,35931.000000,1692626101.824508,0.000000,0.000000,0.000000,0.000000,0.000000,0.000000
1692626101.840043,,,,,,,,,,,,,,,,,,,,,,,,,,,,,,,,,,,,,,,,,,,35932.000000,1692626101.834483,0.000000,0.000000,0.000000,0.000000,0.000000,0.000000
1692626101.843822,,,,,,,,,,,,,,,,,,,,,,,,,,,,,,,,,,,,,,,,,,0.000000,,,,,,,,
1692626101.851233,3.526630,-0.539534,0.000022,92.845303,0.205492,-0.000008,-0.077280,0.048121,0.000046,0.008091,-2.718867,-0.000653,0.008091,11.929047,0.000910,0.353280,-0.484810,-0.000094,-1.899000,-0.049910,0.004000,0.027432,1.227909,0.002954,-1.616000,0.003090,0.008000,0.025760,0.000000,-0.000138,-1.393143,0.000006,0.000038,18354.000000,1692626101.833873,1.156571,-1.031934,-0.000048,0.063086,-0.024769,0.000048,,,,,,,,,
1692626101.851590,,,,,,,,,,,,,,,,,,,,,,,,,,,,,,,,,,,,,,,,,,,35933.000000,1692626101.844692,0.000000,0.000000,0.000000,0.000000,0.000000,0.000000
1692626101.861104,,,,,,,,,,,,,,,,,,,,,,,,,,,,,,,,,,,,,,,,,,,35934.000000,1692626101.854483,0.000000,0.000000,0.000000,0.000000,0.000000,0.000000
1692626101.861464,3.704579,-0.539534,0.000018,93.427405,0.205492,-0.000008,-0.110400,0.048121,0.000046,0.016182,-2.718867,-0.000653,0.002697,11.929047,0.001840,0.342240,-0.484810,-0.000094,-1.899000,-0.049910,-0.001000,0.027432,1.227909,0.005318,-1.616000,0.003090,0.003000,0.047840,0.000000,-0.000138,-1.452286,0.000006,0.000038,18355.000000,1692626101.843878,1.077714,-1.031934,-0.000048,0.084114,-0.024769,0.000048,,,,,,,,,
1692626101.870939,,,,,,,,,,,,,,,,,,,,,,,,,,,,,,,,,,,,,,,,,,,35935.000000,1692626101.864502,0.000000,0.000000,0.000000,0.000000,0.000000,0.000000
1692626101.881232,,,,,,,,,,,,,,,,,,,,,,,,,,,,,,,,,,,,,,,,,,,35936.000000,1692626101.874506,0.000000,0.000000,0.000000,0.000000,0.000000,0.000000
1692626101.881244,2.329517,-0.539152,-0.000020,93.427405,0.205492,-0.000008,-0.121440,0.048121,0.000046,0.024273,-2.718867,-0.000653,0.005394,11.929047,0.001860,0.342240,-0.484810,-0.000094,-1.902000,-0.051682,0.008999,0.025795,1.229681,0.007681,-1.625000,-0.000682,-0.007000,0.036800,0.000000,-0.000138,-1.537714,0.000006,0.000038,18356.000000,1692626101.873882,1.046171,-1.031934,-0.000048,0.031543,-0.024769,0.000048,,,,,,,,,
1692626101.888922,,,,,,,,,,,,,,,,,,,,,,,,,,,,,,,,,,,,,,,,,,,35937.000000,1692626101.884615,0.000000,0.000000,0.000000,0.000000,0.000000,0.000000
1692626101.900268,,,,,,,,,,,,,,,,,,,,,,,,,,,,,,,,,,,,,,,,,,,35938.000000,1692626101.894476,0.000000,0.000000,0.000000,0.000000,0.000000,0.000000
1692626101.906471,2.928074,-0.539534,0.000967,93.718456,0.205492,-0.000008,-0.126960,0.048121,0.000046,0.016182,-2.718867,-0.000653,0.024273,11.929027,-0.002335,0.353280,-0.484810,-0.000094,-1.907000,-0.053272,-0.004999,0.026204,1.230272,0.014772,-1.636000,-0.007272,-0.035999,0.025760,0.000000,-0.000138,-1.557429,0.000006,0.000038,18357.000000,1692626101.893872,1.077714,-1.031934,-0.000048,0.073600,-0.024769,0.000048,,,,,,,,,
1692626101.912333,,,,,,,,,,,,,,,,,,,,,,,,,,,,,,,,,,,,,,,,,,,35939.000000,1692626101.904508,0.000000,0.000000,0.000000,0.000000,0.000000,0.000000
1692626101.919508,,,,,,,,,,,,,,,,,,,,,,,,,,,,,,,,,,,,,,,,,,,35940.000000,1692626101.914605,0.000000,0.000000,0.000000,0.000000,0.000000,0.000000
1692626101.919516,3.623693,-0.539534,0.001143,93.718456,0.205492,-0.000008,-0.165600,0.048121,0.000046,0.016182,-2.718867,-0.000653,-0.002697,11.929047,0.002632,0.342240,-0.484810,-0.000094,-1.911000,-0.055090,-0.014000,0.027841,1.229090,0.010636,-1.634000,-0.004090,-0.024000,-0.001840,0.000000,-0.000138,-1.583714,0.000002,-0.000038,18358.000000,1692626101.913877,1.035657,-1.031934,-0.000048,0.026286,-0.024769,0.000048,,,,,,,,,
1692626101.928073,,,,,,,,,,,,,,,,,,,,,,,,,,,,,,,,,,,,,,,,,,,35941.000000,1692626101.924374,0.000000,0.000000,0.000000,0.000000,0.000000,0.000000
1692626101.932048,3.672225,-0.539534,0.000018,93.718456,0.205492,-0.000008,-0.088320,0.048121,0.000046,0.018879,-2.718867,-0.000653,0.000000,11.929027,-0.003562,0.353280,-0.484810,-0.000094,-1.914000,-0.056499,-0.017999,0.026612,1.228499,0.007681,-1.633000,-0.001500,-0.023000,0.011040,0.000000,-0.000138,-1.458857,0.000002,-0.000038,18359.000000,1692626101.923885,1.077714,-1.031934,-0.000048,0.136686,-0.024769,0.000048,,,,,,,,,
1692626101.937117,,,,,,,,,,,,,,,,,,,,,,,,,,,,,,,,,,,,,,,,,,,35942.000000,1692626101.934521,0.000000,0.000000,0.000000,0.000000,0.000000,0.000000
1692626101.947034,,,,,,,,,,,,,,,,,,,,,,,,,,,,,,,,,,,,,,,,,,,35943.000000,1692626101.944499,0.000000,0.000000,0.000000,0.000000,0.000000,0.000000
1692626101.947044,,,,,,,,,,,,,,,,,,,,,,,,,,,,,,,,,,,,,,,,,,0.000000,,,,,,,,
1692626101.950595,3.833997,-0.539534,0.000018,94.009507,0.205492,-0.000008,-0.033120,0.048121,0.000046,0.016182,-2.718867,-0.000653,0.000000,11.929047,0.002137,0.342240,-0.484810,-0.000094,-1.916000,-0.055909,-0.026000,0.026612,1.227909,0.004727,-1.634000,-0.001910,-0.012000,0.012880,0.000000,-0.000138,-1.465429,0.000002,-0.000038,18360.000000,1692626101.943881,1.161829,-1.031934,-0.000048,-0.015771,-0.024769,0.000048,,,,,,,,,
1692626101.956766,,,,,,,,,,,,,,,,,,,,,,,,,,,,,,,,,,,,,,,,,,,35944.000000,1692626101.954489,0.000000,0.000000,0.000000,0.000000,0.000000,0.000000
1692626101.966109,,,,,,,,,,,,,,,,,,,,,,,,,,,,,,,,,,,,,,,,,,,35945.000000,1692626101.964604,0.000000,0.000000,0.000000,0.000000,0.000000,0.000000
1692626101.973840,3.882529,-0.539534,0.000230,94.300558,0.205492,-0.000008,-0.165600,0.048121,0.000046,0.013485,-2.718867,-0.000653,0.000000,11.929027,-0.003622,0.342240,-0.484810,-0.000094,-1.914000,-0.052319,-0.024000,0.026204,1.227318,0.001772,-1.634000,-0.001319,-0.016000,0.007360,0.000000,-0.000138,-1.426000,0.000002,-0.000038,18361.000000,1692626101.963878,1.104000,-1.031934,-0.000048,0.036800,-0.024769,0.000080,,,,,,,,,
1692626101.979720,,,,,,,,,,,,,,,,,,,,,,,,,,,,,,,,,,,,,,,,,,,35946.000000,1692626101.975879,0.000000,0.000000,0.000000,0.000000,0.000000,0.000000
1692626101.988321,,,,,,,,,,,,,,,,,,,,,,,,,,,,,,,,,,,,,,,,,,,35947.000000,1692626101.984623,0.000000,0.000000,0.000000,0.000000,0.000000,0.000000
1692626101.997538,,,,,,,,,,,,,,,,,,,,,,,,,,,,,,,,,,,,,,,,,,,35948.000000,1692626101.994370,0.000000,0.000000,0.000000,0.000000,0.000000,0.000000
1692626102.002236,3.947237,-0.539534,0.000254,94.591609,0.205492,-0.000008,-0.099360,0.048121,0.000046,0.013485,-2.718867,-0.000653,0.010788,11.929047,0.002137,0.342240,-0.484810,-0.000094,-1.911000,-0.051728,-0.008000,0.027432,1.226727,-0.003545,-1.633000,0.000272,-0.010999,0.005520,0.000000,-0.000138,-1.531143,0.000006,0.000038,18362.000000,1692626101.993872,1.030400,-1.031934,-0.000048,0.015771,-0.024769,0.000048,,,,,,,,,
1692626102.016026,,,,,,,,,,,,,,,,,,,,,,,,,,,,,,,,,,,,,,,,,,,35949.000000,1692626102.004560,0.000000,0.000000,0.000000,0.000000,0.000000,0.000000
1692626102.017806,4.125187,-0.539534,0.000789,94.009507,0.205492,-0.000008,-0.187680,0.048121,0.000046,0.016182,-2.718867,-0.000653,0.013485,11.929027,-0.002691,0.342240,-0.484810,-0.000094,-1.914000,-0.053728,-0.008000,0.027841,1.226727,-0.003545,-1.631000,0.001273,-0.010999,-0.003680,0.000000,-0.000138,-1.445714,0.000006,0.000038,18363.000000,1692626102.003880,1.219657,-1.031934,-0.000048,0.052571,-0.024769,0.000048,,,,,,,,,
1692626102.024130,,,,,,,,,,,,,,,,,,,,,,,,,,,,,,,,,,,,,,,,,,,35950.000000,1692626102.014959,0.000000,0.000000,0.000000,0.000000,0.000000,0.000000
1692626102.031389,4.206073,-0.539534,0.000208,94.009507,0.205492,-0.000008,-0.099360,0.048121,0.000046,0.010788,-2.718867,-0.000653,0.013485,11.929047,0.000653,0.342240,-0.484810,-0.000094,-1.919000,-0.057319,-0.030999,0.023337,1.227318,-0.003545,-1.629000,0.002682,-0.009999,0.009200,0.000000,-0.000138,-1.485143,0.000002,-0.000038,18364.000000,1692626102.023877,1.093486,-1.031934,-0.000048,0.057829,-0.024769,0.000209,,,,,,,,,
1692626102.033903,,,,,,,,,,,,,,,,,,,,,,,,,,,,,,,,,,,,,,,,,,,35951.000000,1692626102.024949,0.000000,0.000000,0.000000,0.000000,0.000000,0.000000
1692626102.041548,,,,,,,,,,,,,,,,,,,,,,,,,,,,,,,,,,,,,,,,,,,35952.000000,1692626102.034488,0.000000,0.000000,0.000000,0.000000,0.000000,0.000000
1692626102.055035,,,,,,,,,,,,,,,,,,,,,,,,,,,,,,,,,,,,,,,,,,,35953.000000,1692626102.044586,0.000000,0.000000,0.000000,0.000000,0.000000,0.000000
1692626102.055065,4.286959,-0.539534,0.001571,94.882661,0.205492,-0.000008,-0.215280,0.048121,0.000046,0.021576,-2.718867,-0.000653,0.016182,11.929047,0.001999,0.342240,-0.484810,-0.000094,-1.927000,-0.062319,-0.037999,0.026204,1.227318,-0.000590,-1.628000,0.003681,0.000000,-0.001840,0.000000,-0.000138,-1.537714,0.000002,-0.000038,18365.000000,1692626102.043877,1.014629,-1.031934,-0.000048,0.089371,-0.024769,0.000939,,,,,,,,,
1692626102.058716,,,,,,,,,,,,,,,,,,,,,,,,,,,,,,,,,,,,,,,,,,0.000000,,,,,,,,
1692626102.062449,,,,,,,,,,,,,,,,,,,,,,,,,,,,,,,,,,,,,,,,,,,35954.000000,1692626102.055884,0.000000,0.000000,0.000000,0.000000,0.000000,0.000000
1692626102.068571,,,,,,,,,,,,,,,,,,,,,,,,,,,,,,,,,,,,,,,,,,,35955.000000,1692626102.064392,0.000000,0.000000,0.000000,0.000000,0.000000,0.000000
1692626102.079376,,,,,,,,,,,,,,,,,,,,,,,,,,,,,,,,,,,,,,,,,,,35956.000000,1692626102.074648,0.000000,0.000000,0.000000,0.000000,0.000000,0.000000
1692626102.080313,4.432554,-0.539534,0.001682,94.882661,0.205492,-0.000008,-0.160080,0.048121,0.000046,0.013485,-2.718867,-0.000653,0.021576,11.929027,-0.002256,0.353280,-0.484810,-0.000094,-1.929000,-0.061318,-0.041999,0.026612,1.227318,-0.000590,-1.629000,0.000682,-0.006000,0.000000,0.000000,-0.000138,-1.669143,0.000002,-0.000038,18366.000000,1692626102.073880,1.135543,-1.031934,-0.000048,0.168229,-0.024769,0.005809,,,,,,,,,
1692626102.095021,,,,,,,,,,,,,,,,,,,,,,,,,,,,,,,,,,,,,,,,,,,35957.000000,1692626102.084733,0.000000,0.000000,0.000000,0.000000,0.000000,0.000000
1692626102.103572,,,,,,,,,,,,,,,,,,,,,,,,,,,,,,,,,,,,,,,,,,,35958.000000,1692626102.094671,0.000000,0.000000,0.000000,0.000000,0.000000,0.000000
1692626102.105822,3.931060,-0.539534,-0.000018,94.591609,0.205492,-0.000008,-0.215280,0.048121,0.000046,0.016182,-2.718867,-0.000653,0.008091,11.929047,0.000969,0.342240,-0.484810,-0.000094,-1.929000,-0.059319,-0.037999,0.026204,1.227318,-0.000590,-1.626000,0.003681,0.008999,0.014720,0.000000,-0.000138,-1.767714,0.000002,-0.000038,18367.000000,1692626102.093870,1.130286,-1.031934,-0.000048,-0.005257,-0.024388,0.000048,,,,,,,,,
1692626102.119235,4.238427,-0.539534,0.000345,94.300558,0.205492,-0.000008,-0.143520,0.048121,0.000046,0.021576,-2.718867,-0.000653,0.010788,11.929047,0.001207,0.353280,-0.484810,-0.000094,-1.922000,-0.053728,-0.027000,0.027432,1.226727,-0.000590,-1.626000,0.004272,0.008999,0.068080,0.000000,-0.000138,-1.596857,0.000002,-0.000038,18368.000000,1692626102.103877,1.125029,-1.031934,-0.000048,-0.157714,-0.024388,0.015945,,,,,,,,,
1692626102.119251,,,,,,,,,,,,,,,,,,,,,,,,,,,,,,,,,,,,,,,,,,,35959.000000,1692626102.105150,0.000000,0.000000,0.000000,0.000000,0.000000,0.000000
1692626102.125923,,,,,,,,,,,,,,,,,,,,,,,,,,,,,,,,,,,,,,,,,,,35961.000000,1692626102.124601,0.000000,0.000000,0.000000,0.000000,0.000000,0.000000
1692626102.136738,,,,,,,,,,,,,,,,,,,,,,,,,,,,,,,,,,,,,,,,,,,35962.000000,1692626102.134593,0.000000,0.000000,0.000000,0.000000,0.000000,0.000000
1692626102.140603,4.367845,-0.539534,0.001801,95.173712,0.205492,-0.000008,-0.231840,0.048121,0.000046,0.005394,-2.718867,-0.000653,0.013485,11.929047,0.000653,0.353280,-0.484810,-0.000094,-1.919000,-0.050728,0.008999,0.027841,1.226727,-0.002363,-1.626000,0.004272,0.008999,0.036800,0.000000,-0.000138,-1.445714,0.000002,-0.000038,18369.000000,1692626102.133874,1.135543,-1.031934,-0.000048,0.042057,-0.024388,0.000048,,,,,,,,,
1692626102.147164,,,,,,,,,,,,,,,,,,,,,,,,,,,,,,,,,,,,,,,,,,,35963.000000,1692626102.144514,0.000000,0.000000,0.000000,0.000000,0.000000,0.000000
1692626102.163244,,,,,,,,,,,,,,,,,,,,,,,,,,,,,,,,,,,,,,,,,,,35964.000000,1692626102.154695,0.000000,0.000000,0.000000,0.000000,0.000000,0.000000
1692626102.163357,4.659034,-0.539534,-0.000032,94.882661,0.205492,-0.000008,-0.110400,0.048121,0.000046,0.013485,-2.718867,-0.000653,-0.005394,11.929027,-0.003067,0.331200,-0.484810,-0.000094,-1.917000,-0.051137,0.013000,0.028661,1.226136,-0.002363,-1.623000,0.004863,0.008999,-0.007360,0.000000,-0.000138,-1.465429,0.000002,-0.000038,18370.000000,1692626102.153873,1.119771,-1.031934,-0.000048,-0.205029,-0.024007,0.000048,,,,,,,,,
1692626102.165380,,,,,,,,,,,,,,,,,,,,,,,,,,,,,,,,,,,,,,,,,,0.000000,,,,,,,,
1692626102.172094,,,,,,,,,,,,,,,,,,,,,,,,,,,,,,,,,,,,,,,,,,,35965.000000,1692626102.164515,0.000000,0.000000,0.000000,0.000000,0.000000,0.000000
1692626102.185496,2.151568,-0.539152,0.000468,95.464763,0.205492,-0.000008,-0.204240,0.048121,0.000046,0.013485,-2.718867,-0.000653,0.002697,11.929047,0.002137,0.342240,-0.484810,-0.000094,-1.912000,-0.049091,0.021999,0.024154,1.229090,-0.004727,-1.626000,0.001909,0.008999,0.020240,0.000000,-0.000138,-1.524571,0.000002,-0.000038,18371.000000,1692626102.173872,1.077714,-1.031934,-0.000048,0.047314,-0.024388,0.000048,,,,,,,,,
1692626102.185989,,,,,,,,,,,,,,,,,,,,,,,,,,,,,,,,,,,,,,,,,,,35966.000000,1692626102.174591,0.000000,0.000000,0.000000,0.000000,0.000000,0.000000
1692626102.195726,,,,,,,,,,,,,,,,,,,,,,,,,,,,,,,,,,,,,,,,,,,35967.000000,1692626102.184482,0.000000,0.000000,0.000000,0.000000,0.000000,0.000000
1692626102.198145,,,,,,,,,,,,,,,,,,,,,,,,,,,,,,,,,,,,,,,,,,,35968.000000,1692626102.194548,0.000000,0.000000,0.000000,0.000000,0.000000,0.000000
1692626102.199612,3.639871,-0.539534,0.001442,95.173712,0.205492,-0.000008,-0.171120,0.048121,0.000046,0.008091,-2.718867,-0.000653,-0.008091,11.929047,0.002335,0.353280,-0.484810,-0.000094,-1.914000,-0.051091,0.032999,0.026204,1.229090,0.010045,-1.636000,-0.005091,0.008999,0.029440,0.000000,-0.000138,-1.531143,0.000002,-0.000038,18372.000000,1692626102.193873,1.188114,-1.031934,-0.000048,-0.026286,-0.024388,0.000048,,,,,,,,,
1692626102.207967,,,,,,,,,,,,,,,,,,,,,,,,,,,,,,,,,,,,,,,,,,,35969.000000,1692626102.204519,0.000000,0.000000,0.000000,0.000000,0.000000,0.000000
1692626102.225826,,,,,,,,,,,,,,,,,,,,,,,,,,,,,,,,,,,,,,,,,,,35970.000000,1692626102.214513,0.000000,0.000000,0.000000,0.000000,0.000000,0.000000
1692626102.232348,3.397213,-0.539152,0.000422,95.755814,0.205492,-0.000008,-0.099360,0.048121,0.000046,0.018879,-2.718867,-0.000653,0.016182,11.929047,0.002117,0.342240,-0.484810,-0.000094,-1.914000,-0.052090,0.012000,0.025795,1.229090,0.010045,-1.634000,-0.003091,-0.014999,0.047840,0.000000,-0.000138,-1.636286,0.000002,-0.000038,18373.000000,1692626102.213875,1.167086,-1.031934,-0.000048,-0.089371,-0.024388,0.000048,,,,,,,,,
1692626102.244184,,,,,,,,,,,,,,,,,,,,,,,,,,,,,,,,,,,,,,,,,,,35971.000000,1692626102.224644,0.000000,0.000000,0.000000,0.000000,0.000000,0.000000
1692626102.246388,3.558985,-0.539152,0.000018,95.464763,0.205492,-0.000008,-0.143520,0.048121,0.000046,0.016182,-2.718867,-0.000653,0.008091,11.929047,0.002474,0.320160,-0.484810,-0.000094,-1.919000,-0.055090,-0.008000,0.026612,1.229090,0.010045,-1.638000,-0.004090,-0.014999,-0.009200,0.000000,-0.000138,-1.307714,0.000002,-0.000038,18374.000000,1692626102.233879,1.230171,-1.031934,-0.000048,-0.063086,-0.024388,0.000048,,,,,,,,,
1692626102.249606,,,,,,,,,,,,,,,,,,,,,,,,,,,,,,,,,,,,,,,,,,,35973.000000,1692626102.244506,0.000000,0.000000,0.000000,0.000000,0.000000,0.000000
1692626102.268798,,,,,,,,,,,,,,,,,,,,,,,,,,,,,,,,,,,,,,,,,,,35974.000000,1692626102.254514,0.000000,0.000000,0.000000,0.000000,0.000000,0.000000
1692626102.268811,2.653061,-0.539152,-0.000072,95.755814,0.205492,-0.000008,-0.215280,0.048121,0.000046,0.010788,-2.718867,-0.000653,-0.005394,11.929047,0.001326,0.331200,-0.484810,-0.000094,-1.917000,-0.053091,0.012000,0.026204,1.229090,0.010045,-1.638000,-0.003091,-0.014000,0.014720,0.000000,-0.000138,-1.491714,0.000002,-0.000038,18375.000000,1692626102.253873,1.093486,-1.031934,-0.000048,-0.047314,-0.024388,0.000048,,,,,,,,,
1692626102.273328,,,,,,,,,,,,,,,,,,,,,,,,,,,,,,,,,,,,,,,,,,,35975.000000,1692626102.264597,0.000000,0.000000,0.000000,0.000000,0.000000,0.000000
1692626102.273731,,,,,,,,,,,,,,,,,,,,,,,,,,,,,,,,,,,,,,,,,,0.000000,,,,,,,,
1692626102.281715,,,,,,,,,,,,,,,,,,,,,,,,,,,,,,,,,,,,,,,,,,,35976.000000,1692626102.274467,0.000000,0.000000,0.000000,0.000000,0.000000,0.000000
1692626102.288864,2.863365,-0.539152,-0.000163,95.464763,0.205492,-0.000008,-0.132480,0.048121,0.000046,0.010788,-2.718867,-0.000653,0.016182,11.929047,0.002394,0.353280,-0.484810,-0.000094,-1.917000,-0.053500,0.007000,0.028249,1.228499,0.010045,-1.638000,-0.002500,-0.014000,0.044160,0.000000,-0.000138,-1.504857,0.000002,-0.000038,18376.000000,1692626102.273877,1.030400,-1.031934,-0.000048,-0.010514,-0.024388,0.000048,,,,,,,,,
1692626102.294465,,,,,,,,,,,,,,,,,,,,,,,,,,,,,,,,,,,,,,,,,,,35977.000000,1692626102.284499,0.000000,0.000000,0.000000,0.000000,0.000000,0.000000
1692626102.306266,,,,,,,,,,,,,,,,,,,,,,,,,,,,,,,,,,,,,,,,,,,35978.000000,1692626102.294643,0.000000,0.000000,0.000000,0.000000,0.000000,0.000000
1692626102.306478,4.286959,-0.539534,0.000026,95.755814,0.205492,-0.000008,-0.143520,0.048121,0.000046,0.008091,-2.718867,-0.000653,0.024273,11.929047,0.001999,0.342240,-0.484810,-0.000094,-1.919000,-0.053909,-0.003000,0.027432,1.227909,0.004136,-1.638000,-0.001910,-0.014000,0.003680,0.000000,-0.000138,-1.537714,0.000002,-0.000038,18377.000000,1692626102.293872,1.182857,-1.031934,-0.000048,-0.120914,-0.024388,0.000048,,,,,,,,,
1692626102.322783,,,,,,,,,,,,,,,,,,,,,,,,,,,,,,,,,,,,,,,,,,,35979.000000,1692626102.309344,0.000000,0.000000,0.000000,0.000000,0.000000,0.000000
1692626102.323558,,,,,,,,,,,,,,,,,,,,,,,,,,,,,,,,,,,,,,,,,,,35980.000000,1692626102.314617,0.000000,0.000000,0.000000,0.000000,0.000000,0.000000
1692626102.327850,3.947237,-0.539534,0.000240,95.173712,0.205492,-0.000008,-0.276000,0.048121,0.000046,0.013485,-2.718867,-0.000653,0.005394,11.929047,0.000989,0.342240,-0.484810,-0.000094,-1.919000,-0.054499,-0.003000,0.027432,1.228499,0.006499,-1.639000,-0.003499,-0.017999,0.047840,0.000000,-0.000138,-1.452286,0.000002,-0.000038,18378.000000,1692626102.313882,1.219657,-1.031934,-0.000048,-0.026286,-0.024388,0.000048,,,,,,,,,
1692626102.332179,,,,,,,,,,,,,,,,,,,,,,,,,,,,,,,,,,,,,,,,,,,35981.000000,1692626102.325639,0.000000,0.000000,0.000000,0.000000,0.000000,0.000000
1692626102.340449,,,,,,,,,,,,,,,,,,,,,,,,,,,,,,,,,,,,,,,,,,,35982.000000,1692626102.334711,0.000000,0.000000,0.000000,0.000000,0.000000,0.000000
1692626102.342158,3.688402,-0.539152,-0.000026,96.628967,0.205492,-0.000008,-0.110400,0.048121,0.000046,0.005394,-2.718867,-0.000653,0.002697,11.929027,-0.002850,0.342240,-0.484810,-0.000094,-1.919000,-0.053909,-0.003000,0.027020,1.227909,0.006499,-1.638000,-0.000910,-0.008000,0.012880,0.000000,-0.000138,-1.596857,0.000002,-0.000038,18379.000000,1692626102.333873,1.167086,-1.031934,-0.000048,-0.015771,-0.024388,0.000048,,,,,,,,,
1692626102.352485,,,,,,,,,,,,,,,,,,,,,,,,,,,,,,,,,,,,,,,,,,,35983.000000,1692626102.348399,0.000000,0.000000,0.000000,0.000000,0.000000,0.000000
1692626102.352503,1.957442,-0.539152,-0.000208,95.755814,0.205492,-0.000008,-0.264960,0.048121,0.000046,0.008091,-2.718867,-0.000653,0.002697,11.929047,0.002157,0.320160,-0.484810,-0.000094,-1.914000,-0.050137,-0.003000,0.028661,1.226136,0.003545,-1.634000,0.000863,-0.008000,0.003680,0.000000,-0.000138,-1.511429,0.000002,-0.000038,18380.000000,1692626102.343881,1.146057,-1.031934,-0.000048,-0.099886,-0.024388,0.000048,,,,,,,,,
1692626102.363759,,,,,,,,,,,,,,,,,,,,,,,,,,,,,,,,,,,,,,,,,,,35984.000000,1692626102.354747,0.000000,0.000000,0.000000,0.000000,0.000000,0.000000
1692626102.374505,,,,,,,,,,,,,,,,,,,,,,,,,,,,,,,,,,,,,,,,,,,35985.000000,1692626102.364628,0.000000,0.000000,0.000000,0.000000,0.000000,0.000000
1692626102.384601,,,,,,,,,,,,,,,,,,,,,,,,,,,,,,,,,,,,,,,,,,,35986.000000,1692626102.374502,0.000000,0.000000,0.000000,0.000000,0.000000,0.000000
1692626102.384666,3.203086,-0.539534,0.000054,94.300558,0.205493,0.000008,-0.231840,0.048121,0.000046,0.008091,-2.718867,-0.000653,0.008091,11.929027,-0.003127,0.320160,-0.484810,-0.000094,-1.911000,-0.048545,0.006000,0.024154,1.225545,-0.007681,-1.631000,0.001454,-0.008000,0.020240,0.000000,-0.000138,-1.432571,0.000002,-0.000038,18381.000000,1692626102.373874,1.146057,-1.031934,-0.000048,-0.005257,-0.024388,0.000048,,,,,,,,,
1692626102.389816,,,,,,,,,,,,,,,,,,,,,,,,,,,,,,,,,,,,,,,,,,0.000000,,,,,,,,
1692626102.393250,,,,,,,,,,,,,,,,,,,,,,,,,,,,,,,,,,,,,,,,,,,35987.000000,1692626102.384749,0.000000,0.000000,0.000000,0.000000,0.000000,0.000000
1692626102.402990,,,,,,,,,,,,,,,,,,,,,,,,,,,,,,,,,,,,,,,,,,,35988.000000,1692626102.394461,0.000000,0.000000,0.000000,0.000000,0.000000,0.000000
1692626102.405511,3.866351,-0.539534,0.000236,94.009507,0.205493,0.000008,-0.171120,0.048121,0.000046,0.016182,-2.718867,-0.000653,0.002697,11.929047,0.001524,0.353280,-0.484810,-0.000094,-1.898000,-0.040546,0.009999,0.027432,1.225545,-0.007681,-1.629000,0.002455,-0.017000,0.044160,0.000000,-0.000138,-1.386571,0.000002,-0.000038,18382.000000,1692626102.393879,1.377371,-1.031934,-0.000048,-0.068343,-0.024388,0.000048,,,,,,,,,
1692626102.412789,,,,,,,,,,,,,,,,,,,,,,,,,,,,,,,,,,,,,,,,,,,35989.000000,1692626102.406121,0.000000,0.000000,0.000000,0.000000,0.000000,0.000000
1692626102.415461,3.947237,-0.539534,0.001399,93.718456,0.205493,0.000008,-0.187680,0.048121,0.000046,0.008091,-2.718867,-0.000653,0.005394,11.929027,-0.003127,0.353280,-0.484810,-0.000094,-1.899000,-0.042136,0.048999,0.024154,1.226136,-0.007681,-1.629000,0.001864,-0.002000,0.016560,0.000000,-0.000138,-1.577143,0.000002,-0.000038,18383.000000,1692626102.403884,1.109257,-1.031934,-0.000048,-0.084114,-0.024388,0.000048,,,,,,,,,
1692626102.426054,,,,,,,,,,,,,,,,,,,,,,,,,,,,,,,,,,,,,,,,,,,35990.000000,1692626102.414512,0.000000,0.000000,0.000000,0.000000,0.000000,0.000000
1692626102.434050,,,,,,,,,,,,,,,,,,,,,,,,,,,,,,,,,,,,,,,,,,,35991.000000,1692626102.424597,0.000000,0.000000,0.000000,0.000000,0.000000,0.000000
1692626102.444336,2.653061,-0.539152,-0.000553,93.136354,0.205493,0.000008,-0.248400,0.048121,0.000046,0.010788,-2.718867,-0.000653,0.000000,11.929047,0.001286,0.353280,-0.484810,-0.000094,-1.909000,-0.050500,0.014000,0.025795,1.228499,0.004136,-1.631000,0.000500,0.008000,0.014720,0.000000,-0.000138,-1.557429,0.000002,-0.000038,18384.000000,1692626102.433873,1.235429,-1.031934,-0.000048,-0.089371,-0.024388,0.000048,,,,,,,,,
1692626102.448010,,,,,,,,,,,,,,,,,,,,,,,,,,,,,,,,,,,,,,,,,,,35992.000000,1692626102.434623,0.000000,0.000000,0.000000,0.000000,0.000000,0.000000
1692626102.457768,1.601543,-0.539152,0.000022,92.554252,0.205493,0.000008,-0.325680,0.048121,0.000046,0.008091,-2.718867,-0.000653,0.008091,11.929027,-0.002414,0.320160,-0.484810,-0.000094,-1.911000,-0.051499,0.008999,0.026204,1.228499,0.006499,-1.626000,0.004501,0.003000,0.031280,0.000000,-0.000138,-1.544286,0.000002,-0.000038,18385.000000,1692626102.443879,1.198629,-1.031934,-0.000048,-0.057829,-0.024388,0.001014,,,,,,,,,
1692626102.463493,,,,,,,,,,,,,,,,,,,,,,,,,,,,,,,,,,,,,,,,,,,35993.000000,1692626102.444453,0.000000,0.000000,0.000000,0.000000,0.000000,0.000000
1692626102.468137,,,,,,,,,,,,,,,,,,,,,,,,,,,,,,,,,,,,,,,,,,,35994.000000,1692626102.454532,0.000000,0.000000,0.000000,0.000000,0.000000,0.000000
1692626102.476734,,,,,,,,,,,,,,,,,,,,,,,,,,,,,,,,,,,,,,,,,,,35995.000000,1692626102.464492,0.000000,0.000000,0.000000,0.000000,0.000000,0.000000
1692626102.488597,4.513440,-0.539534,-0.000078,92.263201,0.205493,0.000008,-0.193200,0.048121,0.000046,0.008091,-2.718867,-0.000653,0.002697,11.929047,0.001880,0.353280,-0.484810,-0.000094,-1.907000,-0.049910,-0.001000,0.028249,1.227909,0.006499,-1.618000,0.008090,0.032999,-0.009200,0.000000,-0.000138,-1.596857,0.000002,-0.000038,18386.000000,1692626102.473875,1.256457,-1.031934,-0.000048,-0.084114,-0.024388,0.000048,,,,,,,,,
1692626102.496212,,,,,,,,,,,,,,,,,,,,,,,,,,,,,,,,,,,,,,,,,,,35996.000000,1692626102.474508,0.000000,0.000000,0.000000,0.000000,0.000000,0.000000
1692626102.497319,,,,,,,,,,,,,,,,,,,,,,,,,,,,,,,,,,,,,,,,,,0.000000,,,,,,,,
1692626102.499941,,,,,,,,,,,,,,,,,,,,,,,,,,,,,,,,,,,,,,,,,,,35997.000000,1692626102.484486,0.000000,0.000000,0.000000,0.000000,0.000000,0.000000
1692626102.505026,3.979592,-0.539534,0.000274,90.516894,0.205493,0.000008,-0.138000,0.048121,0.000046,0.018879,-2.718867,-0.000653,0.008091,11.929047,0.001524,0.353280,-0.484810,-0.000094,-1.909000,-0.049499,0.017999,0.026204,1.228499,0.008863,-1.621000,0.003500,0.020999,0.033120,0.000000,-0.000138,-1.675714,0.000002,-0.000038,18387.000000,1692626102.493873,1.156571,-1.031934,-0.000048,-0.110400,-0.024388,0.000048,,,,,,,,,
1692626102.508107,,,,,,,,,,,,,,,,,,,,,,,,,,,,,,,,,,,,,,,,,,,35998.000000,1692626102.494513,0.000000,0.000000,0.000000,0.000000,0.000000,0.000000
1692626102.523237,,,,,,,,,,,,,,,,,,,,,,,,,,,,,,,,,,,,,,,,,,,36000.000000,1692626102.514426,0.000000,0.000000,0.000000,0.000000,0.000000,0.000000
1692626102.526449,2.103036,-0.539152,-0.001165,90.516894,0.205493,0.000008,-0.226320,0.048121,0.000046,0.018879,-2.718867,-0.000653,0.002697,11.929047,0.001919,0.342240,-0.484810,-0.000094,-1.906000,-0.047910,0.017000,0.030707,1.227909,0.005909,-1.618000,0.005091,0.009999,0.022080,0.000000,-0.000138,-1.590286,0.000002,-0.000038,18388.000000,1692626102.513872,1.219657,-1.031934,-0.000048,-0.057829,-0.024388,0.000048,,,,,,,,,
1692626102.533060,,,,,,,,,,,,,,,,,,,,,,,,,,,,,,,,,,,,,,,,,,,36001.000000,1692626102.524510,0.000000,0.000000,0.000000,0.000000,0.000000,0.000000
1692626102.546643,,,,,,,,,,,,,,,,,,,,,,,,,,,,,,,,,,,,,,,,,,,36002.000000,1692626102.534618,0.000000,0.000000,0.000000,0.000000,0.000000,0.000000
1692626102.549337,2.394226,-0.539152,-0.000555,89.643741,0.205493,0.000008,-0.237360,0.048121,0.000046,0.018879,-2.718867,-0.000653,-0.002697,11.929047,0.001979,0.342240,-0.484810,-0.000094,-1.917000,-0.057319,0.007000,0.025795,1.227318,0.000000,-1.618000,0.004681,0.008999,0.027600,0.000000,-0.000138,-1.419429,0.000002,-0.000038,18389.000000,1692626102.533876,1.235429,-1.031934,-0.000048,-0.120914,-0.024388,0.000048,,,,,,,,,
1692626102.551722,,,,,,,,,,,,,,,,,,,,,,,,,,,,,,,,,,,,,,,,,,,36003.000000,1692626102.545007,0.000000,0.000000,0.000000,0.000000,0.000000,0.000000
1692626102.560086,1.536834,-0.539152,-0.000072,89.934792,0.205493,0.000008,-0.309120,0.048116,-0.000690,0.018879,-2.718867,-0.000653,-0.002697,11.929047,0.001880,0.353280,-0.484810,-0.000094,-1.917000,-0.056137,-0.032999,0.025795,1.226136,0.000000,-1.616000,0.005863,0.008999,0.040480,0.000000,-0.000138,-1.498286,0.000002,-0.000038,18390.000000,1692626102.543879,1.082971,-1.031934,-0.000048,-0.026286,-0.024388,0.000048,,,,,,,,,
1692626102.561258,,,,,,,,,,,,,,,,,,,,,,,,,,,,,,,,,,,,,,,,,,,36004.000000,1692626102.554516,0.000000,0.000000,0.000000,0.000000,0.000000,0.000000
1692626102.570087,,,,,,,,,,,,,,,,,,,,,,,,,,,,,,,,,,,,,,,,,,,36005.000000,1692626102.564486,0.000000,0.000000,0.000000,0.000000,0.000000,0.000000
1692626102.578190,,,,,,,,,,,,,,,,,,,,,,,,,,,,,,,,,,,,,,,,,,,36006.000000,1692626102.574617,0.000000,0.000000,0.000000,0.000000,0.000000,0.000000
1692626102.580529,3.364858,-0.539534,0.000024,90.225843,0.205492,-0.000008,-0.110400,0.048116,-0.000046,0.024273,-2.718867,-0.000653,0.016182,11.929027,-0.001919,0.342240,-0.484810,-0.000094,-1.911000,-0.051137,-0.010999,0.027841,1.226136,-0.005318,-1.620000,0.003864,-0.006000,-0.012880,0.000000,-0.000138,-1.603429,0.000006,0.000038,18391.000000,1692626102.573874,1.188114,-1.031934,-0.000048,-0.210286,-0.024388,0.000048,,,,,,,,,
1692626102.602651,,,,,,,,,,,,,,,,,,,,,,,,,,,,,,,,,,,,,,,,,,,36007.000000,1692626102.586093,0.000000,0.000000,0.000000,0.000000,0.000000,0.000000
1692626102.604874,,,,,,,,,,,,,,,,,,,,,,,,,,,,,,,,,,,,,,,,,,0.000000,,,,,,,,
1692626102.604883,1.763315,-0.539152,-0.000018,90.807945,0.205492,-0.000008,-0.104880,0.048116,-0.000046,0.018879,-2.718867,-0.000653,0.018879,11.929027,-0.002157,0.364320,-0.484810,-0.000094,-1.907000,-0.048955,0.004000,0.024975,1.224954,-0.005318,-1.615000,0.007045,0.008999,0.016560,0.000000,-0.000138,-1.485143,0.000006,0.000038,18392.000000,1692626102.593875,1.182857,-1.031934,-0.000048,-0.094629,-0.024388,0.000048,,,,,,,,,
1692626102.606844,,,,,,,,,,,,,,,,,,,,,,,,,,,,,,,,,,,,,,,,,,,36009.000000,1692626102.604532,0.000000,0.000000,0.000000,0.000000,0.000000,0.000000
1692626102.616859,,,,,,,,,,,,,,,,,,,,,,,,,,,,,,,,,,,,,,,,,,,36010.000000,1692626102.614526,0.000000,0.000000,0.000000,0.000000,0.000000,0.000000
1692626102.620527,1.828024,-0.539152,-0.000018,90.807945,0.205492,-0.000008,-0.093840,0.048116,-0.000046,0.016182,-2.718867,-0.000653,0.008091,11.929047,0.001029,0.353280,-0.484810,-0.000094,-1.906000,-0.050137,-0.001000,0.024975,1.226136,-0.010636,-1.616000,0.004863,0.004000,0.071760,0.000000,-0.000138,-1.583714,0.000006,0.000038,18393.000000,1692626102.613875,1.256457,-1.031934,-0.000048,0.215543,-0.024769,0.000048,,,,,,,,,
1692626102.632479,,,,,,,,,,,,,,,,,,,,,,,,,,,,,,,,,,,,,,,,,,,36011.000000,1692626102.624508,0.000000,0.000000,0.000000,0.000000,0.000000,0.000000
1692626102.640275,2.928074,-0.539152,-0.000236,91.390047,0.205492,-0.000008,-0.171120,0.048116,-0.000046,0.021576,-2.718867,-0.000653,0.021576,11.929027,-0.002652,0.331200,-0.484810,-0.000094,-1.909000,-0.051728,-0.001000,0.027020,1.226727,-0.001772,-1.618000,0.003273,-0.001000,0.023920,0.000000,-0.000138,-1.485143,0.000006,0.000038,18394.000000,1692626102.633874,1.251200,-1.031934,-0.000048,-0.047314,-0.024388,0.000048,,,,,,,,,
1692626102.640302,,,,,,,,,,,,,,,,,,,,,,,,,,,,,,,,,,,,,,,,,,,36012.000000,1692626102.635125,0.000000,0.000000,0.000000,0.000000,0.000000,0.000000
1692626102.653699,,,,,,,,,,,,,,,,,,,,,,,,,,,,,,,,,,,,,,,,,,,36013.000000,1692626102.644638,0.000000,0.000000,0.000000,0.000000,0.000000,0.000000
1692626102.654793,1.439771,-0.539152,-0.000119,90.807945,0.205492,-0.000008,-0.165600,0.048116,-0.000046,0.018879,-2.718867,-0.000653,0.024273,11.929027,-0.002513,0.353280,-0.484810,-0.000094,-1.909000,-0.050728,-0.004999,0.027432,1.226727,-0.001772,-1.618000,0.003273,-0.001000,0.023920,0.000000,-0.000138,-1.399714,0.000006,0.000038,18395.000000,1692626102.643877,1.266971,-1.031934,-0.000048,-0.099886,-0.024388,0.000048,,,,,,,,,
1692626102.660224,,,,,,,,,,,,,,,,,,,,,,,,,,,,,,,,,,,,,,,,,,,36014.000000,1692626102.654398,0.000000,0.000000,0.000000,0.000000,0.000000,0.000000
1692626102.670429,,,,,,,,,,,,,,,,,,,,,,,,,,,,,,,,,,,,,,,,,,,36015.000000,1692626102.665122,0.000000,0.000000,0.000000,0.000000,0.000000,0.000000
1692626102.679574,,,,,,,,,,,,,,,,,,,,,,,,,,,,,,,,,,,,,,,,,,,36016.000000,1692626102.674736,0.000000,0.000000,0.000000,0.000000,0.000000,0.000000
1692626102.682097,2.022150,-0.539152,-0.000622,91.098996,0.205492,-0.000008,-0.171120,0.048116,-0.000046,0.021576,-2.718867,-0.000653,0.013485,11.929047,0.002592,0.353280,-0.484810,-0.000094,-1.911000,-0.052727,0.008999,0.025795,1.226727,-0.001772,-1.616000,0.004272,-0.001000,0.011040,0.000000,-0.000138,-1.682286,0.000002,-0.000038,18396.000000,1692626102.673876,1.182857,-1.031929,0.000655,-0.073600,-0.024388,0.000048,,,,,,,,,
1692626102.691355,,,,,,,,,,,,,,,,,,,,,,,,,,,,,,,,,,,,,,,,,,,36017.000000,1692626102.684494,0.000000,0.000000,0.000000,0.000000,0.000000,0.000000
1692626102.705001,,,,,,,,,,,,,,,,,,,,,,,,,,,,,,,,,,,,,,,,,,,36018.000000,1692626102.694504,0.000000,0.000000,0.000000,0.000000,0.000000,0.000000
1692626102.705302,2.070682,-0.539152,-0.000127,91.390047,0.205492,-0.000008,-0.171120,0.048116,-0.000046,0.016182,-2.718867,-0.000653,0.016182,11.929047,0.001741,0.331200,-0.484810,-0.000094,-1.911000,-0.050728,-0.001000,0.026204,1.226727,-0.001772,-1.611000,0.007272,0.023000,0.044160,0.000000,-0.000138,-1.623143,0.000002,-0.000038,18397.000000,1692626102.693873,1.167086,-1.031929,0.000048,-0.115657,-0.024388,0.000048,,,,,,,,,
1692626102.708258,,,,,,,,,,,,,,,,,,,,,,,,,,,,,,,,,,,,,,,,,,0.000000,,,,,,,,
1692626102.713249,,,,,,,,,,,,,,,,,,,,,,,,,,,,,,,,,,,,,,,,,,,36019.000000,1692626102.704941,0.000000,0.000000,0.000000,0.000000,0.000000,0.000000
1692626102.726478,1.633897,-0.539152,-0.000082,91.390047,0.205492,-0.000008,-0.198720,0.048116,-0.000046,0.021576,-2.718867,-0.000653,0.008091,11.929047,0.000811,0.353280,-0.484810,-0.000094,-1.896000,-0.040728,0.048999,0.025795,1.226727,-0.001772,-1.610000,0.008273,0.026000,0.058880,0.000000,-0.000138,-1.498286,0.000002,-0.000038,18398.000000,1692626102.713870,1.198629,-1.031929,0.000048,-0.089371,-0.024388,0.000048,,,,,,,,,
1692626102.733951,,,,,,,,,,,,,,,,,,,,,,,,,,,,,,,,,,,,,,,,,,,36020.000000,1692626102.715856,0.000000,0.000000,0.000000,0.000000,0.000000,0.000000
1692626102.740973,,,,,,,,,,,,,,,,,,,,,,,,,,,,,,,,,,,,,,,,,,,36021.000000,1692626102.724383,0.000000,0.000000,0.000000,0.000000,0.000000,0.000000
1692626102.741405,,,,,,,,,,,,,,,,,,,,,,,,,,,,,,,,,,,,,,,,,,,36022.000000,1692626102.734965,0.000000,0.000000,0.000000,0.000000,0.000000,0.000000
1692626102.747622,,,,,,,,,,,,,,,,,,,,,,,,,,,,,,,,,,,,,,,,,,,36023.000000,1692626102.744755,0.000000,0.000000,0.000000,0.000000,0.000000,0.000000
