__time,/hsrb/joint_states/arm_flex_joint/effort,/hsrb/joint_states/arm_flex_joint/position,/hsrb/joint_states/arm_flex_joint/velocity,/hsrb/joint_states/arm_lift_joint/effort,/hsrb/joint_states/arm_lift_joint/position,/hsrb/joint_states/arm_lift_joint/velocity,/hsrb/joint_states/arm_roll_joint/effort,/hsrb/joint_states/arm_roll_joint/position,/hsrb/joint_states/arm_roll_joint/velocity,/hsrb/joint_states/base_l_drive_wheel_joint/effort,/hsrb/joint_states/base_l_drive_wheel_joint/position,/hsrb/joint_states/base_l_drive_wheel_joint/velocity,/hsrb/joint_states/base_r_drive_wheel_joint/effort,/hsrb/joint_states/base_r_drive_wheel_joint/position,/hsrb/joint_states/base_r_drive_wheel_joint/velocity,/hsrb/joint_states/base_roll_joint/effort,/hsrb/joint_states/base_roll_joint/position,/hsrb/joint_states/base_roll_joint/velocity,/hsrb/joint_states/hand_l_spring_proximal_joint/effort,/hsrb/joint_states/hand_l_spring_proximal_joint/position,/hsrb/joint_states/hand_l_spring_proximal_joint/velocity,/hsrb/joint_states/hand_motor_joint/effort,/hsrb/joint_states/hand_motor_joint/position,/hsrb/joint_states/hand_motor_joint/velocity,/hsrb/joint_states/hand_r_spring_proximal_joint/effort,/hsrb/joint_states/hand_r_spring_proximal_joint/position,/hsrb/joint_states/hand_r_spring_proximal_joint/velocity,/hsrb/joint_states/head_pan_joint/effort,/hsrb/joint_states/head_pan_joint/position,/hsrb/joint_states/head_pan_joint/velocity,/hsrb/joint_states/head_tilt_joint/effort,/hsrb/joint_states/head_tilt_joint/position,/hsrb/joint_states/head_tilt_joint/velocity,/hsrb/joint_states/header/seq,/hsrb/joint_states/header/stamp,/hsrb/joint_states/wrist_flex_joint/effort,/hsrb/joint_states/wrist_flex_joint/position,/hsrb/joint_states/wrist_flex_joint/velocity,/hsrb/joint_states/wrist_roll_joint/effort,/hsrb/joint_states/wrist_roll_joint/position,/hsrb/joint_states/wrist_roll_joint/velocity,/hsrb/pressure_sensor/data,/hsrb/wrist_wrench/compensated/header/seq,/hsrb/wrist_wrench/compensated/header/stamp,/hsrb/wrist_wrench/compensated/wrench/force/x,/hsrb/wrist_wrench/compensated/wrench/force/y,/hsrb/wrist_wrench/compensated/wrench/force/z,/hsrb/wrist_wrench/compensated/wrench/torque/x,/hsrb/wrist_wrench/compensated/wrench/torque/y,/hsrb/wrist_wrench/compensated/wrench/torque/z
1693820606.571153,1.488303,-0.258433,0.000177,-13.970453,0.150496,0.000008,0.066240,-0.004192,-0.000046,-0.056637,1.349665,-0.000197,0.002697,4.015289,0.000653,1.181280,0.639115,-0.000136,-1.878000,-0.043273,0.008999,0.000000,1.399272,0.001181,-1.850000,-0.036272,0.018999,-0.055200,0.054134,0.000138,-0.906857,-0.026246,0.000038,149439.000000,1693820606.557196,1.156571,-1.364341,0.000048,-0.184000,0.023551,-0.000048,,,,,,,,,
1693820606.592976,2.200100,-0.258433,0.000042,-14.843606,0.150496,0.000008,-0.033120,-0.004192,-0.000046,0.037758,1.349665,-0.002968,0.002697,4.015289,0.000653,1.269600,0.639115,-0.000094,-1.878000,-0.043864,0.013000,-0.002046,1.399863,0.003545,-1.848000,-0.034863,0.014000,0.000000,0.054134,0.000138,-1.012000,-0.026246,0.000038,149440.000000,1693820606.577196,1.188114,-1.364341,0.000048,-0.068343,0.023551,-0.000048,,,,,,,,,
1693820606.611817,1.375062,-0.258433,0.000529,-14.843606,0.150496,0.000008,0.204240,-0.004192,-0.000046,0.089001,1.349685,-0.001246,0.002697,4.015289,0.000653,1.225440,0.639125,0.000513,-1.876000,-0.042864,0.017000,-0.002454,1.399863,0.003545,-1.851000,-0.038864,0.021999,0.001840,0.054134,0.000138,-0.893714,-0.026246,0.000038,149441.000000,1693820606.597197,1.188114,-1.364341,0.000048,-0.105143,0.023551,-0.000048,,,,,,,,,
1693820606.633020,1.407417,-0.258049,0.000018,-13.388351,0.150496,-0.000250,0.060720,-0.004192,-0.000046,0.083607,1.349685,-0.006670,0.000000,4.015289,0.000653,1.291680,0.639104,-0.005550,-1.873000,-0.040864,0.017000,-0.000817,1.399863,0.003545,-1.853000,-0.039863,-0.004000,-0.011040,0.054134,0.000138,-0.834571,-0.026246,0.000038,149442.000000,1693820606.617194,1.209143,-1.364341,0.000048,-0.194514,0.023551,-0.000048,,,,,,,,,
1693820606.658671,0.598556,-0.258049,-0.000018,-11.933095,0.150496,-0.000198,0.005520,-0.004192,-0.000046,0.051243,1.349705,-0.005937,0.000000,4.015289,0.000653,1.137120,0.639125,0.002293,-1.878000,-0.043864,0.014999,0.000408,1.399863,0.003545,-1.853000,-0.040864,0.001000,0.012880,0.054134,0.000138,-1.018571,-0.026246,0.000038,149443.000000,1693820606.637198,1.114514,-1.364341,0.000048,-0.141943,0.023164,-0.000048,,,,,,,,,
1693820606.667197,,,,,,,,,,,,,,,,,,,,,,,,,,,,,,,,,,,,,,,,,,0.000000,,,,,,,,
1693820606.678828,0.760329,-0.258049,-0.000018,-11.642044,0.150496,0.000040,0.016560,-0.004192,-0.000046,-0.043152,1.349764,0.006393,0.000000,4.015289,0.000653,1.258560,0.639125,0.005120,-1.878000,-0.044863,0.014000,0.000817,1.399863,0.003545,-1.853000,-0.040864,-0.004000,-0.029440,0.054134,0.000138,-0.939714,-0.026246,0.000038,149444.000000,1693820606.657192,1.230171,-1.364341,0.000048,-0.173486,0.023551,-0.000048,,,,,,,,,
1693820606.693542,0.436784,-0.258049,-0.000024,-13.097300,0.150496,0.000008,0.077280,-0.004192,-0.000046,-0.099789,1.349705,0.009283,0.002697,4.015289,0.000653,1.269600,0.639125,0.003906,-1.878000,-0.044863,0.008000,-0.001225,1.399863,0.003545,-1.850000,-0.039863,0.006000,-0.018400,0.054134,0.000138,-0.847714,-0.026246,0.000038,149445.000000,1693820606.677195,1.172343,-1.364341,0.000048,-0.068343,0.023551,-0.000048,,,,,,,,,
1693820606.711742,0.242658,-0.258049,-0.000373,-14.261504,0.150496,-0.000549,0.154560,-0.004192,-0.000046,0.056637,1.349665,-0.002434,0.005394,4.015289,0.000653,1.214400,0.639125,0.001989,-1.876000,-0.043455,0.012000,0.002046,1.400454,0.005909,-1.853000,-0.042454,-0.004000,-0.022080,0.054134,0.000138,-0.998857,-0.026246,0.000038,149446.000000,1693820606.697196,1.156571,-1.364341,0.000048,-0.047314,0.023551,-0.000048,,,,,,,,,
1693820606.738376,0.258835,-0.258433,-0.000018,-12.806249,0.150496,0.000096,0.066240,-0.004187,0.000122,0.078213,1.349665,-0.005086,0.005394,4.015289,0.000653,1.225440,0.639115,0.000607,-1.876000,-0.043864,0.007000,-0.001225,1.399863,0.005909,-1.853000,-0.041863,-0.008000,-0.046000,0.054134,0.000138,-0.998857,-0.026250,-0.000038,149447.000000,1693820606.717202,1.224914,-1.364341,0.000048,-0.120914,0.023932,-0.000048,,,,,,,,,
1693820606.755186,0.210304,-0.258049,-0.000066,-14.843606,0.150496,-0.000429,0.198720,-0.004187,0.000046,0.086304,1.349685,-0.007521,0.005394,4.015289,0.000653,1.424160,0.639115,0.002241,-1.881000,-0.046863,-0.003000,-0.001637,1.399863,0.002954,-1.853000,-0.041863,-0.008000,-0.018400,0.054134,0.000138,-1.038286,-0.026250,-0.000038,149448.000000,1693820606.737197,1.167086,-1.364341,0.000048,-0.294400,0.023932,-0.000048,,,,,,,,,
1693820606.771462,0.275012,-0.258049,0.000597,-13.970453,0.150496,0.000008,0.143520,-0.004187,0.000046,-0.018879,1.349744,0.000633,0.005394,4.015289,0.000653,1.346880,0.639104,-0.002911,-1.883000,-0.046863,-0.002000,0.001225,1.399863,0.002954,-1.855000,-0.041863,-0.008000,-0.003680,0.054134,0.000138,-0.946286,-0.026250,-0.000038,149449.000000,1693820606.757191,1.188114,-1.364341,0.000048,-0.099886,0.023932,-0.000048,,,,,,,,,
1693820606.783860,,,,,,,,,,,,,,,,,,,,,,,,,,,,,,,,,,,,,,,,,,0.000000,,,,,,,,
1693820606.798149,0.113240,-0.258049,-0.001538,-13.970453,0.150496,0.000008,0.104880,-0.004187,0.000046,-0.062031,1.349764,0.015359,0.005394,4.015289,0.000653,1.159200,0.639115,0.000094,-1.888000,-0.048864,-0.019999,0.000000,1.399863,0.002954,-1.851000,-0.038864,-0.003000,-0.018400,0.054134,0.000138,-1.005429,-0.026250,-0.000038,149450.000000,1693820606.777193,1.182857,-1.364341,0.000048,-0.530971,0.023932,-0.000048,,,,,,,,,
1693820606.812771,1.391239,-0.258049,0.000105,-13.970453,0.150496,0.000008,0.115920,-0.004187,0.000046,-0.064728,1.349645,-0.005858,0.008091,4.015289,0.000653,1.059840,0.639115,-0.000848,-1.883000,-0.046272,-0.009999,0.000000,1.399272,0.002954,-1.850000,-0.038273,0.007000,0.000000,0.054134,0.000138,-1.012000,-0.026250,-0.000038,149451.000000,1693820606.797196,1.172343,-1.364341,0.000048,-0.031543,0.023551,-0.000048,,,,,,,,,
1693820606.831316,0.291190,-0.258049,-0.001553,-14.552555,0.150496,0.000008,-0.077280,-0.004187,0.000046,0.089001,1.349665,-0.004037,0.008091,4.015289,0.000653,1.203360,0.639115,0.000104,-1.883000,-0.044863,0.004999,-0.001637,1.399863,0.002363,-1.855000,-0.040864,0.002000,0.001840,0.054134,0.000138,-0.998857,-0.026250,-0.000038,149452.000000,1693820606.817189,1.098743,-1.364341,0.000048,0.005257,0.023551,-0.000048,,,,,,,,,
1693820606.846510,0.905923,-0.258433,0.000842,-14.261504,0.150496,0.000008,0.193200,-0.004187,0.000046,0.067425,1.349685,-0.006769,0.005394,4.015289,0.000653,1.269600,0.639115,0.000094,-1.886000,-0.047864,-0.004999,0.000817,1.399863,0.002363,-1.853000,-0.040864,0.002000,-0.014720,0.054134,0.000138,-1.058000,-0.026250,-0.000038,149453.000000,1693820606.837194,1.188114,-1.364341,0.000048,-0.205029,0.023551,-0.000048,,,,,,,,,
1693820606.870048,1.002987,-0.258049,-0.000302,-14.552555,0.150496,0.000008,0.231840,-0.004187,0.000046,0.000000,1.349764,0.006650,0.000000,4.015289,0.000653,1.225440,0.639104,-0.005393,-1.883000,-0.045273,0.001000,-0.000817,1.399272,0.002363,-1.853000,-0.040273,-0.007000,0.011040,0.054134,0.000138,-1.012000,-0.026250,-0.000038,149454.000000,1693820606.857207,1.272229,-1.364341,0.000048,-0.078857,0.023932,-0.000048,,,,,,,,,
1693820606.887540,,,,,,,,,,,,,,,,,,,,,,,,,,,,,,,,,,,,,,,,,,0.000000,,,,,,,,
1693820606.902017,0.161772,-0.258049,-0.000018,-11.933095,0.150496,0.000237,0.414000,-0.004187,0.000046,-0.086304,1.349744,0.012806,-0.002697,4.015289,0.000653,1.214400,0.639104,-0.002628,-1.881000,-0.044272,0.004999,0.000408,1.399272,-0.000590,-1.853000,-0.040273,-0.002000,-0.005520,0.054134,0.000138,-0.946286,-0.026250,-0.000038,149455.000000,1693820606.877192,1.061943,-1.364341,0.000048,-0.026286,0.023932,-0.000048,,,,,,,,,
1693820606.917289,1.326531,-0.258433,0.000062,-11.933095,0.150496,-0.000008,0.022080,-0.004187,0.000046,-0.078213,1.349705,0.007224,0.005394,4.015289,0.000653,1.391040,0.639115,0.006639,-1.875000,-0.040681,0.008999,0.004091,1.398681,-0.002954,-1.853000,-0.039682,-0.002000,0.000000,0.054134,0.000138,-0.966000,-0.026250,-0.000038,149456.000000,1693820606.897194,1.156571,-1.364341,0.000048,-0.036800,0.023551,-0.000048,,,,,,,,,
1693820606.937714,0.938278,-0.258049,-0.000878,-12.806249,0.150496,-0.000056,0.055200,-0.004187,0.000046,-0.129456,1.349645,-0.004572,0.002697,4.015289,0.000653,1.302720,0.639104,-0.003225,-1.871000,-0.039091,0.017999,-0.000408,1.398090,-0.005318,-1.853000,-0.039091,-0.002000,-0.005520,0.054134,0.000138,-0.946286,-0.026250,-0.000038,149457.000000,1693820606.917189,1.182857,-1.364341,0.000048,-0.026286,0.023164,-0.000048,,,,,,,,,
1693820606.946831,1.019164,-0.258433,0.000694,-13.970453,0.150496,0.000139,0.138000,-0.004187,0.000046,0.045849,1.349665,-0.005601,-0.002697,4.015289,0.000653,1.203360,0.639104,-0.001727,-1.871000,-0.040090,0.016000,-0.000408,1.398090,-0.005318,-1.848000,-0.036091,-0.002000,-0.044160,0.054134,0.000138,-1.012000,-0.026250,-0.000038,149458.000000,1693820606.937195,1.172343,-1.364341,0.000048,-0.115657,0.023164,-0.000048,,,,,,,,,
1693820606.975726,0.291190,-0.258049,-0.000018,-13.097300,0.150496,0.000008,0.104880,-0.004187,0.000046,0.086304,1.349665,-0.005166,0.002697,4.015289,0.000653,1.148160,0.639104,-0.000094,-1.868000,-0.039091,0.019999,-0.000817,1.398090,-0.005318,-1.850000,-0.038090,0.013000,-0.033120,0.054134,0.000138,-1.005429,-0.026250,-0.000038,149459.000000,1693820606.957194,1.167086,-1.364341,0.000048,-0.341714,0.023551,-0.000048,,,,,,,,,
1693820606.992979,1.957442,-0.258433,0.000094,-13.679402,0.150496,0.000008,0.231840,-0.004187,0.000046,0.078213,1.349685,-0.006234,0.000000,4.015289,0.000653,1.126080,0.639104,-0.000094,-1.866000,-0.039091,0.018999,-0.000817,1.398090,-0.005318,-1.853000,-0.039091,-0.002000,-0.011040,0.054134,0.000138,-1.044857,-0.026250,-0.000038,149460.000000,1693820606.977214,1.235429,-1.364341,0.000048,-0.105143,0.023551,-0.000048,,,,,,,,,
1693820607.004540,,,,,,,,,,,,,,,,,,,,,,,,,,,,,,,,,,,,,,,,,,0.000000,,,,,,,,
1693820607.009822,0.388253,-0.258433,-0.000171,-13.970453,0.150496,0.000008,0.115920,-0.004187,0.000046,0.026970,1.349725,-0.005086,0.002697,4.015289,0.000653,1.258560,0.639115,0.000240,-1.871000,-0.043500,-0.001000,0.000817,1.397499,-0.007681,-1.850000,-0.038500,-0.002000,0.025760,0.054134,0.000138,-0.808286,-0.026250,-0.000038,149461.000000,1693820606.997196,1.193371,-1.364341,0.000048,-0.136686,0.023164,-0.000048,,,,,,,,,
1693820607.030838,2.329517,-0.258433,0.001355,-13.970453,0.150496,0.000008,0.121440,-0.004187,0.000046,-0.072819,1.349665,0.001425,0.005394,4.015289,0.000653,1.214400,0.639115,0.000628,-1.866000,-0.040090,0.009999,-0.001637,1.398090,-0.004727,-1.853000,-0.040090,-0.006000,-0.007360,0.054134,0.000138,-0.893714,-0.026250,-0.000038,149462.000000,1693820607.017194,1.125029,-1.364341,0.000048,-0.157714,0.023164,-0.000048,,,,,,,,,
1693820607.056615,0.598556,-0.258049,-0.000018,-14.261504,0.150496,0.000008,0.011040,-0.004187,0.000046,-0.051243,1.349645,-0.007145,0.005394,4.015289,0.000653,1.424160,0.639104,-0.002356,-1.866000,-0.040681,0.017999,0.001637,1.398681,-0.004727,-1.850000,-0.037682,-0.001000,0.001840,0.054134,0.000138,-0.867429,-0.026250,-0.000038,149463.000000,1693820607.037195,1.219657,-1.364341,0.000048,-0.063086,0.023164,-0.000048,,,,,,,,,
1693820607.069750,0.485316,-0.258433,-0.000018,-13.388351,0.150496,0.000014,0.099360,-0.004187,0.000046,0.070122,1.349665,-0.005898,0.008091,4.015289,0.000653,1.258560,0.639104,-0.004879,-1.866000,-0.040273,0.013000,0.000817,1.399272,-0.001772,-1.853000,-0.040273,0.004000,-0.009200,0.054134,0.000138,-0.939714,-0.026250,-0.000038,149464.000000,1693820607.057197,1.256457,-1.364341,0.000048,-0.110400,0.023551,-0.000048,,,,,,,,,
1693820607.096392,0.614734,-0.258049,-0.000030,-15.134658,0.150496,0.000118,0.066240,-0.004187,0.000046,0.080910,1.349685,-0.006314,0.002697,4.015289,0.000653,1.214400,0.639115,0.000104,-1.866000,-0.040273,0.017000,-0.000408,1.399272,0.003545,-1.853000,-0.040273,-0.001000,-0.029440,0.054134,0.000138,-0.933143,-0.026250,-0.000038,149465.000000,1693820607.077190,1.188114,-1.364341,0.000048,-0.078857,0.023551,-0.000048,,,,,,,,,
1693820607.109193,,,,,,,,,,,,,,,,,,,,,,,,,,,,,,,,,,,,,,,,,,0.000000,,,,,,,,
1693820607.112584,1.601543,-0.258433,0.000468,-13.970453,0.150496,0.000495,0.160080,-0.004187,0.000046,0.029667,1.349725,-0.004908,0.002697,4.015289,0.000653,1.203360,0.639115,-0.002460,-1.868000,-0.043681,0.017000,0.000817,1.398681,-0.002363,-1.855000,-0.041682,-0.001000,-0.025760,0.054134,0.000138,-0.893714,-0.026250,-0.000038,149466.000000,1693820607.097195,1.230171,-1.364341,0.000048,0.042057,0.023164,-0.000048,,,,,,,,,
1693820607.131964,1.342708,-0.258433,-0.000575,-12.806249,0.150496,0.000243,0.165600,-0.004187,0.000046,-0.008091,1.349784,0.014844,0.005394,4.015289,0.000653,1.181280,0.639115,-0.001162,-1.875000,-0.048273,-0.003000,-0.001225,1.399272,0.000590,-1.858000,-0.042273,-0.009999,-0.033120,0.054134,0.000138,-0.847714,-0.026250,-0.000038,149467.000000,1693820607.117191,1.235429,-1.364341,0.000048,-0.078857,0.023551,-0.000048,,,,,,,,,
1693820607.153463,0.889746,-0.258049,-0.000460,-14.261504,0.150496,0.000008,0.000000,-0.004187,0.000046,-0.134850,1.349645,-0.003899,0.005394,4.015289,0.000653,1.622880,0.639115,0.004848,-1.878000,-0.049272,-0.020999,0.000000,1.399272,0.000590,-1.858000,-0.042273,-0.009999,-0.042320,0.054134,0.000138,-0.887143,-0.026250,-0.000038,149468.000000,1693820607.137195,1.277486,-1.364341,0.000048,0.000000,0.023164,-0.000048,,,,,,,,,
1693820607.175790,1.989796,-0.258433,0.000426,-15.134658,0.150496,0.000008,0.055200,-0.004187,0.000046,-0.097092,1.349645,-0.007561,-0.005394,4.015289,0.000653,1.214400,0.639104,-0.003979,-1.881000,-0.049863,-0.032000,-0.001225,1.399863,0.000590,-1.860000,-0.042864,-0.004999,0.007360,0.054134,0.000138,-0.834571,-0.026250,-0.000038,149469.000000,1693820607.157192,1.209143,-1.364341,0.000048,-0.120914,0.023164,-0.000048,,,,,,,,,
1693820607.192163,1.116227,-0.258049,-0.000024,-14.843606,0.150496,0.000008,0.038640,-0.004187,0.000046,0.053940,1.349665,-0.004136,0.010788,4.015289,0.000653,1.291680,0.639104,-0.003979,-1.879000,-0.047273,-0.014999,-0.000817,1.399272,0.000000,-1.860000,-0.042273,-0.008999,0.001840,0.054134,0.000138,-0.808286,-0.026250,-0.000038,149470.000000,1693820607.177192,1.151314,-1.364341,0.000048,-0.073600,0.023551,-0.000048,,,,,,,,,
1693820607.217447,1.633897,-0.258049,0.000193,-14.843606,0.150496,0.000008,0.121440,-0.004187,0.000046,0.086304,1.349685,-0.007145,0.008091,4.015289,0.000653,1.214400,0.639115,0.002911,-1.878000,-0.045273,-0.009999,-0.000408,1.399272,0.000000,-1.860000,-0.042273,-0.008999,-0.012880,0.054134,0.000138,-0.887143,-0.026250,-0.000038,149471.000000,1693820607.197192,1.188114,-1.364341,0.000048,0.036800,0.023164,-0.000048,,,,,,,,,
1693820607.217483,,,,,,,,,,,,,,,,,,,,,,,,,,,,,,,,,,,,,,,,,,0.000000,,,,,,,,
1693820607.231621,1.585366,-0.258433,0.000113,-15.134658,0.150496,0.000008,0.011040,-0.004187,0.000046,0.067425,1.349685,-0.009342,0.002697,4.015289,0.000653,1.435200,0.639115,0.002083,-1.878000,-0.045273,0.004999,-0.002454,1.399272,0.000000,-1.861000,-0.043273,-0.013000,0.014720,0.054134,0.000138,-0.821429,-0.026250,-0.000038,149472.000000,1693820607.217192,1.082971,-1.364341,0.000048,-0.073600,0.023164,-0.000048,,,,,,,,,
1693820607.254642,0.938278,-0.258433,0.000852,-13.970453,0.150496,-0.000009,-0.011040,-0.004187,0.000046,-0.024273,1.349764,0.005740,0.008091,4.015289,0.000653,1.468320,0.639115,0.001560,-1.878000,-0.045681,0.000000,-0.002866,1.398681,-0.002363,-1.861000,-0.041682,-0.013000,-0.012880,0.054134,0.000138,-0.828000,-0.026250,-0.000038,149473.000000,1693820607.237199,1.261714,-1.364341,0.000048,-0.057829,0.023551,-0.000048,,,,,,,,,
1693820607.269672,1.763315,-0.258433,0.000050,-15.716760,0.150496,-0.000495,0.060720,-0.004187,0.000046,-0.024273,1.349784,0.017042,0.005394,4.015289,0.000653,1.490400,0.639115,0.002000,-1.876000,-0.044091,0.006000,-0.002454,1.398090,-0.004727,-1.860000,-0.041091,-0.008000,-0.014720,0.054134,0.000138,-0.828000,-0.026250,-0.000038,149474.000000,1693820607.257190,1.177600,-1.364341,0.000048,-0.047314,0.023551,-0.000048,,,,,,,,,
1693820607.289617,1.180936,-0.258433,0.000981,-16.298862,0.150496,-0.000282,0.005520,-0.004187,0.000046,-0.129456,1.349665,-0.001761,0.005394,4.015289,0.000653,1.435200,0.639115,0.003413,-1.868000,-0.039091,0.009999,-0.001637,1.398090,-0.004727,-1.860000,-0.041091,-0.008000,-0.023920,0.054134,0.000138,-0.703143,-0.026250,-0.000038,149475.000000,1693820607.277198,1.167086,-1.364341,0.000048,-0.036800,0.023164,-0.000048,,,,,,,,,
1693820607.316657,1.957442,-0.258433,0.000779,-14.261504,0.150496,-0.000008,0.022080,-0.004187,0.000046,-0.021576,1.349784,0.016863,0.008091,4.015289,0.000653,1.115040,0.639104,-0.000188,-1.868000,-0.039091,0.023000,-0.000408,1.398090,-0.004727,-1.861000,-0.041091,-0.012000,-0.014720,0.054134,0.000138,-0.742571,-0.026250,-0.000038,149476.000000,1693820607.297194,1.140800,-1.364341,0.000048,-0.057829,0.023551,-0.000048,,,,,,,,,
1693820607.317736,,,,,,,,,,,,,,,,,,,,,,,,,,,,,,,,,,,,,,,,,,0.000000,,,,,,,,
1693820607.329002,2.264808,-0.258433,0.001456,-13.388351,0.150496,-0.000008,0.033120,-0.004187,0.000046,-0.026970,1.349665,0.000178,0.008091,4.015289,0.000653,1.214400,0.639115,0.000094,-1.866000,-0.039682,0.020999,-0.001225,1.398681,-0.001772,-1.860000,-0.039682,-0.007000,0.022080,0.054134,0.000138,-0.762286,-0.026246,0.000038,149477.000000,1693820607.317194,1.240686,-1.364341,0.000048,0.052571,0.023551,-0.000048,,,,,,,,,
1693820607.351646,2.054505,-0.258049,-0.000030,-13.097300,0.150496,-0.000008,0.099360,-0.004187,0.000046,0.051243,1.349665,-0.002790,-0.002697,4.015289,0.000653,1.192320,0.639115,0.000146,-1.868000,-0.041272,0.018999,-0.000817,1.399272,0.001181,-1.856000,-0.036272,0.007000,0.007360,0.054134,0.000138,-0.874000,-0.026246,0.000038,149478.000000,1693820607.337193,1.151314,-1.364341,0.000048,-0.031543,0.023164,-0.000048,,,,,,,,,
1693820607.378836,3.154555,-0.258433,0.001597,-12.515198,0.150496,0.000416,0.049680,-0.004187,0.000046,0.089001,1.349685,-0.002850,0.008091,4.015289,0.000653,1.048800,0.639104,-0.000240,-1.868000,-0.041682,0.008999,-0.001225,1.398681,0.001181,-1.856000,-0.036682,0.014999,-0.005520,0.054134,0.000138,-0.828000,-0.026246,0.000038,149479.000000,1693820607.357189,1.172343,-1.364341,0.000048,-0.089371,0.023164,-0.000048,,,,,,,,,
1693820607.388790,2.523644,-0.258433,0.001753,-13.388351,0.150496,0.000008,-0.011040,-0.004187,0.000046,0.080910,1.349665,-0.009956,0.005394,4.015289,0.000653,1.203360,0.639104,-0.000764,-1.865000,-0.040273,0.013000,0.002046,1.399272,-0.001772,-1.858000,-0.038273,0.014999,-0.007360,0.054134,0.000138,-0.900286,-0.026246,0.000038,149480.000000,1693820607.377191,1.135543,-1.364341,0.000048,-0.105143,0.023164,-0.000048,,,,,,,,,
1693820607.410490,2.038328,-0.258433,0.000325,-13.679402,0.150496,0.000008,0.093840,-0.004187,0.000046,0.051243,1.349705,-0.005443,0.008091,4.015289,0.000653,1.346880,0.639115,0.003078,-1.863000,-0.039272,0.017000,-0.001225,1.399272,0.001181,-1.860000,-0.039272,0.004999,-0.014720,0.054134,0.000138,-0.939714,-0.026246,0.000038,149481.000000,1693820607.397192,1.198629,-1.364341,0.000048,-0.084114,0.023164,-0.000048,,,,,,,,,
1693820607.426818,,,,,,,,,,,,,,,,,,,,,,,,,,,,,,,,,,,,,,,,,,0.000000,,,,,,,,
1693820607.426825,3.089846,-0.258433,0.000214,-14.552555,0.150496,0.000008,0.066240,-0.004187,0.000046,-0.102486,1.349744,0.014231,0.005394,4.015289,0.000653,1.479360,0.639104,-0.002366,-1.860000,-0.038864,0.019999,-0.000408,1.399863,0.001181,-1.861000,-0.040864,0.004999,0.005520,0.054134,0.000138,-0.893714,-0.026246,0.000038,149482.000000,1693820607.417193,1.230171,-1.364341,0.000048,-0.057829,0.023164,-0.000048,,,,,,,,,
1693820607.448204,1.100050,-0.258049,-0.000161,-14.261504,0.150496,0.000008,0.000000,-0.004187,0.000046,-0.105183,1.349665,-0.002612,0.005394,4.015289,0.000653,1.247520,0.639115,0.003099,-1.861000,-0.039863,0.017000,-0.000817,1.399863,0.003545,-1.865000,-0.042864,0.000000,-0.016560,0.054134,0.000138,-0.979143,-0.026246,0.000038,149483.000000,1693820607.437193,1.193371,-1.364341,0.000048,-0.084114,0.023551,-0.000048,,,,,,,,,
1693820607.478116,0.873569,-0.258049,-0.000030,-14.261504,0.150496,0.000008,0.077280,-0.004187,0.000046,0.043152,1.349665,-0.006056,0.002697,4.015289,0.000653,1.357920,0.639104,-0.004869,-1.863000,-0.041863,0.017000,0.000408,1.399863,0.003545,-1.865000,-0.042864,-0.008999,-0.009200,0.054134,0.000138,-0.874000,-0.026246,0.000038,149484.000000,1693820607.457188,1.109257,-1.364341,0.000048,-0.047314,0.023551,-0.000048,,,,,,,,,
1693820607.489028,1.876556,-0.258049,-0.000468,-13.679402,0.150496,0.000008,0.000000,-0.004187,0.000046,0.086304,1.349665,-0.009441,0.008091,4.015289,0.000653,1.214400,0.639115,0.000136,-1.863000,-0.042046,0.010999,0.001637,1.401045,0.000590,-1.868000,-0.045046,-0.008999,0.001840,0.054134,0.000138,-0.920000,-0.026246,0.000038,149485.000000,1693820607.477195,1.067200,-1.364341,0.000048,-0.115657,0.023164,-0.000048,,,,,,,,,
1693820607.514246,0.760329,-0.258049,-0.000927,-13.388351,0.150496,0.000008,0.033120,-0.004187,0.000046,-0.002697,1.349744,0.000376,0.000000,4.015289,0.000653,1.225440,0.639115,0.000324,-1.865000,-0.043864,0.010999,0.000408,1.399863,0.005909,-1.866000,-0.041863,-0.017000,0.022080,0.054134,0.000138,-0.841143,-0.026246,0.000038,149486.000000,1693820607.497196,1.193371,-1.364341,0.000048,-0.089371,0.023551,-0.000048,,,,,,,,,
1693820607.529864,1.423594,-0.258049,-0.000018,-14.843606,0.150496,0.000008,-0.071760,-0.004187,0.000046,-0.115971,1.349705,0.009619,0.000000,4.015289,0.000653,1.181280,0.639115,0.001277,-1.866000,-0.043864,-0.004000,0.000408,1.399863,0.002954,-1.865000,-0.040864,-0.002000,-0.007360,0.054134,0.000138,-0.867429,-0.026246,0.000038,149487.000000,1693820607.517196,1.130286,-1.364341,0.000048,-0.073600,0.023551,-0.000048,,,,,,,,,
1693820607.538259,,,,,,,,,,,,,,,,,,,,,,,,,,,,,,,,,,,,,,,,,,0.000000,,,,,,,,
1693820607.550560,0.776506,-0.258049,0.000953,-15.134658,0.150496,0.000008,-0.060720,-0.004187,0.000046,0.002697,1.349665,-0.003265,0.005394,4.015289,0.000653,1.324800,0.639115,0.000942,-1.866000,-0.043455,0.001000,-0.001225,1.400454,0.002954,-1.866000,-0.041455,0.003000,-0.025760,0.054134,0.000138,-0.933143,-0.026246,0.000038,149488.000000,1693820607.537197,1.093486,-1.364341,0.000048,-0.110400,0.023164,-0.000048,,,,,,,,,
1693820607.575090,1.553011,-0.258049,0.000874,-12.806249,0.150496,0.000273,0.022080,-0.004187,0.000046,0.083607,1.349685,0.001246,0.005394,4.015289,0.000653,1.236480,0.639115,0.000764,-1.868000,-0.044455,-0.008999,-0.002046,1.400454,0.005318,-1.858000,-0.036455,0.017000,-0.007360,0.054134,0.000138,-0.920000,-0.026246,0.000038,149489.000000,1693820607.557201,1.104000,-1.364341,0.000048,-0.073600,0.023164,-0.000048,,,,,,,,,
1693820607.589277,1.002987,-0.258049,-0.000066,-13.970453,0.150496,0.000008,-0.077280,-0.004187,0.000046,-0.035061,1.349665,-0.006650,0.000000,4.015289,0.000653,1.258560,0.639115,0.000282,-1.866000,-0.042454,0.006000,0.002046,1.400454,0.007681,-1.855000,-0.036455,0.025000,0.007360,0.054134,0.000138,-0.952857,-0.026246,0.000038,149490.000000,1693820607.577194,1.167086,-1.364341,0.000048,-0.078857,0.023551,-0.000048,,,,,,,,,
1693820607.611488,0.533848,-0.258049,-0.001631,-15.716760,0.150496,0.000259,0.038640,-0.004192,-0.000848,0.048546,1.349685,-0.002216,0.005394,4.015289,0.000653,0.916320,0.639125,0.003947,-1.871000,-0.044455,0.006000,0.000817,1.400454,0.004727,-1.856000,-0.038455,0.013000,0.042320,0.054134,0.000138,-0.985714,-0.026246,0.000038,149491.000000,1693820607.597192,1.140800,-1.364341,0.000048,-0.057829,0.023551,-0.000048,,,,,,,,,
1693820607.635666,0.727974,-0.258049,-0.000212,-12.806249,0.150496,-0.000021,0.038640,-0.004192,-0.000046,0.078213,1.349685,-0.003839,-0.002697,4.015289,0.000653,1.324800,0.639104,-0.003979,-1.870000,-0.043455,0.001000,-0.000408,1.400454,0.004727,-1.855000,-0.038455,0.013000,0.020240,0.054134,0.000138,-0.887143,-0.026246,0.000038,149492.000000,1693820607.617196,1.035657,-1.364341,0.000048,-0.068343,0.023551,-0.000048,,,,,,,,,
1693820607.650434,,,,,,,,,,,,,,,,,,,,,,,,,,,,,,,,,,,,,,,,,,0.000000,,,,,,,,
1693820607.655157,0.776506,-0.258049,-0.000060,-11.933095,0.150496,-0.000009,0.011040,-0.004192,-0.000046,0.067425,1.349685,-0.010134,0.008091,4.015289,0.000653,1.247520,0.639115,0.001005,-1.871000,-0.045454,-0.008999,-0.001637,1.400454,0.004727,-1.858000,-0.040454,0.008000,-0.005520,0.054134,0.000138,-0.874000,-0.026246,0.000038,149493.000000,1693820607.637200,1.156571,-1.364341,0.000048,-0.110400,0.023551,0.000048,,,,,,,,,
1693820607.677192,1.698606,-0.258049,-0.000971,-11.933095,0.150496,-0.000354,0.093840,-0.004192,-0.000046,-0.008091,1.349744,0.000851,0.008091,4.015289,0.000653,1.225440,0.639115,0.000513,-1.870000,-0.043864,-0.008999,0.000408,1.399863,0.001772,-1.858000,-0.039863,0.003000,-0.016560,0.054134,0.000138,-0.920000,-0.026246,0.000038,149494.000000,1693820607.657188,1.177600,-1.364341,0.000048,-0.068343,0.023164,0.000048,,,,,,,,,
1693820607.730139,0.275012,-0.258049,-0.000046,-13.388351,0.150496,0.000008,0.049680,-0.004192,-0.000046,-0.062031,1.349764,0.014508,0.005394,4.015289,0.000653,1.335840,0.639104,-0.004398,-1.871000,-0.044863,-0.008000,-0.000817,1.399863,0.001772,-1.861000,-0.042864,-0.007000,-0.007360,0.054134,0.000138,-1.031714,-0.026246,0.000038,149495.000000,1693820607.677196,1.251200,-1.364341,0.000048,0.136686,0.023551,0.000048,,,,,,,,,
1693820607.743307,0.517670,-0.258049,-0.000581,-14.552555,0.150496,0.000008,0.038640,-0.004192,-0.000046,0.032364,1.349685,0.001524,0.005394,4.015289,0.000653,1.225440,0.639104,-0.006408,-1.883000,-0.051455,-0.028999,-0.001225,1.400454,0.004136,-1.865000,-0.044455,-0.014999,0.025760,0.054134,0.000138,-0.952857,-0.026246,0.000038,149497.000000,1693820607.717189,1.098743,-1.364341,0.000048,-0.105143,0.023551,0.000048,,,,,,,,,
1693820607.764068,,,,,,,,,,,,,,,,,,,,,,,,,,,,,,,,,,,,,,,,,,0.000000,,,,,,,,
1693820607.768589,0.307367,-0.258049,-0.000601,-13.970453,0.150496,-0.000069,-0.016560,-0.004192,-0.000046,0.094395,1.349665,-0.006215,0.002697,4.015289,0.000653,1.203360,0.639104,-0.005770,-1.886000,-0.050864,-0.039999,-0.000817,1.399863,0.001181,-1.863000,-0.043864,-0.014999,-0.007360,0.054134,0.000138,-0.874000,-0.026246,0.000038,149498.000000,1693820607.737195,1.067200,-1.364341,0.000048,0.220800,0.023164,0.000048,,,,,,,,,
1693820607.809593,0.258835,-0.258049,-0.000535,-14.261504,0.150496,-0.000019,0.071760,-0.004192,-0.000046,0.070122,1.349685,-0.006492,-0.005394,4.015289,0.000653,1.192320,0.639115,-0.002345,-1.886000,-0.049863,-0.023000,-0.002454,1.399863,0.001181,-1.863000,-0.043864,-0.014999,-0.012880,0.054134,0.000138,-0.874000,-0.026246,0.000038,149499.000000,1693820607.757197,1.088229,-1.364341,0.000048,-0.173486,0.023551,0.000048,,,,,,,,,
1693820607.810570,0.291190,-0.258049,-0.001090,-13.388351,0.150496,-0.000008,0.115920,-0.004192,-0.000046,0.045849,1.349705,-0.007719,0.008091,4.015289,0.000653,1.357920,0.639104,-0.006408,-1.886000,-0.048864,-0.016000,0.000408,1.399863,0.001181,-1.863000,-0.043864,-0.014999,0.033120,0.054134,0.000138,-0.998857,-0.026246,0.000038,149500.000000,1693820607.777196,1.114514,-1.364341,0.000048,-0.120914,0.023551,0.000450,,,,,,,,,
1693820607.836996,0.177949,-0.258049,-0.000947,-13.097300,0.150496,-0.000008,0.121440,-0.004192,-0.000046,-0.018879,1.349784,0.011480,0.002697,4.015289,0.000653,1.302720,0.639115,-0.002858,-1.883000,-0.046863,-0.006000,0.000817,1.399863,0.001181,-1.868000,-0.045864,-0.024000,-0.014720,0.054134,0.000138,-0.952857,-0.026246,0.000038,149501.000000,1693820607.797190,1.088229,-1.364341,0.000048,-0.141943,0.023551,0.000048,,,,,,,,,
1693820607.858063,0.258835,-0.258049,-0.000143,-12.806249,0.150496,-0.000008,0.270480,-0.004192,-0.000046,-0.124062,1.349645,-0.004374,0.008091,4.015289,0.000653,1.656000,0.639115,0.003445,-1.883000,-0.045864,0.004000,0.002046,1.399863,0.001181,-1.866000,-0.043864,-0.017000,-0.055200,0.054134,0.000138,-1.012000,-0.026246,0.000038,149502.000000,1693820607.817198,1.093486,-1.364341,0.000048,-0.068343,0.023551,0.000048,,,,,,,,,
1693820607.873461,,,,,,,,,,,,,,,,,,,,,,,,,,,,,,,,,,,,,,,,,,0.000000,,,,,,,,
1693820607.886644,1.504480,-0.258433,0.000018,-16.589913,0.150496,0.000187,0.055200,-0.004192,-0.000046,0.051243,1.349665,-0.002157,0.002697,4.015289,0.000653,1.159200,0.639125,0.001047,-1.881000,-0.044863,0.004000,-0.000817,1.399863,0.001181,-1.861000,-0.040864,-0.016000,0.014720,0.054134,0.000138,-1.071143,-0.026246,0.000038,149503.000000,1693820607.837196,1.067200,-1.364341,0.000048,-0.015771,0.023551,0.000048,,,,,,,,,
1693820607.910377,0.145595,-0.258049,-0.000050,-13.970453,0.150496,0.000008,0.082800,-0.004187,0.000046,0.075516,1.349685,-0.008709,0.000000,4.015289,0.000653,1.159200,0.639115,-0.002932,-1.878000,-0.043864,0.008000,0.000408,1.399863,0.001181,-1.858000,-0.038864,0.008000,-0.034960,0.054134,0.000138,-1.025143,-0.026246,0.000038,149505.000000,1693820607.877193,1.114514,-1.364341,0.000048,-0.021029,0.023164,0.000048,,,,,,,,,
1693820607.943985,0.145595,-0.258049,-0.000708,-12.224146,0.150496,0.000231,0.088320,-0.004187,0.000046,-0.051243,1.349784,0.012628,0.002697,4.015289,0.000653,1.313760,0.639125,0.000973,-1.878000,-0.043864,0.008000,-0.001225,1.399863,0.001181,-1.863000,-0.041863,0.002000,-0.025760,0.054134,0.000138,-0.952857,-0.026246,0.000038,149506.000000,1693820607.897191,1.104000,-1.364341,0.000048,-0.073600,0.023551,0.000048,,,,,,,,,
1693820607.963099,0.016177,-0.258049,-0.000074,-14.261504,0.150496,0.000008,0.115920,-0.004187,0.000046,-0.072819,1.349764,0.016131,0.000000,4.015289,0.000653,1.302720,0.639125,0.000230,-1.873000,-0.040864,0.017000,0.002454,1.399863,0.001181,-1.863000,-0.040864,-0.003000,0.000000,0.054134,0.000138,-0.985714,-0.026250,-0.000038,149507.000000,1693820607.917204,1.135543,-1.364341,0.000048,0.294400,0.023164,0.000048,,,,,,,,,
1693820607.964784,0.177949,-0.258049,-0.000018,-12.515198,0.150496,-0.000008,0.060720,-0.004187,0.000046,-0.137547,1.349665,-0.001484,0.000000,4.015289,0.000653,1.324800,0.639125,0.000429,-1.870000,-0.040273,0.019999,-0.001225,1.399272,-0.001772,-1.860000,-0.040273,0.002000,0.005520,0.054134,0.000138,-0.874000,-0.026250,-0.000038,149508.000000,1693820607.937196,1.130286,-1.364341,0.000048,-0.036800,0.023164,0.000048,,,,,,,,,
1693820607.984172,,,,,,,,,,,,,,,,,,,,,,,,,,,,,,,,,,,,,,,,,,0.000000,,,,,,,,
1693820607.990026,0.129418,-0.258049,-0.000018,-14.843606,0.150496,-0.000392,0.060720,-0.004187,0.000046,0.067425,1.349665,-0.004987,0.000000,4.015289,0.000653,1.313760,0.639115,-0.000094,-1.868000,-0.040273,0.023000,-0.000408,1.399272,-0.001772,-1.858000,-0.039272,0.006000,-0.001840,0.054134,0.000138,-0.893714,-0.026250,-0.000038,149509.000000,1693820607.957191,1.193371,-1.364341,0.000048,0.073600,0.023164,0.000048,,,,,,,,,
1693820608.021015,0.048532,-0.258049,-0.000981,-12.224146,0.150496,0.000012,0.126960,-0.004187,0.000046,0.091698,1.349685,-0.004710,0.002697,4.015289,0.000653,1.269600,0.639115,-0.000094,-1.871000,-0.043273,0.007000,0.000817,1.399272,-0.001772,-1.858000,-0.039272,0.006000,-0.005520,0.054134,0.000138,-0.939714,-0.026250,-0.000038,149510.000000,1693820607.977200,1.088229,-1.364341,0.000048,-0.057829,0.023164,0.000048,,,,,,,,,
1693820608.051932,-0.145595,-0.258049,-0.001470,-13.679402,0.150496,0.000008,0.110400,-0.004187,0.000046,-0.013485,1.349784,0.015953,0.002697,4.015289,0.000653,1.192320,0.639115,-0.000094,-1.866000,-0.040681,0.009999,-0.000817,1.398681,-0.004136,-1.863000,-0.044682,0.000000,-0.009200,0.054134,0.000138,-0.939714,-0.026250,-0.000038,149512.000000,1693820608.017190,1.151314,-1.364341,0.000048,0.005257,0.023164,0.000048,,,,,,,,,
1693820608.085456,0.080886,-0.258433,-0.000773,-11.933095,0.150496,-0.000332,0.143520,-0.004187,0.000046,-0.075516,1.349705,0.006690,0.005394,4.015289,0.000653,1.280640,0.639125,0.000659,-1.868000,-0.042864,0.004999,0.000817,1.399863,0.001772,-1.865000,-0.045864,-0.023000,-0.012880,0.054134,0.000138,-0.952857,-0.026250,-0.000038,149513.000000,1693820608.037202,1.235429,-1.364341,0.000048,-0.110400,0.023551,0.000048,,,,,,,,,
1693820608.093615,,,,,,,,,,,,,,,,,,,,,,,,,,,,,,,,,,,,,,,,,,0.000000,,,,,,,,
1693820608.108996,-0.614734,-0.258433,-0.000034,-13.388351,0.150496,0.000008,0.044160,-0.004187,0.000046,-0.005394,1.349744,-0.001167,-0.002697,4.015289,0.000653,1.126080,0.639115,-0.000513,-1.871000,-0.043864,0.004999,0.000000,1.399863,0.001772,-1.860000,-0.041863,-0.016000,0.000000,0.054134,0.000138,-0.979143,-0.026250,-0.000038,149514.000000,1693820608.057195,1.230171,-1.364341,0.000048,-0.042057,0.023551,0.000048,,,,,,,,,
1693820608.115183,0.323544,-0.258433,0.000852,-13.679402,0.150496,0.000008,0.121440,-0.004187,0.000046,-0.107880,1.349744,0.014864,-0.002697,4.015289,0.000653,1.424160,0.639104,-0.002754,-1.871000,-0.043864,0.000000,-0.000408,1.399863,0.001772,-1.861000,-0.041863,-0.004999,0.020240,0.054134,0.000138,-0.926571,-0.026250,-0.000038,149515.000000,1693820608.077197,1.219657,-1.364341,0.000048,-0.115657,0.023551,0.000048,,,,,,,,,
1693820608.143230,0.032354,-0.258049,0.000018,-15.134658,0.150496,0.000129,0.033120,-0.004187,0.000046,0.000000,1.349744,-0.001187,0.000000,4.015289,0.000653,1.170240,0.639115,0.000691,-1.871000,-0.045273,0.004999,-0.000817,1.399272,-0.001181,-1.860000,-0.040273,0.000000,0.033120,0.054134,0.000138,-0.854286,-0.026250,-0.000038,149516.000000,1693820608.097191,1.135543,-1.364341,0.000048,0.336457,0.023164,0.003908,,,,,,,,,
1693820608.153307,0.064709,-0.258049,-0.000018,-12.515198,0.150496,0.000264,0.066240,-0.004187,0.000046,-0.072819,1.349665,0.001207,0.002697,4.015289,0.000653,1.192320,0.639115,0.001413,-1.878000,-0.049863,-0.009999,-0.000408,1.399863,0.001772,-1.860000,-0.039863,-0.001000,-0.020240,0.054134,0.000138,-0.939714,-0.026250,-0.000038,149517.000000,1693820608.117191,1.046171,-1.364341,0.000048,0.346971,0.023551,0.000085,,,,,,,,,
1693820608.165946,-0.032354,-0.258049,-0.000254,-13.679402,0.150496,0.000008,-0.016560,-0.004187,0.000046,0.029667,1.349665,-0.003839,0.000000,4.015289,0.000653,1.357920,0.639115,0.000764,-1.878000,-0.047864,-0.023000,-0.000817,1.399863,0.001772,-1.861000,-0.041863,0.004000,-0.003680,0.054134,0.000138,-0.801714,-0.026250,-0.000038,149518.000000,1693820608.137191,1.119771,-1.364341,0.000048,0.005257,0.023551,0.000048,,,,,,,,,
1693820608.183872,0.145595,-0.258049,-0.000018,-13.679402,0.150496,0.000008,0.049680,-0.004187,0.000046,-0.024273,1.349685,0.001088,0.002697,4.015289,0.000653,1.037760,0.639125,0.004125,-1.876000,-0.045273,-0.012000,-0.000408,1.399272,-0.001181,-1.861000,-0.043273,-0.004999,0.029440,0.054134,0.000138,-0.867429,-0.026250,-0.000038,149519.000000,1693820608.157193,1.125029,-1.364341,0.000048,-0.047314,0.023551,0.000048,,,,,,,,,
1693820608.188182,,,,,,,,,,,,,,,,,,,,,,,,,,,,,,,,,,,,,,,,,,0.000000,,,,,,,,
1693820608.197023,-0.517670,-0.258049,-0.001631,-14.552555,0.150496,0.000008,-0.044160,-0.004187,0.000046,0.043152,1.349665,-0.002573,0.000000,4.015289,0.000653,1.457280,0.639125,0.008911,-1.873000,-0.043864,0.008000,0.000408,1.399863,0.001772,-1.861000,-0.043864,-0.008999,-0.001840,0.054134,0.000138,-0.913429,-0.026250,-0.000038,149520.000000,1693820608.177197,1.172343,-1.364341,0.000048,-0.147200,0.023551,0.000048,,,,,,,,,
1693820608.214544,-0.566202,-0.258049,-0.000022,-11.642044,0.150496,0.000421,-0.077280,-0.004187,0.000046,0.056637,1.349685,-0.002493,0.013485,4.015289,0.000653,1.214400,0.639115,0.000429,-1.873000,-0.043864,0.003000,0.000000,1.399863,0.001772,-1.858000,-0.040864,-0.004000,-0.018400,0.054134,0.000138,-0.867429,-0.026250,-0.000038,149521.000000,1693820608.197192,1.051429,-1.364341,0.000048,-0.110400,0.023932,0.000048,,,,,,,,,
1693820608.240196,0.161772,-0.258433,-0.000032,-14.843606,0.150496,0.000008,0.005520,-0.004187,0.000046,0.086304,1.349685,-0.004730,-0.005394,4.015289,0.000653,1.258560,0.639115,0.000973,-1.873000,-0.044863,-0.007000,0.000000,1.399863,0.001772,-1.860000,-0.041863,0.001000,0.014720,0.054134,0.000138,-0.801714,-0.026250,-0.000038,149522.000000,1693820608.217189,1.125029,-1.364341,0.000048,-0.152457,0.023551,0.000048,,,,,,,,,
1693820608.247894,0.258835,-0.258049,0.000767,-11.350993,0.150496,0.000256,0.016560,-0.004187,0.000046,0.075516,1.349685,-0.008590,0.000000,4.015289,0.000653,1.236480,0.639115,0.008283,-1.873000,-0.044863,-0.002000,0.000000,1.399863,0.001772,-1.860000,-0.041863,0.001000,-0.003680,0.054134,0.000138,-0.972571,-0.026250,-0.000038,149523.000000,1693820608.237199,1.277486,-1.364341,0.000048,-0.199771,0.023551,0.000048,,,,,,,,,
1693820608.269103,0.889746,-0.258433,0.000024,-11.933095,0.150496,0.000597,0.082800,-0.004187,0.000046,0.016182,1.349725,-0.003938,0.000000,4.015289,0.000653,1.148160,0.639104,-0.001036,-1.876000,-0.045864,-0.006000,0.000000,1.399863,0.001772,-1.861000,-0.042864,-0.004000,0.023920,0.054134,0.000138,-0.900286,-0.026250,-0.000038,149524.000000,1693820608.257190,1.146057,-1.364341,0.000048,-0.047314,0.023551,0.000048,,,,,,,,,
1693820608.287605,1.876556,-0.258433,0.000018,-15.134658,0.150496,0.000020,0.022080,-0.004187,0.000046,-0.094395,1.349744,0.012806,0.002697,4.015289,0.000653,1.391040,0.639115,0.001528,-1.875000,-0.044863,-0.006000,0.002454,1.399863,0.001772,-1.863000,-0.043864,-0.004000,-0.020240,0.054134,0.000138,-0.808286,-0.026250,-0.000038,149525.000000,1693820608.277193,1.151314,-1.364341,0.000048,-0.026286,0.023932,0.000048,,,,,,,,,
1693820608.309103,,,,,,,,,,,,,,,,,,,,,,,,,,,,,,,,,,,,,,,,,,0.000000,,,,,,,,
1693820608.319175,0.566202,-0.258433,0.000280,-13.679402,0.150496,0.000008,-0.033120,-0.004187,0.000046,0.010788,1.349744,-0.001029,-0.002697,4.015289,0.000653,1.181280,0.639115,0.000188,-1.875000,-0.043864,0.004000,0.002046,1.399863,0.001772,-1.863000,-0.042864,-0.003000,-0.034960,0.054134,0.000138,-0.867429,-0.026250,-0.000038,149526.000000,1693820608.297196,1.235429,-1.364341,0.000048,-0.136686,0.023551,0.000048,,,,,,,,,
1693820608.331757,0.614734,-0.258433,0.000638,-13.679402,0.150496,0.000008,0.149040,-0.004187,0.000046,-0.048546,1.349665,0.001820,-0.002697,4.015289,0.000653,1.236480,0.639115,0.000387,-1.873000,-0.043681,-0.001000,0.001225,1.398681,0.001772,-1.861000,-0.041682,0.002000,-0.012880,0.054134,0.000138,-0.906857,-0.026250,-0.000038,149527.000000,1693820608.317192,1.072457,-1.364341,0.000048,-0.010514,0.023551,0.000048,,,,,,,,,
1693820608.347437,2.394226,-0.258433,0.001747,-14.552555,0.150496,0.000008,-0.044160,-0.004187,0.000046,-0.035061,1.349764,0.012786,0.002697,4.015289,0.000653,1.479360,0.639115,0.005068,-1.871000,-0.040681,0.014000,0.002046,1.398681,-0.004136,-1.861000,-0.040681,0.002000,0.003680,0.054134,0.000138,-0.900286,-0.026250,-0.000038,149528.000000,1693820608.337197,1.135543,-1.364341,0.000048,-0.073600,0.023551,0.000048,,,,,,,,,
1693820608.368789,0.679443,-0.258049,-0.000018,-12.224146,0.150496,0.000264,0.143520,-0.004187,0.000046,-0.086304,1.349744,0.012410,0.000000,4.015289,0.000653,1.126080,0.639115,0.000167,-1.870000,-0.040681,0.014000,0.000817,1.398681,-0.004136,-1.863000,-0.041682,0.002000,0.025760,0.054134,0.000138,-0.874000,-0.026250,-0.000038,149529.000000,1693820608.357194,1.146057,-1.364341,0.000048,-0.042057,0.023551,0.000048,,,,,,,,,
1693820608.392259,1.876556,-0.258433,0.000682,-13.679402,0.150496,0.000008,0.027600,-0.004187,0.000046,-0.083607,1.349685,0.003463,0.005394,4.015289,0.000653,1.126080,0.639104,-0.000125,-1.871000,-0.041682,0.017999,-0.000817,1.398681,-0.004136,-1.866000,-0.044682,-0.017000,-0.014720,0.054134,0.000138,-0.841143,-0.026250,-0.000038,149530.000000,1693820608.377206,1.088229,-1.364341,0.000048,-0.120914,0.023164,0.000048,,,,,,,,,
1693820608.402440,,,,,,,,,,,,,,,,,,,,,,,,,,,,,,,,,,,,,,,,,,0.000000,,,,,,,,
1693820608.416990,2.442758,-0.258433,0.000028,-13.679402,0.150496,0.000008,0.082800,-0.004187,0.000046,0.045849,1.349665,-0.002375,0.010788,4.015289,0.000653,1.225440,0.639115,0.001570,-1.871000,-0.041682,0.008000,-0.001225,1.398681,-0.004136,-1.868000,-0.045681,-0.020999,0.009200,0.054134,0.000138,-0.814857,-0.026250,-0.000038,149531.000000,1693820608.397201,1.161829,-1.364341,0.000048,-0.068343,0.023551,0.000048,,,,,,,,,
1693820608.438692,2.539821,-0.258433,-0.000018,-13.970453,0.150496,0.000104,0.071760,-0.004187,0.000046,0.086304,1.349685,-0.003958,0.008091,4.015289,0.000653,1.589760,0.639115,0.003162,-1.871000,-0.041682,0.008000,0.000000,1.398681,-0.004136,-1.868000,-0.044682,-0.018999,0.025760,0.054134,0.000138,-0.782000,-0.026250,-0.000038,149532.000000,1693820608.417193,1.167086,-1.364341,0.000048,-0.031543,0.023551,0.000048,,,,,,,,,
1693820608.450377,1.650075,-0.258049,0.000973,-14.261504,0.150496,0.000008,0.121440,-0.004187,0.000046,0.043152,1.349705,-0.006967,0.005394,4.015289,0.000653,1.380000,0.639104,-0.004429,-1.866000,-0.039499,0.008000,0.000408,1.397499,-0.004136,-1.868000,-0.043500,-0.014000,0.003680,0.054134,0.000138,-0.795143,-0.026250,-0.000038,149533.000000,1693820608.437192,1.167086,-1.364341,0.000048,-0.094629,0.023551,0.001793,,,,,,,,,
1693820608.467643,0.630911,-0.258433,-0.001421,-13.388351,0.150496,0.000008,-0.093840,-0.004187,0.000046,-0.056637,1.349665,-0.005977,0.005394,4.015289,0.000653,1.170240,0.639115,0.000178,-1.873000,-0.044499,0.007000,-0.002046,1.397499,-0.009454,-1.866000,-0.042499,-0.008999,-0.031280,0.054134,0.000138,-0.959429,-0.026250,-0.000038,149534.000000,1693820608.457191,1.035657,-1.364341,0.000048,0.031543,0.023551,0.000048,,,,,,,,,
1693820608.489718,2.086859,-0.258433,0.000531,-14.261504,0.150496,0.000008,0.049680,-0.004187,0.000046,0.051243,1.349665,-0.004215,-0.005394,4.015289,0.000653,1.280640,0.639115,0.000471,-1.873000,-0.045090,-0.013000,0.000000,1.398090,-0.009454,-1.865000,-0.042091,-0.004000,0.025760,0.054134,0.000138,-0.972571,-0.026250,-0.000038,149535.000000,1693820608.477191,1.098743,-1.364341,0.000048,-0.042057,0.023551,0.000048,,,,,,,,,
1693820608.509391,2.297163,-0.258433,0.000468,-16.298862,0.150496,-0.000370,-0.088320,-0.004187,0.000046,0.094395,1.349665,-0.005878,0.000000,4.015289,0.000653,1.192320,0.639125,0.000911,-1.871000,-0.043090,-0.003000,-0.000408,1.398090,-0.006499,-1.863000,-0.041091,-0.004000,-0.018400,0.054134,0.000138,-0.874000,-0.026250,-0.000038,149536.000000,1693820608.497191,1.098743,-1.364341,0.000048,0.178743,0.023164,0.002088,,,,,,,,,
1693820608.509634,,,,,,,,,,,,,,,,,,,,,,,,,,,,,,,,,,,,,,,,,,0.000000,,,,,,,,
1693820608.535329,1.892733,-0.258049,-0.000757,-12.224146,0.150496,-0.000008,0.011040,-0.004187,0.000046,0.064728,1.349685,-0.009184,0.000000,4.015289,0.000653,1.335840,0.639125,0.002261,-1.863000,-0.037682,0.012000,-0.002046,1.398681,-0.006499,-1.863000,-0.040681,0.001000,0.012880,0.054134,0.000138,-0.854286,-0.026246,0.000038,149537.000000,1693820608.517194,1.114514,-1.364341,0.000048,-0.015771,0.023164,0.000080,,,,,,,,,
1693820608.548067,1.132404,-0.258049,-0.000040,-14.843606,0.150496,-0.000533,0.049680,-0.004187,0.000046,-0.005394,1.349764,0.010925,0.008091,4.015289,0.000653,1.468320,0.639115,0.002178,-1.863000,-0.038681,0.019999,-0.001225,1.398681,-0.003545,-1.863000,-0.040681,0.008999,0.000000,0.054134,0.000138,-0.860857,-0.026246,0.000038,149538.000000,1693820608.537192,1.072457,-1.364341,0.000048,0.000000,0.023551,0.000048,,,,,,,,,
1693820608.566102,1.504480,-0.258049,-0.000561,-15.134658,0.150496,0.000008,-0.011040,-0.004187,0.000046,0.062031,1.349685,-0.011183,0.002697,4.015289,0.000653,1.357920,0.639125,0.007424,-1.860000,-0.038681,0.018999,0.000000,1.398681,-0.005909,-1.866000,-0.042682,0.004000,-0.012880,0.054134,0.000138,-0.867429,-0.026246,0.000038,149539.000000,1693820608.557195,1.161829,-1.364341,0.000048,-0.068343,0.023551,0.000048,,,,,,,,,
1693820608.587963,0.647088,-0.258049,-0.000109,-13.679402,0.150496,0.000105,0.033120,-0.004187,0.000046,-0.010788,1.349725,-0.003622,0.005394,4.015289,0.000653,1.126080,0.639125,0.003382,-1.865000,-0.041682,0.008999,0.000817,1.398681,-0.002954,-1.866000,-0.042682,-0.001000,-0.014720,0.054134,0.000138,-0.808286,-0.026246,0.000038,149540.000000,1693820608.577198,1.151314,-1.364341,0.000048,-0.068343,0.023551,0.000091,,,,,,,,,
1693820608.607870,1.229467,-0.258049,0.000480,-13.388351,0.150496,0.000008,0.044160,-0.004187,0.000046,-0.083607,1.349744,0.013103,0.000000,4.015289,0.000653,1.413120,0.639115,0.004209,-1.871000,-0.046091,-0.016000,0.000408,1.398090,-0.002954,-1.868000,-0.043090,-0.008999,-0.014720,0.054134,0.000138,-0.893714,-0.026246,0.000038,149541.000000,1693820608.597193,1.125029,-1.364341,0.000048,-0.126171,0.023551,0.000048,,,,,,,,,
1693820608.619857,,,,,,,,,,,,,,,,,,,,,,,,,,,,,,,,,,,,,,,,,,0.000000,,,,,,,,
1693820608.638412,2.264808,-0.258433,0.001597,-13.970453,0.150496,0.000008,-0.016560,-0.004187,0.000046,0.062031,1.349725,-0.005047,0.005394,4.015289,0.000653,1.159200,0.639115,0.000094,-1.873000,-0.046682,-0.018999,-0.001225,1.398681,-0.005318,-1.868000,-0.043681,-0.008999,-0.011040,0.054134,0.000138,-0.952857,-0.026246,0.000038,149542.000000,1693820608.617199,1.125029,-1.364341,0.000048,0.000000,0.023551,0.000048,,,,,,,,,
1693820608.669656,0.841215,-0.258049,-0.000052,-13.388351,0.150496,0.000126,-0.044160,-0.004187,0.000046,-0.035061,1.349764,0.006314,0.008091,4.015289,0.000653,1.159200,0.639115,0.000188,-1.873000,-0.045681,-0.018999,0.003683,1.398681,-0.004727,-1.866000,-0.041682,-0.008999,-0.027600,0.054134,0.000138,-0.959429,-0.026246,0.000038,149543.000000,1693820608.637192,1.088229,-1.364341,0.000048,-0.042057,0.023551,0.000048,,,,,,,,,
1693820608.683139,0.436784,-0.258049,-0.000018,-14.843606,0.150496,0.000008,-0.060720,-0.004187,0.000046,-0.051243,1.349764,0.014468,0.008091,4.015289,0.000653,1.048800,0.639115,-0.002178,-1.875000,-0.045681,-0.023000,-0.002454,1.398681,-0.001772,-1.866000,-0.041682,0.004999,-0.007360,0.054134,0.000138,-0.814857,-0.026246,0.000038,149544.000000,1693820608.657193,1.177600,-1.364341,0.000048,-0.073600,0.023551,0.000048,,,,,,,,,
1693820608.694333,0.452962,-0.258049,-0.000214,-14.552555,0.150496,0.000008,0.176640,-0.004192,-0.000046,-0.121365,1.349725,0.011480,0.008091,4.015289,0.000653,1.468320,0.639104,-0.005089,-1.876000,-0.047091,-0.007000,-0.001225,1.398090,-0.004136,-1.866000,-0.041091,0.000000,-0.018400,0.054134,0.000138,-0.966000,-0.026246,0.000038,149545.000000,1693820608.677199,1.061943,-1.364341,0.000048,0.420571,0.023551,0.000048,,,,,,,,,
1693820608.707032,0.145595,-0.258049,0.000264,-13.679402,0.150496,0.000077,0.077280,-0.004192,-0.000046,-0.029667,1.349645,-0.006175,0.005394,4.015289,0.000653,1.258560,0.639125,0.006157,-1.879000,-0.048090,-0.024000,-0.001225,1.398090,-0.004136,-1.868000,-0.043090,-0.004999,-0.012880,0.054134,0.000138,-0.893714,-0.026246,0.000038,149546.000000,1693820608.697193,1.288000,-1.364341,0.000048,-0.036800,0.023551,0.000048,,,,,,,,,
1693820608.730159,,,,,,,,,,,,,,,,,,,,,,,,,,,,,,,,,,,,,,,,,,0.000000,,,,,,,,
1693820608.730165,1.973619,-0.258433,0.000018,-11.350993,0.150496,0.000396,-0.011040,-0.004192,-0.000046,-0.089001,1.349725,0.008986,0.008091,4.015289,0.000653,1.324800,0.639115,0.000764,-1.878000,-0.046091,-0.021999,0.002046,1.398090,-0.004136,-1.866000,-0.043090,-0.008999,-0.018400,0.054134,0.000138,-0.782000,-0.026246,0.000038,149547.000000,1693820608.717193,1.082971,-1.364341,0.000048,-0.063086,0.023932,0.000048,,,,,,,,,
1693820608.751001,0.986809,-0.258049,-0.001096,-14.843606,0.150496,0.000008,0.055200,-0.004192,-0.000046,-0.062031,1.349645,-0.007422,0.010788,4.015289,0.000653,1.424160,0.639115,0.003570,-1.876000,-0.045090,-0.010999,-0.000817,1.398090,-0.004136,-1.861000,-0.039091,0.006000,-0.012880,0.054134,0.000138,-0.887143,-0.026246,0.000038,149548.000000,1693820608.737195,1.146057,-1.364341,0.000048,-0.052571,0.023932,0.000048,,,,,,,,,
1693820608.769039,0.129418,-0.258049,-0.000036,-14.261504,0.150496,-0.000008,0.071760,-0.004192,-0.000046,0.051243,1.349685,-0.002276,0.002697,4.015289,0.000653,1.214400,0.639104,-0.006712,-1.879000,-0.047091,-0.006000,0.000000,1.398090,-0.004136,-1.860000,-0.039091,0.009999,-0.011040,0.054134,0.000138,-0.860857,-0.026246,0.000038,149549.000000,1693820608.757192,1.056686,-1.364341,0.000048,-0.084114,0.023932,0.000048,,,,,,,,,
1693820608.799243,0.598556,-0.258433,0.000327,-13.679402,0.150496,-0.000008,0.027600,-0.004192,-0.000046,0.075516,1.349665,-0.004829,0.008091,4.015289,0.000653,1.457280,0.639115,0.002261,-1.878000,-0.045681,-0.014999,-0.001637,1.398681,-0.004136,-1.860000,-0.039682,0.009999,-0.011040,0.054134,0.000138,-0.906857,-0.026246,0.000038,149550.000000,1693820608.777205,1.130286,-1.364341,0.000048,-0.205029,0.023932,0.000048,,,,,,,,,
1693820608.814131,0.550025,-0.258049,-0.000884,-13.970453,0.150496,-0.000008,0.071760,-0.004192,-0.000046,0.024273,1.349725,-0.002968,0.008091,4.015289,0.000653,1.269600,0.639104,-0.004869,-1.878000,-0.044091,0.000000,0.000817,1.398090,-0.001181,-1.860000,-0.040090,0.009999,-0.011040,0.054134,0.000138,-0.972571,-0.026246,0.000038,149551.000000,1693820608.797191,1.082971,-1.364341,0.000048,-0.078857,0.023932,0.000048,,,,,,,,,
1693820608.834256,0.016177,-0.258049,-0.000018,-12.806249,0.150496,-0.000008,0.027600,-0.004192,-0.000046,-0.115971,1.349725,0.011974,0.002697,4.015289,0.000653,1.181280,0.639104,-0.000094,-1.878000,-0.044682,0.004999,-0.000408,1.398681,-0.000590,-1.860000,-0.039682,0.008999,0.011040,0.054134,0.000138,-0.946286,-0.026246,0.000038,149552.000000,1693820608.817191,1.109257,-1.364341,0.000048,0.015771,0.023932,0.000048,,,,,,,,,
1693820608.837878,,,,,,,,,,,,,,,,,,,,,,,,,,,,,,,,,,,,,,,,,,0.000000,,,,,,,,
1693820608.859981,0.080886,-0.258049,-0.000018,-13.388351,0.150496,0.000008,0.022080,-0.004192,-0.000046,-0.137547,1.349665,-0.002018,0.008091,4.015289,0.000653,1.324800,0.639104,-0.004900,-1.871000,-0.040681,0.004999,0.002046,1.398681,-0.000590,-1.858000,-0.037682,0.008999,-0.022080,0.054134,0.000138,-0.775429,-0.026246,0.000038,149553.000000,1693820608.837198,1.198629,-1.364341,0.000048,-0.073600,0.023932,0.000048,,,,,,,,,
1693820608.875352,-0.258835,-0.258049,-0.001248,-12.806249,0.150496,0.000008,0.049680,-0.004192,-0.000046,-0.013485,1.349784,0.014528,0.005394,4.015289,0.000653,1.225440,0.639104,-0.004408,-1.868000,-0.040273,0.023000,0.000408,1.399272,-0.000590,-1.861000,-0.040273,0.013000,-0.023920,0.054134,0.000138,-0.860857,-0.026246,0.000038,149554.000000,1693820608.857193,1.177600,-1.364341,0.000048,-0.031543,0.023932,0.000048,,,,,,,,,
1693820608.889030,0.048532,-0.258049,-0.000208,-14.843606,0.150496,0.000056,0.077280,-0.004192,-0.000046,-0.067425,1.349685,0.004493,0.000000,4.015289,0.000653,1.203360,0.639104,-0.000094,-1.866000,-0.039863,0.025000,0.000000,1.399863,0.004727,-1.860000,-0.038864,0.008000,-0.003680,0.054134,0.000138,-1.031714,-0.026246,0.000038,149555.000000,1693820608.877194,1.119771,-1.364341,0.000048,-0.068343,0.023932,0.000048,,,,,,,,,
1693820608.908593,-0.517670,-0.258049,-0.000147,-13.388351,0.150496,0.000008,0.000000,-0.004192,-0.000046,-0.124062,1.349645,-0.005245,0.005394,4.015289,0.000653,1.280640,0.639115,0.000094,-1.871000,-0.045273,0.013000,-0.000408,1.399272,0.001772,-1.860000,-0.039272,0.012000,-0.018400,0.054134,0.000138,-0.966000,-0.026246,0.000038,149556.000000,1693820608.897191,1.172343,-1.364341,0.000048,-0.120914,0.023932,0.000048,,,,,,,,,
1693820608.933047,-0.145595,-0.258049,-0.001032,-13.679402,0.150496,0.000008,0.204240,-0.004192,-0.000046,0.037758,1.349685,0.000653,0.000000,4.015289,0.000653,1.269600,0.639115,0.000293,-1.871000,-0.043681,-0.007000,-0.000817,1.398681,-0.001181,-1.858000,-0.038681,0.012000,-0.020240,0.054134,0.000138,-0.946286,-0.026246,0.000038,149557.000000,1693820608.917194,1.182857,-1.364341,0.000048,-0.126171,0.023932,0.000048,,,,,,,,,
1693820608.952327,,,,,,,,,,,,,,,,,,,,,,,,,,,,,,,,,,,,,,,,,,0.000000,,,,,,,,
1693820608.953483,-0.080886,-0.258049,-0.000428,-13.679402,0.150496,0.000008,0.176640,-0.004192,-0.000046,0.089001,1.349685,-0.003760,-0.002697,4.015289,0.000653,1.291680,0.639115,0.001696,-1.875000,-0.045681,-0.006000,0.000000,1.398681,0.001772,-1.858000,-0.038681,0.007000,-0.003680,0.054134,0.000138,-0.860857,-0.026246,0.000038,149558.000000,1693820608.937192,1.088229,-1.364341,0.000048,-0.047314,0.023551,0.000048,,,,,,,,,
1693820608.968163,-0.905923,-0.258049,-0.001472,-14.261504,0.150496,0.000008,0.149040,-0.004187,0.000046,0.086304,1.349685,-0.006234,0.002697,4.015289,0.000653,1.148160,0.639115,0.000691,-1.878000,-0.046682,-0.028999,0.001225,1.398681,-0.001181,-1.855000,-0.038681,0.010999,-0.001840,0.054134,0.000138,-0.920000,-0.026246,0.000038,149559.000000,1693820608.957197,1.051429,-1.364341,0.000048,-0.089371,0.023551,0.000048,,,,,,,,,
1693820608.993596,-0.533848,-0.258049,-0.000094,-14.552555,0.150496,0.000008,0.215280,-0.004187,0.000046,0.045849,1.349705,-0.007343,0.005394,4.015289,0.000653,1.280640,0.639115,0.000356,-1.879000,-0.046682,-0.008000,0.000408,1.398681,-0.001181,-1.860000,-0.041682,0.006000,-0.020240,0.054134,0.000138,-1.025143,-0.026246,0.000038,149560.000000,1693820608.977200,1.172343,-1.364341,0.000048,-0.126171,0.023932,0.000048,,,,,,,,,
1693820609.009203,-0.355898,-0.258049,-0.000078,-16.007811,0.150496,-0.000482,0.126960,-0.004187,0.000046,-0.026970,1.349764,0.012667,0.000000,4.015289,0.000653,1.391040,0.639115,0.001151,-1.878000,-0.045681,-0.012000,0.001225,1.398681,-0.001181,-1.860000,-0.041682,-0.004000,-0.018400,0.054134,0.000138,-0.966000,-0.026246,0.000038,149561.000000,1693820608.997194,1.061943,-1.364341,0.000048,-0.052571,0.023932,0.000048,,,,,,,,,
1693820609.032360,0.161772,-0.258433,-0.000018,-13.097300,0.150496,0.000323,0.093840,-0.004187,0.000046,-0.145638,1.349725,0.012845,0.002697,4.015289,0.000653,0.993600,0.639125,-0.000848,-1.876000,-0.043681,0.003000,0.005320,1.398681,-0.001181,-1.860000,-0.041682,-0.004000,-0.038640,0.054134,0.000138,-0.867429,-0.026246,0.000038,149562.000000,1693820609.017197,1.051429,-1.364341,0.000048,-0.063086,0.023932,0.000048,,,,,,,,,
1693820609.070884,-0.323544,-0.258049,-0.000153,-12.806249,0.150496,-0.000008,0.016560,-0.004187,0.000046,-0.118668,1.349645,-0.005067,0.005394,4.015289,0.000653,1.346880,0.639115,-0.001382,-1.873000,-0.041682,0.012000,-0.000408,1.398681,-0.001181,-1.855000,-0.037682,0.010999,0.007360,0.054134,0.000138,-1.064571,-0.026246,0.000038,149563.000000,1693820609.037192,1.067200,-1.364341,0.000048,-0.162971,0.023932,0.000048,,,,,,,,,
1693820609.071453,,,,,,,,,,,,,,,,,,,,,,,,,,,,,,,,,,,,,,,,,,0.000000,,,,,,,,
1693820609.076479,-0.663265,-0.258049,-0.000127,-13.388351,0.150496,-0.000032,0.182160,-0.004187,0.000046,-0.032364,1.349645,-0.008926,0.002697,4.015289,0.000653,1.368960,0.639125,0.002366,-1.873000,-0.043864,0.007000,0.000408,1.399863,-0.001181,-1.856000,-0.039863,0.009999,-0.029440,0.054134,0.000138,-0.834571,-0.026246,0.000038,149564.000000,1693820609.057190,1.093486,-1.364341,0.000048,-0.147200,0.023932,0.000048,,,,,,,,,
1693820609.091190,-0.436784,-0.258049,-0.000729,-11.933095,0.150496,0.000029,0.149040,-0.004187,0.000046,-0.086304,1.349725,0.008808,0.002697,4.015289,0.000653,1.302720,0.639115,-0.002879,-1.875000,-0.044863,0.007000,-0.000817,1.399863,0.004727,-1.858000,-0.040864,0.009999,-0.003680,0.054134,0.000138,-1.071143,-0.026250,-0.000038,149565.000000,1693820609.077191,1.098743,-1.364341,0.000048,-0.084114,0.023932,0.000048,,,,,,,,,
1693820609.111454,-0.598556,-0.258433,-0.000474,-12.224146,0.150496,0.000008,0.077280,-0.004187,0.000046,-0.107880,1.349645,-0.005601,0.000000,4.015289,0.000653,1.159200,0.639115,-0.000115,-1.873000,-0.043864,0.006000,0.001225,1.399863,0.007090,-1.856000,-0.039863,0.000000,-0.007360,0.054134,0.000138,-0.952857,-0.026250,-0.000038,149566.000000,1693820609.097195,1.077714,-1.364341,0.000048,-0.105143,0.023932,0.000048,,,,,,,,,
1693820609.128897,-0.226481,-0.258049,-0.000373,-13.970453,0.150496,0.000015,0.022080,-0.004187,0.000046,-0.029667,1.349764,0.011183,0.008091,4.015289,0.000653,1.203360,0.639115,-0.000094,-1.878000,-0.046863,-0.004000,-0.001225,1.399863,0.004136,-1.853000,-0.037864,0.023000,0.022080,0.054134,0.000138,-0.880571,-0.026250,-0.000038,149567.000000,1693820609.117192,1.093486,-1.364341,0.000048,-0.089371,0.023932,0.000048,,,,,,,,,
1693820609.148506,-0.452962,-0.258049,-0.001399,-14.552555,0.150496,0.000181,-0.027600,-0.004187,0.000046,-0.110577,1.349705,0.008491,0.002697,4.015289,0.000653,1.004640,0.639115,-0.004691,-1.875000,-0.043455,0.002000,-0.000408,1.400454,0.006499,-1.855000,-0.039455,0.002000,-0.007360,0.054134,0.000138,-0.979143,-0.026250,-0.000038,149568.000000,1693820609.137197,1.009371,-1.364341,0.000048,-0.178743,0.023932,0.000048,,,,,,,,,
1693820609.162718,,,,,,,,,,,,,,,,,,,,,,,,,,,,,,,,,,,,,,,,,,0.000000,,,,,,,,
1693820609.169230,0.080886,-0.258049,0.000018,-13.679402,0.150496,0.000008,0.060720,-0.004187,0.000046,-0.118668,1.349665,-0.002790,0.008091,4.015289,0.000653,1.181280,0.639115,0.001193,-1.875000,-0.042864,0.010999,-0.000408,1.399863,0.003545,-1.858000,-0.041863,0.006000,-0.033120,0.054134,0.000138,-0.860857,-0.026250,-0.000038,149569.000000,1693820609.157205,1.056686,-1.364341,0.000048,-0.189257,0.023932,0.000048,,,,,,,,,
1693820609.191315,-0.016177,-0.258433,-0.000078,-13.097300,0.150496,0.000011,-0.044160,-0.004187,0.000046,0.048546,1.349685,-0.001801,0.000000,4.015289,0.000653,1.346880,0.639104,-0.004419,-1.873000,-0.042273,0.010999,-0.000408,1.399272,0.000590,-1.858000,-0.041272,-0.004000,-0.003680,0.054134,0.000138,-0.952857,-0.026250,-0.000038,149570.000000,1693820609.177195,1.093486,-1.364341,0.000048,-0.184000,0.023932,0.000048,,,,,,,,,
1693820609.213192,0.080886,-0.258433,0.000018,-11.933095,0.150496,-0.000095,0.060720,-0.004187,0.000046,0.072819,1.349685,-0.004849,0.002697,4.015289,0.000653,1.192320,0.639115,0.000136,-1.875000,-0.042864,0.010999,-0.000408,1.399863,0.000590,-1.858000,-0.040864,0.010999,-0.025760,0.054134,0.000138,-0.926571,-0.026250,-0.000038,149571.000000,1693820609.197197,1.093486,-1.364341,0.000048,-0.189257,0.023932,0.000048,,,,,,,,,
