__time,/hsrb/wrist_wrench/compensated/header/seq,/hsrb/wrist_wrench/compensated/header/stamp,/hsrb/wrist_wrench/compensated/wrench/force/x,/hsrb/wrist_wrench/compensated/wrench/force/y,/hsrb/wrist_wrench/compensated/wrench/force/z,/hsrb/wrist_wrench/compensated/wrench/torque/x,/hsrb/wrist_wrench/compensated/wrench/torque/y,/hsrb/wrist_wrench/compensated/wrench/torque/z
1694172135.166567,118982.000000,1694172135.154594,-0.102502,0.043990,0.071781,-0.005710,0.005257,0.000333
1694172135.167771,118983.000000,1694172135.164553,-0.106906,0.047438,0.076808,-0.005997,0.005514,0.000349
1694172135.178280,118984.000000,1694172135.174508,-0.111683,0.051162,0.082250,-0.006307,0.005788,0.000369
1694172135.190411,118985.000000,1694172135.184504,-0.115683,0.054587,0.087283,-0.006578,0.006025,0.000389
1694172135.202214,118986.000000,1694172135.198090,-0.118908,0.057712,0.091682,-0.006807,0.006224,0.000410
1694172135.208803,118987.000000,1694172135.204396,-0.121137,0.060384,0.094953,-0.006977,0.006368,0.000429
1694172135.219368,118988.000000,1694172135.215879,-0.123481,0.063245,0.098056,-0.007149,0.006517,0.000450
1694172135.234268,118989.000000,1694172135.224492,-0.127196,0.066842,0.102046,-0.007386,0.006728,0.000478
1694172135.242966,118990.000000,1694172135.234532,-0.131927,0.070946,0.106356,-0.007661,0.006974,0.000506
1694172135.250701,118991.000000,1694172135.244402,-0.136979,0.075336,0.110327,-0.007943,0.007221,0.000533
1694172135.259785,118992.000000,1694172135.254489,-0.141402,0.079341,0.113439,-0.008183,0.007430,0.000556
1694172135.267951,118993.000000,1694172135.264653,-0.145098,0.082614,0.115932,-0.008378,0.007602,0.000577
1694172135.283458,118994.000000,1694172135.274395,-0.148702,0.085493,0.118419,-0.008561,0.007768,0.000600
1694172135.297036,118995.000000,1694172135.285373,-0.151582,0.087749,0.120246,-0.008703,0.007899,0.000618
1694172135.306352,118996.000000,1694172135.294584,-0.153269,0.089224,0.121022,-0.008782,0.007971,0.000631
1694172135.313969,118997.000000,1694172135.304879,-0.154158,0.090069,0.120997,-0.008815,0.007998,0.000641
1694172135.333256,118999.000000,1694172135.324878,-0.155057,0.090883,0.118814,-0.008812,0.007976,0.000643
1694172135.343365,119000.000000,1694172135.336624,-0.156559,0.092261,0.118246,-0.008869,0.008013,0.000649
1694172135.351542,119001.000000,1694172135.344800,-0.156798,0.093231,0.117023,-0.008876,0.008008,0.000652
1694172135.360661,119002.000000,1694172135.354594,-0.154785,0.092981,0.114457,-0.008778,0.007914,0.000650
1694172135.370357,119003.000000,1694172135.364478,-0.151576,0.091987,0.110922,-0.008618,0.007764,0.000644
1694172135.381617,119004.000000,1694172135.375354,-0.147909,0.090633,0.106678,-0.008427,0.007586,0.000633
1694172135.389114,119005.000000,1694172135.384554,-0.144873,0.089417,0.102582,-0.008256,0.007428,0.000620
1694172135.400763,119006.000000,1694172135.394599,-0.143589,0.088738,0.099325,-0.008154,0.007330,0.000611
1694172135.415262,119007.000000,1694172135.404689,-0.142927,0.087982,0.096269,-0.008073,0.007246,0.000602
1694172135.426812,119008.000000,1694172135.414375,-0.141805,0.086810,0.093095,-0.007971,0.007145,0.000593
1694172135.436433,119009.000000,1694172135.424721,-0.140001,0.085273,0.089815,-0.007842,0.007024,0.000586
1694172135.447550,119010.000000,1694172135.434484,-0.136710,0.082946,0.085958,-0.007649,0.006843,0.000581
1694172135.460688,119012.000000,1694172135.455091,-0.129386,0.077472,0.078162,-0.007226,0.006444,0.000574
1694172135.474387,119013.000000,1694172135.464520,-0.127477,0.075390,0.075438,-0.007092,0.006318,0.000579
1694172135.482157,119014.000000,1694172135.474619,-0.126249,0.073552,0.073238,-0.006987,0.006223,0.000590
1694172135.490683,119015.000000,1694172135.484374,-0.125598,0.071934,0.071206,-0.006905,0.006146,0.000606
1694172135.498277,119016.000000,1694172135.494507,-0.124554,0.070073,0.068879,-0.006803,0.006048,0.000618
1694172135.508203,119017.000000,1694172135.504466,-0.121336,0.067198,0.065672,-0.006606,0.005866,0.000620
1694172135.518455,119018.000000,1694172135.514512,-0.115692,0.063377,0.061457,-0.006304,0.005591,0.000608
1694172135.542419,119019.000000,1694172135.526298,-0.108559,0.059077,0.056697,-0.005939,0.005258,0.000587
1694172135.551052,119021.000000,1694172135.545665,-0.094839,0.050612,0.048460,-0.005232,0.004620,0.000543
1694172135.566899,119022.000000,1694172135.560072,-0.090008,0.047317,0.045637,-0.004976,0.004386,0.000527
1694172135.575811,119023.000000,1694172135.565588,-0.087373,0.045046,0.043864,-0.004828,0.004244,0.000518
1694172135.583601,119024.000000,1694172135.577217,-0.085794,0.043191,0.042626,-0.004731,0.004146,0.000512
1694172135.592734,119025.000000,1694172135.585259,-0.083791,0.041128,0.041401,-0.004614,0.004034,0.000503
1694172135.602911,119026.000000,1694172135.595015,-0.081405,0.038977,0.040310,-0.004484,0.003915,0.000491
1694172135.612154,119027.000000,1694172135.604441,-0.079703,0.037225,0.039714,-0.004392,0.003831,0.000482
1694172135.621372,119028.000000,1694172135.614646,-0.079212,0.036024,0.039630,-0.004359,0.003799,0.000478
1694172135.629081,119029.000000,1694172135.624493,-0.078551,0.034675,0.039414,-0.004313,0.003760,0.000472
1694172135.640949,119030.000000,1694172135.634875,-0.076578,0.032681,0.038740,-0.004198,0.003666,0.000459
1694172135.647192,119031.000000,1694172135.644382,-0.073825,0.030332,0.037801,-0.004044,0.003540,0.000442
1694172135.659054,119032.000000,1694172135.654570,-0.070835,0.027984,0.036718,-0.003880,0.003401,0.000423
1694172135.672781,119033.000000,1694172135.666030,-0.067773,0.025811,0.035578,-0.003715,0.003259,0.000404
1694172135.678778,119034.000000,1694172135.675403,-0.064435,0.023763,0.034183,-0.003539,0.003105,0.000383
1694172135.689749,119035.000000,1694172135.684580,-0.060448,0.021759,0.032337,-0.003331,0.002921,0.000358
1694172135.699473,119036.000000,1694172135.695724,-0.055757,0.019772,0.030046,-0.003088,0.002708,0.000330
1694172135.711451,119037.000000,1694172135.704474,-0.051660,0.018138,0.028022,-0.002874,0.002519,0.000306
1694172135.725126,119038.000000,1694172135.714734,-0.049209,0.017182,0.026843,-0.002746,0.002406,0.000291
1694172135.742092,119039.000000,1694172135.724429,-0.046985,0.016439,0.025669,-0.002629,0.002301,0.000279
1694172135.751537,119040.000000,1694172135.734478,-0.043647,0.015406,0.023793,-0.002452,0.002144,0.000260
1694172135.757884,119041.000000,1694172135.744463,-0.039086,0.013943,0.021205,-0.002206,0.001928,0.000233
1694172135.766463,119042.000000,1694172135.754596,-0.033795,0.012149,0.018179,-0.001916,0.001674,0.000202
1694172135.781477,119043.000000,1694172135.764473,-0.028226,0.010200,0.015028,-0.001608,0.001404,0.000168
1694172135.792226,119044.000000,1694172135.774531,-0.022340,0.008109,0.011798,-0.001279,0.001117,0.000133
1694172135.793825,119045.000000,1694172135.784714,-0.016132,0.005883,0.008489,-0.000930,0.000812,0.000096
1694172135.800957,119046.000000,1694172135.794466,-0.009749,0.003576,0.005108,-0.000566,0.000495,0.000058
1694172135.810885,119047.000000,1694172135.804419,-0.003498,0.001290,0.001817,-0.000204,0.000179,0.000021
1694172135.819904,119048.000000,1694172135.814942,0.000000,0.000000,0.000000,0.000000,0.000000,0.000000
1694172135.831177,119049.000000,1694172135.824519,0.000000,0.000000,0.000000,0.000000,0.000000,0.000000
1694172135.842085,119050.000000,1694172135.835141,0.000000,0.000000,0.000000,0.000000,0.000000,0.000000
1694172135.848948,119051.000000,1694172135.844771,0.000000,0.000000,0.000000,0.000000,0.000000,0.000000
1694172135.861558,119052.000000,1694172135.855008,0.000000,0.000000,0.000000,0.000000,0.000000,0.000000
1694172135.878703,119053.000000,1694172135.864434,0.000000,0.000000,0.000000,0.000000,0.000000,0.000000
1694172135.886273,119054.000000,1694172135.874633,0.000000,0.000000,0.000000,0.000000,0.000000,0.000000
1694172135.895138,119055.000000,1694172135.884382,0.000000,0.000000,0.000000,0.000000,0.000000,0.000000
1694172135.902860,119056.000000,1694172135.894869,0.000000,0.000000,0.000000,0.000000,0.000000,0.000000
1694172135.917129,119057.000000,1694172135.904629,0.000000,0.000000,0.000000,0.000000,0.000000,0.000000
1694172135.917730,119058.000000,1694172135.914457,0.000000,0.000000,0.000000,0.000000,0.000000,0.000000
1694172135.927729,119059.000000,1694172135.924592,0.000000,0.000000,0.000000,0.000000,0.000000,0.000000
1694172135.943179,119060.000000,1694172135.934424,0.000000,0.000000,0.000000,0.000000,0.000000,0.000000
1694172135.952586,119061.000000,1694172135.944466,0.000000,0.000000,0.000000,0.000000,0.000000,0.000000
1694172135.961671,119062.000000,1694172135.954772,0.000000,0.000000,0.000000,0.000000,0.000000,0.000000
1694172135.970970,119063.000000,1694172135.965046,0.000000,0.000000,0.000000,0.000000,0.000000,0.000000
1694172135.980238,119064.000000,1694172135.975217,0.000000,0.000000,0.000000,0.000000,0.000000,0.000000
1694172135.986183,119065.000000,1694172135.984506,0.000000,0.000000,0.000000,0.000000,0.000000,0.000000
1694172135.997496,119066.000000,1694172135.994620,0.000000,0.000000,0.000000,0.000000,0.000000,0.000000
1694172136.010325,119067.000000,1694172136.004369,0.000000,0.000000,0.000000,0.000000,0.000000,0.000000
1694172136.019468,119068.000000,1694172136.014563,0.000000,0.000000,0.000000,0.000000,0.000000,0.000000
1694172136.028334,119069.000000,1694172136.024493,0.000000,0.000000,0.000000,0.000000,0.000000,0.000000
1694172136.041510,119070.000000,1694172136.035384,0.000000,0.000000,0.000000,0.000000,0.000000,0.000000
1694172136.049458,119071.000000,1694172136.044377,0.000000,0.000000,0.000000,0.000000,0.000000,0.000000
1694172136.059763,119072.000000,1694172136.054698,0.000000,0.000000,0.000000,0.000000,0.000000,0.000000
1694172136.071620,119073.000000,1694172136.064622,0.000000,0.000000,0.000000,0.000000,0.000000,0.000000
1694172136.079337,119074.000000,1694172136.074410,0.000000,0.000000,0.000000,0.000000,0.000000,0.000000
1694172136.089032,119075.000000,1694172136.084411,0.000000,0.000000,0.000000,0.000000,0.000000,0.000000
1694172136.098774,119076.000000,1694172136.095505,0.000000,0.000000,0.000000,0.000000,0.000000,0.000000
1694172136.107975,119077.000000,1694172136.104521,0.000000,0.000000,0.000000,0.000000,0.000000,0.000000
1694172136.119944,119078.000000,1694172136.115393,0.000000,0.000000,0.000000,0.000000,0.000000,0.000000
1694172136.129261,119079.000000,1694172136.124558,0.000000,0.000000,0.000000,0.000000,0.000000,0.000000
1694172136.137778,119080.000000,1694172136.134632,0.000000,0.000000,0.000000,0.000000,0.000000,0.000000
1694172136.151112,119081.000000,1694172136.145618,0.000000,0.000000,0.000000,0.000000,0.000000,0.000000
1694172136.161051,119082.000000,1694172136.156993,0.000000,0.000000,0.000000,0.000000,0.000000,0.000000
1694172136.168843,119083.000000,1694172136.164414,0.000000,0.000000,0.000000,0.000000,0.000000,0.000000
1694172136.181757,119084.000000,1694172136.175781,0.000000,0.000000,0.000000,0.000000,0.000000,0.000000
1694172136.188424,119085.000000,1694172136.184460,0.000000,0.000000,0.000000,0.000000,0.000000,0.000000
1694172136.199086,119086.000000,1694172136.194834,0.000000,0.000000,0.000000,0.000000,0.000000,0.000000
1694172136.209311,119087.000000,1694172136.204616,0.000000,0.000000,0.000000,0.000000,0.000000,0.000000
1694172136.218134,119088.000000,1694172136.214503,0.000000,0.000000,0.000000,0.000000,0.000000,0.000000
1694172136.227949,119089.000000,1694172136.224507,0.000000,0.000000,0.000000,0.000000,0.000000,0.000000
1694172136.239166,119090.000000,1694172136.234750,-0.001121,0.000547,0.000903,-0.000076,0.000065,0.000007
1694172136.252133,119091.000000,1694172136.244441,-0.008397,0.004139,0.006835,-0.000565,0.000484,0.000052
1694172136.259160,119092.000000,1694172136.254715,-0.015518,0.007683,0.012674,-0.001036,0.000885,0.000095
1694172136.278661,119093.000000,1694172136.267915,-0.021867,0.010778,0.017762,-0.001445,0.001230,0.000131
1694172136.286192,119094.000000,1694172136.276203,-0.026822,0.013076,0.021554,-0.001753,0.001488,0.000159
1694172136.294298,119095.000000,1694172136.285105,-0.030182,0.014581,0.023977,-0.001955,0.001657,0.000177
1694172136.302622,119096.000000,1694172136.294790,-0.032023,0.015436,0.025275,-0.002065,0.001749,0.000187
1694172136.314651,119097.000000,1694172136.304703,-0.032653,0.015756,0.025705,-0.002104,0.001781,0.000191
1694172136.325024,119098.000000,1694172136.314713,-0.032081,0.015486,0.025163,-0.002067,0.001750,0.000188
1694172136.327715,119099.000000,1694172136.324478,-0.029000,0.013996,0.022654,-0.001875,0.001588,0.000170
1694172136.341786,119100.000000,1694172136.337221,-0.022582,0.010893,0.017594,-0.001472,0.001247,0.000132
1694172136.354808,119101.000000,1694172136.344589,-0.013916,0.006704,0.010782,-0.000916,0.000777,0.000081
1694172136.368837,119102.000000,1694172136.354530,-0.004088,0.001965,0.003132,-0.000272,0.000231,0.000024
1694172136.373445,119103.000000,1694172136.364394,0.000000,0.000000,0.000000,0.000000,0.000000,0.000000
1694172136.385895,119104.000000,1694172136.374818,0.000000,0.000000,0.000000,0.000000,0.000000,0.000000
1694172136.396051,119105.000000,1694172136.385888,0.000000,0.000000,0.000000,0.000000,0.000000,0.000000
1694172136.404893,119106.000000,1694172136.394492,0.000000,0.000000,0.000000,0.000000,0.000000,0.000000
1694172136.413977,119107.000000,1694172136.405205,0.000000,0.000000,0.000000,0.000000,0.000000,0.000000
1694172136.424768,119108.000000,1694172136.414896,0.000000,0.000000,0.000000,0.000000,0.000000,0.000000
1694172136.435007,119109.000000,1694172136.424498,0.000000,0.000000,0.000000,0.000000,0.000000,0.000000
1694172136.443148,119110.000000,1694172136.437751,0.000000,0.000000,0.000000,0.000000,0.000000,0.000000
1694172136.456223,119111.000000,1694172136.444621,0.000000,0.000000,0.000000,0.000000,0.000000,0.000000
1694172136.462227,119112.000000,1694172136.454494,0.000000,0.000000,0.000000,0.000000,0.000000,0.000000
1694172136.470050,119113.000000,1694172136.464514,0.000000,0.000000,0.000000,0.000000,0.000000,0.000000
1694172136.480311,119114.000000,1694172136.474463,0.000000,0.000000,0.000000,0.000000,0.000000,0.000000
1694172136.488147,119115.000000,1694172136.484497,0.000000,0.000000,0.000000,0.000000,0.000000,0.000000
1694172136.497210,119116.000000,1694172136.494466,0.000000,0.000000,0.000000,0.000000,0.000000,0.000000
1694172136.511681,119117.000000,1694172136.504959,0.000000,0.000000,0.000000,0.000000,0.000000,0.000000
1694172136.522108,119118.000000,1694172136.514704,0.000000,0.000000,0.000000,0.000000,0.000000,0.000000
1694172136.529589,119119.000000,1694172136.524353,0.000000,0.000000,0.000000,0.000000,0.000000,0.000000
1694172136.537717,119120.000000,1694172136.534600,0.000000,0.000000,0.000000,0.000000,0.000000,0.000000
1694172136.549346,119121.000000,1694172136.544490,0.000000,0.000000,0.000000,0.000000,0.000000,0.000000
1694172136.561017,119122.000000,1694172136.554513,0.000000,0.000000,0.000000,0.000000,0.000000,0.000000
1694172136.568691,119123.000000,1694172136.564491,0.000000,0.000000,0.000000,0.000000,0.000000,0.000000
1694172136.577751,119124.000000,1694172136.574490,0.000000,0.000000,0.000000,0.000000,0.000000,0.000000
1694172136.589587,119125.000000,1694172136.584649,0.000000,0.000000,0.000000,0.000000,0.000000,0.000000
1694172136.601192,119126.000000,1694172136.594462,0.000000,0.000000,0.000000,0.000000,0.000000,0.000000
1694172136.612958,119127.000000,1694172136.608516,0.000000,0.000000,0.000000,0.000000,0.000000,0.000000
1694172136.621054,119128.000000,1694172136.614521,0.000000,0.000000,0.000000,0.000000,0.000000,0.000000
1694172136.633398,119129.000000,1694172136.624487,0.000000,0.000000,0.000000,0.000000,0.000000,0.000000
1694172136.641578,119130.000000,1694172136.639342,0.000000,0.000000,0.000000,0.000000,0.000000,0.000000
1694172136.647971,119131.000000,1694172136.644449,0.000000,0.000000,0.000000,0.000000,0.000000,0.000000
1694172136.662094,119132.000000,1694172136.655147,0.000000,0.000000,0.000000,0.000000,0.000000,0.000000
1694172136.670381,119133.000000,1694172136.664383,0.000000,0.000000,0.000000,0.000000,0.000000,0.000000
1694172136.683384,119134.000000,1694172136.675690,0.000000,0.000000,0.000000,0.000000,0.000000,0.000000
1694172136.697091,119135.000000,1694172136.685049,0.000000,0.000000,0.000000,0.000000,0.000000,0.000000
1694172136.701817,119136.000000,1694172136.694499,0.000000,0.000000,0.000000,0.000000,0.000000,0.000000
1694172136.712317,119137.000000,1694172136.704533,0.000000,0.000000,0.000000,0.000000,0.000000,0.000000
1694172136.719755,119138.000000,1694172136.717285,0.000000,0.000000,0.000000,0.000000,0.000000,0.000000
1694172136.730402,119139.000000,1694172136.724930,0.000000,0.000000,0.000000,0.000000,0.000000,0.000000
1694172136.736695,119140.000000,1694172136.734764,0.000000,0.000000,0.000000,0.000000,0.000000,0.000000
1694172136.749865,119141.000000,1694172136.744458,0.000000,0.000000,0.000000,0.000000,0.000000,0.000000
1694172136.762617,119142.000000,1694172136.754594,0.000000,0.000000,0.000000,0.000000,0.000000,0.000000
1694172136.770673,119143.000000,1694172136.764440,0.000000,0.000000,0.000000,0.000000,0.000000,0.000000
1694172136.779021,119144.000000,1694172136.775076,0.000000,0.000000,0.000000,0.000000,0.000000,0.000000
1694172136.787702,119145.000000,1694172136.784581,0.000000,0.000000,0.000000,0.000000,0.000000,0.000000
1694172136.798065,119146.000000,1694172136.794781,0.000000,0.000000,0.000000,0.000000,0.000000,0.000000
1694172136.818940,119147.000000,1694172136.808175,0.000000,0.000000,0.000000,0.000000,0.000000,0.000000
1694172136.827016,119148.000000,1694172136.815743,0.000000,0.000000,0.000000,0.000000,0.000000,0.000000
1694172136.832370,119149.000000,1694172136.824749,0.000000,0.000000,0.000000,0.000000,0.000000,0.000000
1694172136.839064,119150.000000,1694172136.834488,0.000000,0.000000,0.000000,0.000000,0.000000,0.000000
1694172136.846087,119151.000000,1694172136.844340,0.000000,0.000000,0.000000,0.000000,0.000000,0.000000
1694172136.863640,119152.000000,1694172136.854817,0.000000,0.000000,0.000000,0.000000,0.000000,0.000000
1694172136.870550,119153.000000,1694172136.864580,0.000000,0.000000,0.000000,0.000000,0.000000,0.000000
1694172136.881077,119154.000000,1694172136.877856,0.000000,0.000000,0.000000,0.000000,0.000000,0.000000
1694172136.890238,119155.000000,1694172136.884424,0.000000,0.000000,0.000000,0.000000,0.000000,0.000000
1694172136.899945,119156.000000,1694172136.894694,0.000000,0.000000,0.000000,0.000000,0.000000,0.000000
1694172136.917284,119157.000000,1694172136.907755,0.000000,0.000000,0.000000,0.000000,0.000000,0.000000
1694172136.926901,119158.000000,1694172136.914547,0.000000,0.000000,0.000000,0.000000,0.000000,0.000000
1694172136.934039,119159.000000,1694172136.924399,0.000000,0.000000,0.000000,0.000000,0.000000,0.000000
1694172136.945369,119160.000000,1694172136.934624,0.000000,0.000000,0.000000,0.000000,0.000000,0.000000
1694172136.954788,119161.000000,1694172136.944490,0.000000,0.000000,0.000000,0.000000,0.000000,0.000000
1694172136.969084,119162.000000,1694172136.955445,0.000000,0.000000,0.000000,0.000000,0.000000,0.000000
1694172136.979158,119163.000000,1694172136.964683,0.000000,0.000000,0.000000,0.000000,0.000000,0.000000
1694172136.989631,119164.000000,1694172136.978205,0.000000,0.000000,0.000000,0.000000,0.000000,0.000000
1694172136.999225,119166.000000,1694172136.994889,0.000000,0.000000,0.000000,0.000000,0.000000,0.000000
1694172137.014875,119167.000000,1694172137.004536,0.000000,0.000000,0.000000,0.000000,0.000000,0.000000
1694172137.030651,119168.000000,1694172137.014540,0.000000,0.000000,0.000000,0.000000,0.000000,0.000000
1694172137.046177,119169.000000,1694172137.024485,0.000000,0.000000,0.000000,0.000000,0.000000,0.000000
1694172137.046198,119170.000000,1694172137.034613,0.000000,0.000000,0.000000,0.000000,0.000000,0.000000
1694172137.059841,119171.000000,1694172137.044397,-0.001455,0.000907,0.001380,-0.000107,0.000093,0.000010
1694172137.070690,119172.000000,1694172137.054528,-0.002537,0.001588,0.002401,-0.000187,0.000161,0.000017
1694172137.073949,119173.000000,1694172137.064487,-0.003918,0.002467,0.003690,-0.000289,0.000249,0.000026
1694172137.080022,119174.000000,1694172137.074888,-0.005226,0.003304,0.004911,-0.000385,0.000331,0.000035
1694172137.088671,119175.000000,1694172137.084868,-0.005665,0.003591,0.005347,-0.000418,0.000360,0.000038
1694172137.100640,119176.000000,1694172137.094454,-0.005500,0.003505,0.005241,-0.000408,0.000351,0.000037
1694172137.108497,119177.000000,1694172137.104622,-0.004509,0.002897,0.004343,-0.000337,0.000290,0.000030
1694172137.123714,119178.000000,1694172137.115475,-0.002290,0.001484,0.002228,-0.000173,0.000149,0.000015
1694172137.133231,119179.000000,1694172137.124408,0.000000,0.000000,0.000000,0.000000,0.000000,0.000000
1694172137.143893,119180.000000,1694172137.134740,0.000000,0.000000,0.000000,0.000000,0.000000,0.000000
1694172137.152729,119181.000000,1694172137.144482,0.000000,0.000000,0.000000,0.000000,0.000000,0.000000
1694172137.161577,119182.000000,1694172137.154818,0.000000,0.000000,0.000000,0.000000,0.000000,0.000000
1694172137.177323,119183.000000,1694172137.164412,0.000000,0.000000,0.000000,0.000000,0.000000,0.000000
1694172137.191573,119184.000000,1694172137.174616,0.000000,0.000000,0.000000,0.000000,0.000000,0.000000
1694172137.202816,119186.000000,1694172137.195183,0.000000,0.000000,0.000000,0.000000,0.000000,0.000000
1694172137.213848,119187.000000,1694172137.204480,0.000000,0.000000,0.000000,0.000000,0.000000,0.000000
1694172137.219069,119188.000000,1694172137.214831,0.000000,0.000000,0.000000,0.000000,0.000000,0.000000
1694172137.229379,119189.000000,1694172137.224486,0.000000,0.000000,0.000000,0.000000,0.000000,0.000000
1694172137.238946,119190.000000,1694172137.234479,0.000000,0.000000,0.000000,0.000000,0.000000,0.000000
1694172137.255341,119191.000000,1694172137.249714,0.000000,0.000000,0.000000,0.000000,0.000000,0.000000
1694172137.264161,119192.000000,1694172137.255450,0.000000,0.000000,0.000000,0.000000,0.000000,0.000000
1694172137.270849,119193.000000,1694172137.264974,0.000000,0.000000,0.000000,0.000000,0.000000,0.000000
1694172137.285730,119194.000000,1694172137.280451,0.000000,0.000000,0.000000,0.000000,0.000000,0.000000
1694172137.296233,119195.000000,1694172137.284635,0.000000,0.000000,0.000000,0.000000,0.000000,0.000000
1694172137.307496,119196.000000,1694172137.294484,0.000000,0.000000,0.000000,0.000000,0.000000,0.000000
1694172137.314647,119197.000000,1694172137.304736,0.000000,0.000000,0.000000,0.000000,0.000000,0.000000
1694172137.325745,119198.000000,1694172137.314785,0.000000,0.000000,0.000000,0.000000,0.000000,0.000000
1694172137.332809,119199.000000,1694172137.324341,-0.000185,0.000150,0.000157,-0.000014,0.000012,0.000002
1694172137.341614,119200.000000,1694172137.334489,-0.007370,0.006058,0.006175,-0.000548,0.000478,0.000060
1694172137.351005,119201.000000,1694172137.344498,-0.013999,0.011597,0.011546,-0.001030,0.000895,0.000113
1694172137.359752,119202.000000,1694172137.354603,-0.019642,0.016371,0.015948,-0.001432,0.001239,0.000158
1694172137.367527,119203.000000,1694172137.364425,-0.023645,0.019773,0.018949,-0.001711,0.001477,0.000188
1694172137.384202,119204.000000,1694172137.374490,-0.026662,0.022250,0.021173,-0.001915,0.001652,0.000210
1694172137.390359,119205.000000,1694172137.384746,-0.029589,0.024498,0.023345,-0.002108,0.001819,0.000231
1694172137.398685,119206.000000,1694172137.394364,-0.032817,0.026804,0.025686,-0.002313,0.001998,0.000253
1694172137.409117,119207.000000,1694172137.404679,-0.036242,0.029113,0.028132,-0.002525,0.002185,0.000277
1694172137.418401,119208.000000,1694172137.414750,-0.039249,0.031026,0.030282,-0.002708,0.002348,0.000298
1694172137.431458,119209.000000,1694172137.425988,-0.041217,0.032110,0.031676,-0.002824,0.002453,0.000310
1694172137.439681,119210.000000,1694172137.434490,-0.042470,0.032633,0.032517,-0.002895,0.002517,0.000316
1694172137.453162,119211.000000,1694172137.445133,-0.043757,0.033160,0.033301,-0.002965,0.002579,0.000322
1694172137.464378,119212.000000,1694172137.454787,-0.045146,0.033734,0.034093,-0.003039,0.002645,0.000327
1694172137.480619,119213.000000,1694172137.466938,-0.046097,0.034014,0.034528,-0.003085,0.002688,0.000329
1694172137.488549,119214.000000,1694172137.474632,-0.045798,0.033491,0.034027,-0.003056,0.002665,0.000324
1694172137.490765,119215.000000,1694172137.484394,-0.043844,0.031919,0.032420,-0.002930,0.002556,0.000308
1694172137.505983,119216.000000,1694172137.494469,-0.040746,0.029666,0.030204,-0.002740,0.002391,0.000286
1694172137.514132,119217.000000,1694172137.504470,-0.037092,0.027124,0.027741,-0.002519,0.002199,0.000260
1694172137.523074,119218.000000,1694172137.516468,-0.032945,0.024247,0.024948,-0.002265,0.001978,0.000231
1694172137.541059,119219.000000,1694172137.537830,-0.029063,0.021487,0.022325,-0.002023,0.001767,0.000204
1694172137.551023,119221.000000,1694172137.544454,-0.027722,0.020448,0.021950,-0.001958,0.001707,0.000194
1694172137.559401,119222.000000,1694172137.554734,-0.030555,0.022437,0.024561,-0.002163,0.001883,0.000212
1694172137.569054,119223.000000,1694172137.564650,-0.033919,0.024778,0.027621,-0.002403,0.002088,0.000234
1694172137.589365,119224.000000,1694172137.574507,-0.036728,0.026744,0.030227,-0.002605,0.002259,0.000252
1694172137.599249,119225.000000,1694172137.584470,-0.038350,0.027891,0.031828,-0.002727,0.002358,0.000261
1694172137.601100,119226.000000,1694172137.594578,-0.039273,0.028469,0.032663,-0.002796,0.002409,0.000265
1694172137.613591,119227.000000,1694172137.607953,-0.040469,0.029170,0.033577,-0.002877,0.002470,0.000270
1694172137.620111,119228.000000,1694172137.614691,-0.041900,0.030053,0.034830,-0.002978,0.002547,0.000279
1694172137.629157,119229.000000,1694172137.624691,-0.043688,0.031194,0.036579,-0.003106,0.002650,0.000293
1694172137.639403,119230.000000,1694172137.634368,-0.045739,0.032463,0.038590,-0.003250,0.002767,0.000308
1694172137.648225,119231.000000,1694172137.644444,-0.046769,0.032997,0.039819,-0.003325,0.002827,0.000317
1694172137.657168,119232.000000,1694172137.654446,-0.046179,0.032458,0.039811,-0.003296,0.002800,0.000317
1694172137.669052,119233.000000,1694172137.664573,-0.044648,0.031321,0.038984,-0.003205,0.002721,0.000309
1694172137.686372,119234.000000,1694172137.674518,-0.042560,0.029786,0.037588,-0.003072,0.002609,0.000296
1694172137.692979,119235.000000,1694172137.684427,-0.040210,0.028036,0.035946,-0.002919,0.002480,0.000282
1694172137.700270,119236.000000,1694172137.694720,-0.038142,0.026523,0.034633,-0.002786,0.002369,0.000270
1694172137.708916,119237.000000,1694172137.704445,-0.036432,0.025289,0.033672,-0.002677,0.002281,0.000260
1694172137.719118,119238.000000,1694172137.715368,-0.035062,0.024319,0.032954,-0.002591,0.002212,0.000251
1694172137.728383,119239.000000,1694172137.724923,-0.034044,0.023647,0.032524,-0.002530,0.002163,0.000245
1694172137.735534,119240.000000,1694172137.734473,-0.033566,0.023283,0.032528,-0.002504,0.002142,0.000241
1694172137.751011,119241.000000,1694172137.744490,-0.034058,0.023496,0.033380,-0.002544,0.002175,0.000243
1694172137.762350,119242.000000,1694172137.757716,-0.035118,0.024158,0.034836,-0.002626,0.002246,0.000249
1694172137.774950,119243.000000,1694172137.765000,-0.036581,0.025279,0.036884,-0.002748,0.002350,0.000259
1694172137.786160,119244.000000,1694172137.775490,-0.039387,0.027528,0.040489,-0.002974,0.002544,0.000280
1694172137.792989,119245.000000,1694172137.784489,-0.043674,0.031011,0.045768,-0.003313,0.002834,0.000311
1694172137.799168,119246.000000,1694172137.794800,-0.048939,0.035443,0.052331,-0.003730,0.003189,0.000350
1694172137.810972,119247.000000,1694172137.804458,-0.054723,0.040586,0.059826,-0.004195,0.003585,0.000394
1694172137.820327,119248.000000,1694172137.814830,-0.060327,0.046012,0.067435,-0.004658,0.003977,0.000436
1694172137.828875,119249.000000,1694172137.826949,-0.065410,0.051476,0.074620,-0.005093,0.004343,0.000474
1694172137.838941,119250.000000,1694172137.834617,-0.070309,0.057351,0.081836,-0.005528,0.004709,0.000513
1694172137.848661,119251.000000,1694172137.844356,-0.075260,0.063878,0.089313,-0.005982,0.005092,0.000554
1694172137.858055,119252.000000,1694172137.854575,-0.079710,0.070364,0.096016,-0.006403,0.005443,0.000589
1694172137.868384,119253.000000,1694172137.864718,-0.083470,0.076446,0.101593,-0.006771,0.005748,0.000619
1694172137.877952,119254.000000,1694172137.874601,-0.086580,0.082026,0.106128,-0.007087,0.006010,0.000645
1694172137.891527,119255.000000,1694172137.884421,-0.088228,0.086293,0.108773,-0.007296,0.006181,0.000664
1694172137.900830,119256.000000,1694172137.894610,-0.087672,0.088391,0.109041,-0.007350,0.006226,0.000672
1694172137.912161,119257.000000,1694172137.904617,-0.084954,0.087955,0.107046,-0.007245,0.006141,0.000668
1694172137.920855,119258.000000,1694172137.916990,-0.081495,0.085989,0.103954,-0.007062,0.005989,0.000657
1694172137.931482,119259.000000,1694172137.924393,-0.078270,0.083437,0.100610,-0.006861,0.005820,0.000646
1694172137.939052,119260.000000,1694172137.934446,-0.074509,0.079647,0.096005,-0.006586,0.005584,0.000629
1694172137.950349,119261.000000,1694172137.944530,-0.069876,0.074438,0.089557,-0.006205,0.005257,0.000602
1694172137.963047,119262.000000,1694172137.954686,-0.064983,0.068697,0.082264,-0.005776,0.004888,0.000567
1694172137.969773,119263.000000,1694172137.964361,-0.060548,0.063316,0.075478,-0.005372,0.004541,0.000534
1694172137.979331,119264.000000,1694172137.974771,-0.056686,0.058429,0.069414,-0.005007,0.004226,0.000507
1694172137.991244,119265.000000,1694172137.985795,-0.053266,0.053887,0.063796,-0.004667,0.003933,0.000483
1694172137.998446,119266.000000,1694172137.994520,-0.050915,0.050556,0.059610,-0.004416,0.003717,0.000466
1694172138.007172,119267.000000,1694172138.004395,-0.049821,0.048973,0.057520,-0.004293,0.003613,0.000463
1694172138.016754,119268.000000,1694172138.014468,-0.049012,0.048161,0.056445,-0.004222,0.003557,0.000464
1694172138.026715,119269.000000,1694172138.024996,-0.048127,0.047411,0.055519,-0.004153,0.003506,0.000463
1694172138.040699,119270.000000,1694172138.034733,-0.047497,0.046841,0.054811,-0.004103,0.003470,0.000461
1694172138.049586,119271.000000,1694172138.044552,-0.047786,0.047167,0.055133,-0.004126,0.003494,0.000464
1694172138.060840,119272.000000,1694172138.054614,-0.049190,0.048597,0.056934,-0.004244,0.003599,0.000476
1694172138.067552,119273.000000,1694172138.064438,-0.050237,0.049602,0.058710,-0.004341,0.003689,0.000485
1694172138.077944,119274.000000,1694172138.075045,-0.049713,0.049044,0.058757,-0.004313,0.003674,0.000478
1694172138.100953,119275.000000,1694172138.085531,-0.048090,0.047508,0.057387,-0.004194,0.003580,0.000459
1694172138.120055,119276.000000,1694172138.094696,-0.046175,0.045666,0.055716,-0.004051,0.003465,0.000437
1694172138.128225,119278.000000,1694172138.115927,-0.043197,0.042232,0.053335,-0.003819,0.003279,0.000397
1694172138.136820,119279.000000,1694172138.124818,-0.042863,0.041336,0.053201,-0.003778,0.003251,0.000386
1694172138.151315,119280.000000,1694172138.134471,-0.042888,0.040572,0.053121,-0.003751,0.003234,0.000376
1694172138.154381,119281.000000,1694172138.146311,-0.043063,0.039767,0.052863,-0.003719,0.003214,0.000368
1694172138.160377,119282.000000,1694172138.154474,-0.042963,0.038647,0.052052,-0.003658,0.003167,0.000358
1694172138.169035,119283.000000,1694172138.164429,-0.042161,0.037046,0.050171,-0.003538,0.003067,0.000344
1694172138.178504,119284.000000,1694172138.174816,-0.040732,0.035166,0.047368,-0.003370,0.002926,0.000326
1694172138.187331,119285.000000,1694172138.184559,-0.038207,0.032538,0.043319,-0.003123,0.002714,0.000299
1694172138.201262,119286.000000,1694172138.194563,-0.034040,0.028687,0.037595,-0.002757,0.002399,0.000259
1694172138.208851,119287.000000,1694172138.206288,-0.028646,0.023962,0.030845,-0.002307,0.002010,0.000212
1694172138.224127,119288.000000,1694172138.219825,-0.022821,0.018966,0.024059,-0.001833,0.001600,0.000165
1694172138.236862,119289.000000,1694172138.224481,-0.017278,0.014263,0.017913,-0.001387,0.001211,0.000122
1694172138.249668,119291.000000,1694172138.244488,-0.008213,0.006699,0.008338,-0.000660,0.000577,0.000055
1694172138.256879,119292.000000,1694172138.254837,-0.005024,0.004090,0.005091,-0.000405,0.000355,0.000033
1694172138.272599,119293.000000,1694172138.264442,-0.002971,0.002429,0.003016,-0.000241,0.000211,0.000019
1694172138.280152,119294.000000,1694172138.274504,-0.001652,0.001364,0.001689,-0.000135,0.000119,0.000010
1694172138.288123,119295.000000,1694172138.284600,-0.000942,0.000788,0.000975,-0.000078,0.000068,0.000006
1694172138.304170,119296.000000,1694172138.294365,-0.000866,0.000735,0.000909,-0.000072,0.000064,0.000005
1694172138.313202,119297.000000,1694172138.304486,-0.000761,0.000657,0.000810,-0.000064,0.000056,0.000005
1694172138.330983,119298.000000,1694172138.314564,-0.001220,0.001074,0.001318,-0.000104,0.000092,0.000007
1694172138.336447,119299.000000,1694172138.324466,-0.002542,0.002283,0.002786,-0.000218,0.000193,0.000015
1694172138.348551,119300.000000,1694172138.334459,-0.003398,0.003108,0.003766,-0.000294,0.000260,0.000020
1694172138.358763,119301.000000,1694172138.345056,-0.003266,0.003042,0.003659,-0.000286,0.000252,0.000019
1694172138.369089,119302.000000,1694172138.356001,-0.002287,0.002171,0.002598,-0.000203,0.000179,0.000013
1694172138.378337,119303.000000,1694172138.365390,-0.000756,0.000732,0.000878,-0.000068,0.000060,0.000004
1694172138.390276,119305.000000,1694172138.384472,0.000000,0.000000,0.000000,0.000000,0.000000,0.000000
1694172138.405504,119306.000000,1694172138.394744,0.000000,0.000000,0.000000,0.000000,0.000000,0.000000
1694172138.419207,119307.000000,1694172138.404389,0.000000,0.000000,0.000000,0.000000,0.000000,0.000000
1694172138.430629,119308.000000,1694172138.414835,0.000000,0.000000,0.000000,0.000000,0.000000,0.000000
1694172138.432506,119309.000000,1694172138.424614,0.000000,0.000000,0.000000,0.000000,0.000000,0.000000
1694172138.436924,119310.000000,1694172138.434359,0.000000,0.000000,0.000000,0.000000,0.000000,0.000000
1694172138.448040,119311.000000,1694172138.444549,0.000000,0.000000,0.000000,0.000000,0.000000,0.000000
1694172138.459856,119312.000000,1694172138.454464,0.000000,0.000000,0.000000,0.000000,0.000000,0.000000
1694172138.470160,119313.000000,1694172138.464480,0.000000,0.000000,0.000000,0.000000,0.000000,0.000000
1694172138.478112,119314.000000,1694172138.474612,0.000000,0.000000,0.000000,0.000000,0.000000,0.000000
1694172138.488794,119315.000000,1694172138.484843,0.000000,0.000000,0.000000,0.000000,0.000000,0.000000
1694172138.504156,119316.000000,1694172138.495028,0.000000,0.000000,0.000000,0.000000,0.000000,0.000000
1694172138.519083,119317.000000,1694172138.504581,0.000000,0.000000,0.000000,0.000000,0.000000,0.000000
1694172138.528496,119318.000000,1694172138.518761,0.000000,0.000000,0.000000,0.000000,0.000000,0.000000
1694172138.532995,119319.000000,1694172138.525168,0.000000,0.000000,0.000000,0.000000,0.000000,0.000000
1694172138.541473,119320.000000,1694172138.534558,0.000000,0.000000,0.000000,0.000000,0.000000,0.000000
1694172138.553503,119321.000000,1694172138.544557,0.000000,0.000000,0.000000,0.000000,0.000000,0.000000
1694172138.562888,119322.000000,1694172138.554474,0.000000,0.000000,0.000000,0.000000,0.000000,0.000000
1694172138.569601,119323.000000,1694172138.564562,0.000000,0.000000,0.000000,0.000000,0.000000,0.000000
1694172138.577104,119324.000000,1694172138.574746,0.000000,0.000000,0.000000,0.000000,0.000000,0.000000
1694172138.588737,119325.000000,1694172138.584571,0.000000,0.000000,0.000000,0.000000,0.000000,0.000000
1694172138.605878,119326.000000,1694172138.595235,0.000000,0.000000,0.000000,0.000000,0.000000,0.000000
1694172138.614769,119327.000000,1694172138.604426,0.000000,0.000000,0.000000,0.000000,0.000000,0.000000
1694172138.624209,119328.000000,1694172138.614641,0.000000,0.000000,0.000000,0.000000,0.000000,0.000000
1694172138.632062,119329.000000,1694172138.625070,0.000000,0.000000,0.000000,0.000000,0.000000,0.000000
1694172138.647381,119330.000000,1694172138.635770,0.000000,0.000000,0.000000,0.000000,0.000000,0.000000
1694172138.655205,119331.000000,1694172138.645439,0.000000,0.000000,0.000000,0.000000,0.000000,0.000000
1694172138.662856,119332.000000,1694172138.659896,0.000000,0.000000,0.000000,0.000000,0.000000,0.000000
1694172138.675492,119333.000000,1694172138.664744,0.000000,0.000000,0.000000,0.000000,0.000000,0.000000
1694172138.682191,119334.000000,1694172138.674819,0.000000,0.000000,0.000000,0.000000,0.000000,0.000000
1694172138.689588,119335.000000,1694172138.684649,0.000000,0.000000,0.000000,0.000000,0.000000,0.000000
1694172138.696805,119336.000000,1694172138.694839,0.000000,0.000000,0.000000,0.000000,0.000000,0.000000
1694172138.714238,119337.000000,1694172138.704594,0.000000,0.000000,0.000000,0.000000,0.000000,0.000000
1694172138.724930,119338.000000,1694172138.714489,0.000000,0.000000,0.000000,0.000000,0.000000,0.000000
1694172138.729001,119339.000000,1694172138.724453,0.000000,0.000000,0.000000,0.000000,0.000000,0.000000
1694172138.738840,119340.000000,1694172138.734678,0.000000,0.000000,0.000000,0.000000,0.000000,0.000000
1694172138.749207,119341.000000,1694172138.745223,-0.000933,0.001241,0.001676,-0.000115,0.000099,0.000011
1694172138.760052,119342.000000,1694172138.754510,-0.006269,0.008612,0.011504,-0.000780,0.000670,0.000078
1694172138.768266,119343.000000,1694172138.764392,-0.010992,0.015507,0.020440,-0.001374,0.001183,0.000139
1694172138.783015,119344.000000,1694172138.774562,-0.014849,0.021372,0.027802,-0.001858,0.001602,0.000190
1694172138.791578,119345.000000,1694172138.785480,-0.017779,0.025902,0.033211,-0.002215,0.001912,0.000227
1694172138.800836,119346.000000,1694172138.796382,-0.020001,0.029267,0.036924,-0.002468,0.002132,0.000253
1694172138.812922,119347.000000,1694172138.804723,-0.021584,0.031573,0.039143,-0.002631,0.002273,0.000268
1694172138.821636,119348.000000,1694172138.814429,-0.022753,0.033244,0.040475,-0.002741,0.002367,0.000278
1694172138.831799,119349.000000,1694172138.825058,-0.023808,0.034766,0.041603,-0.002837,0.002452,0.000287
1694172138.838846,119350.000000,1694172138.834442,-0.024781,0.036169,0.042583,-0.002924,0.002530,0.000294
1694172138.849089,119351.000000,1694172138.844703,-0.025485,0.037323,0.043293,-0.002992,0.002591,0.000299
1694172138.863761,119352.000000,1694172138.854483,-0.025546,0.037778,0.043248,-0.003006,0.002607,0.000299
1694172138.878026,119353.000000,1694172138.864468,-0.025215,0.037744,0.042684,-0.002985,0.002592,0.000295
1694172138.885029,119354.000000,1694172138.875468,-0.024472,0.037031,0.041395,-0.002915,0.002533,0.000284
1694172138.892090,119355.000000,1694172138.884613,-0.022301,0.034016,0.037523,-0.002674,0.002325,0.000256
1694172138.899819,119356.000000,1694172138.894966,-0.018134,0.027760,0.030100,-0.002187,0.001903,0.000205
1694172138.911794,119357.000000,1694172138.904461,-0.012219,0.018679,0.019887,-0.001481,0.001290,0.000135
1694172138.936000,119358.000000,1694172138.914665,-0.004717,0.007175,0.007493,-0.000575,0.000501,0.000051
1694172138.936869,119360.000000,1694172138.934648,0.000000,0.000000,0.000000,0.000000,0.000000,0.000000
1694172138.949661,119361.000000,1694172138.945073,0.000000,0.000000,0.000000,0.000000,0.000000,0.000000
1694172138.961973,119362.000000,1694172138.954430,0.000000,0.000000,0.000000,0.000000,0.000000,0.000000
1694172138.969821,119363.000000,1694172138.964438,0.000000,0.000000,0.000000,0.000000,0.000000,0.000000
1694172138.980208,119364.000000,1694172138.974432,0.000000,0.000000,0.000000,0.000000,0.000000,0.000000
1694172138.989144,119365.000000,1694172138.984476,0.000000,0.000000,0.000000,0.000000,0.000000,0.000000
1694172138.996440,119366.000000,1694172138.994576,0.000000,0.000000,0.000000,0.000000,0.000000,0.000000
1694172139.009224,119367.000000,1694172139.005263,0.000000,0.000000,0.000000,0.000000,0.000000,0.000000
1694172139.023346,119368.000000,1694172139.014597,0.000000,0.000000,0.000000,0.000000,0.000000,0.000000
1694172139.034651,119369.000000,1694172139.027939,0.000000,0.000000,0.000000,0.000000,0.000000,0.000000
1694172139.041464,119370.000000,1694172139.034557,0.000000,0.000000,0.000000,0.000000,0.000000,0.000000
1694172139.047323,119371.000000,1694172139.044415,0.000000,0.000000,0.000000,0.000000,0.000000,0.000000
1694172139.059033,119372.000000,1694172139.054458,0.000000,0.000000,0.000000,0.000000,0.000000,0.000000
1694172139.069508,119373.000000,1694172139.064430,0.000000,0.000000,0.000000,0.000000,0.000000,0.000000
1694172139.076680,119374.000000,1694172139.074649,0.000000,0.000000,0.000000,0.000000,0.000000,0.000000
1694172139.090493,119375.000000,1694172139.084581,0.000000,0.000000,0.000000,0.000000,0.000000,0.000000
1694172139.100105,119376.000000,1694172139.094364,0.000000,0.000000,0.000000,0.000000,0.000000,0.000000
1694172139.109219,119377.000000,1694172139.104423,0.000000,0.000000,0.000000,0.000000,0.000000,0.000000
1694172139.125299,119378.000000,1694172139.119636,0.000000,0.000000,0.000000,0.000000,0.000000,0.000000
1694172139.134030,119379.000000,1694172139.124430,0.000000,0.000000,0.000000,0.000000,0.000000,0.000000
1694172139.141920,119380.000000,1694172139.134425,0.000000,0.000000,0.000000,0.000000,0.000000,0.000000
1694172139.148380,119381.000000,1694172139.144914,0.000000,0.000000,0.000000,0.000000,0.000000,0.000000
1694172139.156729,119382.000000,1694172139.154591,0.000000,0.000000,0.000000,0.000000,0.000000,0.000000
1694172139.169098,119383.000000,1694172139.164311,0.000000,0.000000,0.000000,0.000000,0.000000,0.000000
1694172139.181854,119384.000000,1694172139.174873,0.000000,0.000000,0.000000,0.000000,0.000000,0.000000
1694172139.197830,119385.000000,1694172139.188980,0.000000,0.000000,0.000000,0.000000,0.000000,0.000000
1694172139.203469,119386.000000,1694172139.194924,0.000000,0.000000,0.000000,0.000000,0.000000,0.000000
1694172139.213048,119387.000000,1694172139.204438,0.000000,0.000000,0.000000,0.000000,0.000000,0.000000
1694172139.223842,119388.000000,1694172139.215349,0.000000,0.000000,0.000000,0.000000,0.000000,0.000000
1694172139.231750,119389.000000,1694172139.228578,0.000000,0.000000,0.000000,0.000000,0.000000,0.000000
1694172139.242169,119390.000000,1694172139.234603,0.000000,0.000000,0.000000,0.000000,0.000000,0.000000
1694172139.250579,119391.000000,1694172139.244475,0.000000,0.000000,0.000000,0.000000,0.000000,0.000000
1694172139.258810,119392.000000,1694172139.254735,0.000000,0.000000,0.000000,0.000000,0.000000,0.000000
1694172139.268736,119393.000000,1694172139.264560,0.000000,0.000000,0.000000,0.000000,0.000000,0.000000
1694172139.279330,119394.000000,1694172139.274582,0.000000,0.000000,0.000000,0.000000,0.000000,0.000000
1694172139.294492,119395.000000,1694172139.287767,0.000000,0.000000,0.000000,0.000000,0.000000,0.000000
1694172139.306225,119396.000000,1694172139.294721,0.000000,0.000000,0.000000,0.000000,0.000000,0.000000
1694172139.314842,119397.000000,1694172139.304476,0.000000,0.000000,0.000000,0.000000,0.000000,0.000000
1694172139.327480,119398.000000,1694172139.318335,0.000000,0.000000,0.000000,0.000000,0.000000,0.000000
1694172139.338486,119399.000000,1694172139.324669,0.000000,0.000000,0.000000,0.000000,0.000000,0.000000
1694172139.349555,119400.000000,1694172139.334467,0.000000,0.000000,0.000000,0.000000,0.000000,0.000000
1694172139.356746,119401.000000,1694172139.344548,0.000000,0.000000,0.000000,0.000000,0.000000,0.000000
1694172139.367287,119402.000000,1694172139.355016,0.000000,0.000000,0.000000,0.000000,0.000000,0.000000
1694172139.381471,119403.000000,1694172139.364560,0.000000,0.000000,0.000000,0.000000,0.000000,0.000000
1694172139.391466,119404.000000,1694172139.374460,0.000000,0.000000,0.000000,0.000000,0.000000,0.000000
1694172139.401566,119406.000000,1694172139.394751,0.000000,0.000000,0.000000,0.000000,0.000000,0.000000
1694172139.409499,119407.000000,1694172139.404438,0.000000,0.000000,0.000000,0.000000,0.000000,0.000000
1694172139.421077,119408.000000,1694172139.417802,0.000000,0.000000,0.000000,0.000000,0.000000,0.000000
1694172139.428317,119409.000000,1694172139.424744,0.000000,0.000000,0.000000,0.000000,0.000000,0.000000
1694172139.438284,119410.000000,1694172139.434490,0.000000,0.000000,0.000000,0.000000,0.000000,0.000000
1694172139.445803,119411.000000,1694172139.444404,0.000000,0.000000,0.000000,0.000000,0.000000,0.000000
1694172139.457856,119412.000000,1694172139.454610,0.000000,0.000000,0.000000,0.000000,0.000000,0.000000
1694172139.467769,119413.000000,1694172139.464975,0.000000,0.000000,0.000000,0.000000,0.000000,0.000000
1694172139.485950,119414.000000,1694172139.476845,0.000000,0.000000,0.000000,0.000000,0.000000,0.000000
1694172139.497411,119415.000000,1694172139.484385,0.000000,0.000000,0.000000,0.000000,0.000000,0.000000
1694172139.502561,119416.000000,1694172139.494450,0.000000,0.000000,0.000000,0.000000,0.000000,0.000000
1694172139.510543,119417.000000,1694172139.504465,0.000000,0.000000,0.000000,0.000000,0.000000,0.000000
1694172139.519794,119418.000000,1694172139.514916,0.000000,0.000000,0.000000,0.000000,0.000000,0.000000
1694172139.531822,119419.000000,1694172139.524594,0.000000,0.000000,0.000000,0.000000,0.000000,0.000000
1694172139.537223,119420.000000,1694172139.534670,0.000000,0.000000,0.000000,0.000000,0.000000,0.000000
1694172139.549657,119421.000000,1694172139.544339,0.000000,0.000000,0.000000,0.000000,0.000000,0.000000
1694172139.559792,119422.000000,1694172139.554873,0.000000,0.000000,0.000000,0.000000,0.000000,0.000000
1694172139.571340,119423.000000,1694172139.564373,0.000000,0.000000,0.000000,0.000000,0.000000,0.000000
1694172139.580712,119424.000000,1694172139.574458,0.000000,0.000000,0.000000,0.000000,0.000000,0.000000
1694172139.589270,119425.000000,1694172139.584451,0.000000,0.000000,0.000000,0.000000,0.000000,0.000000
1694172139.601724,119426.000000,1694172139.594436,0.000000,0.000000,0.000000,0.000000,0.000000,0.000000
1694172139.608745,119427.000000,1694172139.604566,0.000000,0.000000,0.000000,0.000000,0.000000,0.000000
1694172139.616333,119428.000000,1694172139.614517,0.000000,0.000000,0.000000,0.000000,0.000000,0.000000
1694172139.632358,119429.000000,1694172139.624518,0.000000,0.000000,0.000000,0.000000,0.000000,0.000000
1694172139.639811,119430.000000,1694172139.634515,0.000000,0.000000,0.000000,0.000000,0.000000,0.000000
1694172139.647607,119431.000000,1694172139.644450,0.000000,0.000000,0.000000,0.000000,0.000000,0.000000
1694172139.655816,119432.000000,1694172139.654459,0.000000,0.000000,0.000000,0.000000,0.000000,0.000000
1694172139.666147,119433.000000,1694172139.664454,0.000000,0.000000,0.000000,0.000000,0.000000,0.000000
1694172139.681754,119434.000000,1694172139.674576,0.000000,0.000000,0.000000,0.000000,0.000000,0.000000
1694172139.686956,119435.000000,1694172139.685538,0.000000,0.000000,0.000000,0.000000,0.000000,0.000000
1694172139.707527,119436.000000,1694172139.694449,0.000000,0.000000,0.000000,0.000000,0.000000,0.000000
1694172139.716117,119437.000000,1694172139.704515,0.000000,0.000000,0.000000,0.000000,0.000000,0.000000
1694172139.727281,119438.000000,1694172139.714956,0.000000,0.000000,0.000000,0.000000,0.000000,0.000000
1694172139.738058,119439.000000,1694172139.724481,0.000000,0.000000,0.000000,0.000000,0.000000,0.000000
1694172139.747851,119441.000000,1694172139.744595,0.000000,0.000000,0.000000,0.000000,0.000000,0.000000
1694172139.763581,119442.000000,1694172139.758071,0.000000,0.000000,0.000000,0.000000,0.000000,0.000000
1694172139.770350,119443.000000,1694172139.764442,0.000000,0.000000,0.000000,0.000000,0.000000,0.000000
1694172139.776971,119444.000000,1694172139.774709,0.000000,0.000000,0.000000,0.000000,0.000000,0.000000
1694172139.792334,119445.000000,1694172139.790126,0.000000,0.000000,0.000000,0.000000,0.000000,0.000000
1694172139.815376,119446.000000,1694172139.800248,0.000000,0.000000,0.000000,0.000000,0.000000,0.000000
1694172139.823719,119448.000000,1694172139.816275,0.000000,0.000000,0.000000,0.000000,0.000000,0.000000
1694172139.835654,119449.000000,1694172139.825171,0.000000,0.000000,0.000000,0.000000,0.000000,0.000000
1694172139.843552,119450.000000,1694172139.834467,0.000000,0.000000,0.000000,0.000000,0.000000,0.000000
1694172139.852791,119451.000000,1694172139.844414,0.000000,0.000000,0.000000,0.000000,0.000000,0.000000
1694172139.863847,119452.000000,1694172139.854707,0.000000,0.000000,0.000000,0.000000,0.000000,0.000000
1694172139.876472,119453.000000,1694172139.864473,0.000000,0.000000,0.000000,0.000000,0.000000,0.000000
1694172139.882504,119454.000000,1694172139.874463,0.000000,0.000000,0.000000,0.000000,0.000000,0.000000
1694172139.892356,119455.000000,1694172139.884539,0.000000,0.000000,0.000000,0.000000,0.000000,0.000000
1694172139.901289,119456.000000,1694172139.894592,0.000000,0.000000,0.000000,0.000000,0.000000,0.000000
1694172139.911525,119457.000000,1694172139.904446,0.000000,0.000000,0.000000,0.000000,0.000000,0.000000
1694172139.922759,119458.000000,1694172139.914667,0.000000,0.000000,0.000000,0.000000,0.000000,0.000000
1694172139.935716,119459.000000,1694172139.924574,0.000000,0.000000,0.000000,0.000000,0.000000,0.000000
1694172139.943230,119460.000000,1694172139.934458,0.000000,0.000000,0.000000,0.000000,0.000000,0.000000
1694172139.955052,119461.000000,1694172139.944447,0.000000,0.000000,0.000000,0.000000,0.000000,0.000000
1694172139.963481,119462.000000,1694172139.954703,0.000000,0.000000,0.000000,0.000000,0.000000,0.000000
1694172139.969733,119463.000000,1694172139.964421,0.000000,0.000000,0.000000,0.000000,0.000000,0.000000
1694172139.978914,119464.000000,1694172139.976803,0.000000,0.000000,0.000000,0.000000,0.000000,0.000000
1694172139.992014,119465.000000,1694172139.988396,0.000000,0.000000,0.000000,0.000000,0.000000,0.000000
1694172139.998465,119466.000000,1694172139.994504,0.000000,0.000000,0.000000,0.000000,0.000000,0.000000
1694172140.010463,119467.000000,1694172140.004399,0.000000,0.000000,0.000000,0.000000,0.000000,0.000000
1694172140.017249,119468.000000,1694172140.014796,0.000000,0.000000,0.000000,0.000000,0.000000,0.000000
1694172140.027861,119469.000000,1694172140.024983,0.000000,0.000000,0.000000,0.000000,0.000000,0.000000
1694172140.043746,119470.000000,1694172140.036929,0.000000,0.000000,0.000000,0.000000,0.000000,0.000000
1694172140.053485,119471.000000,1694172140.044390,0.000000,0.000000,0.000000,0.000000,0.000000,0.000000
1694172140.061527,119472.000000,1694172140.054945,0.000000,0.000000,0.000000,0.000000,0.000000,0.000000
1694172140.069850,119473.000000,1694172140.065843,0.000000,0.000000,0.000000,0.000000,0.000000,0.000000
1694172140.079568,119474.000000,1694172140.074571,0.000000,0.000000,0.000000,0.000000,0.000000,0.000000
1694172140.088318,119475.000000,1694172140.084462,0.000000,0.000000,0.000000,0.000000,0.000000,0.000000
1694172140.096853,119476.000000,1694172140.094550,0.000000,0.000000,0.000000,0.000000,0.000000,0.000000
1694172140.109772,119477.000000,1694172140.104504,0.000000,0.000000,0.000000,0.000000,0.000000,0.000000
1694172140.120035,119478.000000,1694172140.116234,0.000000,0.000000,0.000000,0.000000,0.000000,0.000000
1694172140.130159,119479.000000,1694172140.124870,0.000000,0.000000,0.000000,0.000000,0.000000,0.000000
1694172140.140770,119480.000000,1694172140.134431,0.000000,0.000000,0.000000,0.000000,0.000000,0.000000
1694172140.149468,119481.000000,1694172140.144445,0.000000,0.000000,0.000000,0.000000,0.000000,0.000000
1694172140.159957,119482.000000,1694172140.154690,0.000000,0.000000,0.000000,0.000000,0.000000,0.000000
1694172140.166586,119483.000000,1694172140.164643,0.000000,0.000000,0.000000,0.000000,0.000000,0.000000
1694172140.178203,119484.000000,1694172140.174555,0.000000,0.000000,0.000000,0.000000,0.000000,0.000000
1694172140.193467,119485.000000,1694172140.184561,0.000000,0.000000,0.000000,0.000000,0.000000,0.000000
1694172140.201040,119486.000000,1694172140.194585,0.000000,0.000000,0.000000,0.000000,0.000000,0.000000
1694172140.212389,119487.000000,1694172140.204339,0.000000,0.000000,0.000000,0.000000,0.000000,0.000000
1694172140.221476,119488.000000,1694172140.215795,0.000000,0.000000,0.000000,0.000000,0.000000,0.000000
1694172140.227834,119489.000000,1694172140.224472,0.000000,0.000000,0.000000,0.000000,0.000000,0.000000
1694172140.242722,119490.000000,1694172140.234767,0.000000,0.000000,0.000000,0.000000,0.000000,0.000000
1694172140.250156,119491.000000,1694172140.245042,0.000000,0.000000,0.000000,0.000000,0.000000,0.000000
1694172140.258705,119492.000000,1694172140.254910,0.000000,0.000000,0.000000,0.000000,0.000000,0.000000
1694172140.266164,119493.000000,1694172140.264593,0.000000,0.000000,0.000000,0.000000,0.000000,0.000000
1694172140.281609,119494.000000,1694172140.274347,0.000000,0.000000,0.000000,0.000000,0.000000,0.000000
1694172140.287870,119495.000000,1694172140.284419,0.000000,0.000000,0.000000,0.000000,0.000000,0.000000
1694172140.298266,119496.000000,1694172140.294463,0.000000,0.000000,0.000000,0.000000,0.000000,0.000000
1694172140.315551,119497.000000,1694172140.304560,0.000000,0.000000,0.000000,0.000000,0.000000,0.000000
1694172140.323820,119498.000000,1694172140.314513,0.000000,0.000000,0.000000,0.000000,0.000000,0.000000
1694172140.331974,119499.000000,1694172140.325616,0.000000,0.000000,0.000000,0.000000,0.000000,0.000000
1694172140.338742,119500.000000,1694172140.335973,0.000000,0.000000,0.000000,0.000000,0.000000,0.000000
1694172140.357734,119501.000000,1694172140.345212,0.000000,0.000000,0.000000,0.000000,0.000000,0.000000
1694172140.366909,119502.000000,1694172140.355650,0.000000,0.000000,0.000000,0.000000,0.000000,0.000000
1694172140.375481,119503.000000,1694172140.364669,0.000000,0.000000,0.000000,0.000000,0.000000,0.000000
1694172140.389406,119504.000000,1694172140.374546,0.000000,0.000000,0.000000,0.000000,0.000000,0.000000
1694172140.392098,119505.000000,1694172140.384556,0.000000,0.000000,0.000000,0.000000,0.000000,0.000000
1694172140.402760,119506.000000,1694172140.394555,0.000000,0.000000,0.000000,0.000000,0.000000,0.000000
1694172140.409378,119507.000000,1694172140.404542,0.000000,0.000000,0.000000,0.000000,0.000000,0.000000
1694172140.431485,119508.000000,1694172140.414718,0.000000,0.000000,0.000000,0.000000,0.000000,0.000000
1694172140.440358,119509.000000,1694172140.424457,0.000000,0.000000,0.000000,0.000000,0.000000,0.000000
1694172140.442335,119510.000000,1694172140.434744,0.000000,0.000000,0.000000,0.000000,0.000000,0.000000
1694172140.464458,119511.000000,1694172140.444405,0.000000,0.000000,0.000000,0.000000,0.000000,0.000000
1694172140.475719,119512.000000,1694172140.454931,0.000000,0.000000,0.000000,0.000000,0.000000,0.000000
1694172140.475742,119513.000000,1694172140.464460,0.000000,0.000000,0.000000,0.000000,0.000000,0.000000
1694172140.493238,119514.000000,1694172140.474571,0.000000,0.000000,0.000000,0.000000,0.000000,0.000000
1694172140.499876,119515.000000,1694172140.484433,0.000000,0.000000,0.000000,0.000000,0.000000,0.000000
1694172140.508541,119516.000000,1694172140.494536,0.000000,0.000000,0.000000,0.000000,0.000000,0.000000
1694172140.520563,119517.000000,1694172140.504458,0.000000,0.000000,0.000000,0.000000,0.000000,0.000000
1694172140.525772,119518.000000,1694172140.514551,0.000000,0.000000,0.000000,0.000000,0.000000,0.000000
1694172140.536566,119519.000000,1694172140.529365,0.000000,0.000000,0.000000,0.000000,0.000000,0.000000
1694172140.542349,119520.000000,1694172140.534616,0.000000,0.000000,0.000000,0.000000,0.000000,0.000000
1694172140.552771,119521.000000,1694172140.544580,0.000000,0.000000,0.000000,0.000000,0.000000,0.000000
1694172140.558410,119522.000000,1694172140.555697,0.000000,0.000000,0.000000,0.000000,0.000000,0.000000
1694172140.568810,119523.000000,1694172140.564391,0.000000,0.000000,0.000000,0.000000,0.000000,0.000000
1694172140.576807,119524.000000,1694172140.574773,0.000000,0.000000,0.000000,0.000000,0.000000,0.000000
1694172140.589656,119525.000000,1694172140.584461,0.000000,0.000000,0.000000,0.000000,0.000000,0.000000
1694172140.601241,119526.000000,1694172140.594567,0.000000,0.000000,0.000000,0.000000,0.000000,0.000000
1694172140.613448,119527.000000,1694172140.604717,0.000000,0.000000,0.000000,0.000000,0.000000,0.000000
1694172140.623355,119528.000000,1694172140.614559,0.000000,0.000000,0.000000,0.000000,0.000000,0.000000
1694172140.637597,119529.000000,1694172140.624715,0.000000,0.000000,0.000000,0.000000,0.000000,0.000000
1694172140.641076,119530.000000,1694172140.634586,0.000000,0.000000,0.000000,0.000000,0.000000,0.000000
1694172140.652300,119531.000000,1694172140.644687,0.000000,0.000000,0.000000,0.000000,0.000000,0.000000
1694172140.665806,119532.000000,1694172140.654776,0.000000,0.000000,0.000000,0.000000,0.000000,0.000000
1694172140.676270,119533.000000,1694172140.664621,0.000000,0.000000,0.000000,0.000000,0.000000,0.000000
1694172140.693198,119534.000000,1694172140.674444,0.000000,0.000000,0.000000,0.000000,0.000000,0.000000
1694172140.696342,119535.000000,1694172140.684490,0.000000,0.000000,0.000000,0.000000,0.000000,0.000000
1694172140.705576,119536.000000,1694172140.694540,0.000000,0.000000,0.000000,0.000000,0.000000,0.000000
1694172140.721855,119537.000000,1694172140.704463,0.000000,0.000000,0.000000,0.000000,0.000000,0.000000
1694172140.727767,119538.000000,1694172140.714701,0.000000,0.000000,0.000000,0.000000,0.000000,0.000000
1694172140.733518,119539.000000,1694172140.724735,0.000000,0.000000,0.000000,0.000000,0.000000,0.000000
1694172140.755147,119540.000000,1694172140.735160,0.000000,0.000000,0.000000,0.000000,0.000000,0.000000
1694172140.762143,119541.000000,1694172140.744526,0.000000,0.000000,0.000000,0.000000,0.000000,0.000000
1694172140.762156,119542.000000,1694172140.754562,0.000000,0.000000,0.000000,0.000000,0.000000,0.000000
1694172140.775570,119543.000000,1694172140.765440,0.000000,0.000000,0.000000,0.000000,0.000000,0.000000
1694172140.786139,119544.000000,1694172140.774447,0.000000,0.000000,0.000000,0.000000,0.000000,0.000000
1694172140.793893,119545.000000,1694172140.784576,0.000000,0.000000,0.000000,0.000000,0.000000,0.000000
1694172140.804563,119546.000000,1694172140.795250,0.000000,0.000000,0.000000,0.000000,0.000000,0.000000
1694172140.820629,119547.000000,1694172140.804403,0.000000,0.000000,0.000000,0.000000,0.000000,0.000000
1694172140.834273,119548.000000,1694172140.814747,0.000000,0.000000,0.000000,0.000000,0.000000,0.000000
1694172140.836463,119549.000000,1694172140.824464,0.000000,0.000000,0.000000,0.000000,0.000000,0.000000
1694172140.845441,119550.000000,1694172140.834748,0.000000,0.000000,0.000000,0.000000,0.000000,0.000000
1694172140.851191,119551.000000,1694172140.844389,0.000000,0.000000,0.000000,0.000000,0.000000,0.000000
1694172140.862723,119552.000000,1694172140.854563,0.000000,0.000000,0.000000,0.000000,0.000000,0.000000
1694172140.880014,119553.000000,1694172140.864409,0.000000,0.000000,0.000000,0.000000,0.000000,0.000000
1694172140.891891,119554.000000,1694172140.876988,0.000000,0.000000,0.000000,0.000000,0.000000,0.000000
1694172140.898808,119555.000000,1694172140.884411,0.000000,0.000000,0.000000,0.000000,0.000000,0.000000
1694172140.898827,119556.000000,1694172140.894531,0.000000,0.000000,0.000000,0.000000,0.000000,0.000000
1694172140.916981,119557.000000,1694172140.907190,0.000000,0.000000,0.000000,0.000000,0.000000,0.000000
1694172140.926131,119558.000000,1694172140.914913,0.000000,0.000000,0.000000,0.000000,0.000000,0.000000
1694172140.935773,119559.000000,1694172140.925704,0.000000,0.000000,0.000000,0.000000,0.000000,0.000000
1694172140.942301,119560.000000,1694172140.935311,0.000000,0.000000,0.000000,0.000000,0.000000,0.000000
1694172140.952332,119561.000000,1694172140.944538,0.000000,0.000000,0.000000,0.000000,0.000000,0.000000
1694172140.965062,119562.000000,1694172140.956794,0.000000,0.000000,0.000000,0.000000,0.000000,0.000000
1694172140.975711,119563.000000,1694172140.965590,0.000000,0.000000,0.000000,0.000000,0.000000,0.000000
