__time,/kms40_driver/wrench/header/seq,/kms40_driver/wrench/header/stamp,/kms40_driver/wrench/wrench/force/x,/kms40_driver/wrench/wrench/force/y,/kms40_driver/wrench/wrench/force/z,/kms40_driver/wrench/wrench/torque/x,/kms40_driver/wrench/wrench/torque/y,/kms40_driver/wrench/wrench/torque/z
1696856793.403804,443691.000000000,1696856793.401889563,0.117000000,-0.078000000,-0.059000000,-0.001000000,0.000000000,0.002000000
1696856793.405259,443692.000000000,1696856793.403954983,0.119000000,-0.078000000,-0.060000000,-0.001000000,0.000000000,0.002000000
1696856793.407087,443693.000000000,1696856793.405946255,0.121000000,-0.077000000,-0.060000000,-0.001000000,0.000000000,0.002000000
1696856793.409097,443694.000000000,1696856793.407905340,0.122000000,-0.076000000,-0.060000000,-0.001000000,0.000000000,0.001000000
1696856793.411130,443695.000000000,1696856793.409907103,0.123000000,-0.074000000,-0.059000000,-0.001000000,0.000000000,0.002000000
1696856793.413213,443696.000000000,1696856793.411923647,0.124000000,-0.073000000,-0.060000000,-0.001000000,0.000000000,0.001000000
1696856793.415153,443697.000000000,1696856793.413902998,0.125000000,-0.073000000,-0.061000000,-0.002000000,0.000000000,0.001000000
1696856793.419275,443699.000000000,1696856793.417884350,0.127000000,-0.076000000,-0.064000000,-0.001000000,0.000000000,0.001000000
1696856793.421392,443700.000000000,1696856793.419899225,0.128000000,-0.078000000,-0.065000000,-0.001000000,0.000000000,0.002000000
1696856793.423025,443701.000000000,1696856793.421889782,0.129000000,-0.081000000,-0.067000000,-0.001000000,0.000000000,0.002000000
1696856793.425027,443702.000000000,1696856793.423879385,0.129000000,-0.083000000,-0.069000000,-0.001000000,0.000000000,0.002000000
1696856793.427080,443703.000000000,1696856793.425963879,0.130000000,-0.083000000,-0.071000000,-0.001000000,0.000000000,0.002000000
1696856793.429056,443704.000000000,1696856793.427908182,0.130000000,-0.083000000,-0.073000000,-0.001000000,0.000000000,0.002000000
1696856793.431042,443705.000000000,1696856793.429913044,0.129000000,-0.082000000,-0.074000000,-0.001000000,0.000000000,0.002000000
1696856793.433147,443706.000000000,1696856793.431883335,0.129000000,-0.080000000,-0.076000000,-0.001000000,0.000000000,0.002000000
1696856793.460948,443719.000000000,1696856793.457929373,0.115000000,-0.071000000,-0.114000000,-0.001000000,0.000000000,0.004000000
1696856793.468987,443723.000000000,1696856793.465929747,0.111000000,-0.071000000,-0.127000000,-0.001000000,0.000000000,0.005000000
1696856793.469061,443724.000000000,1696856793.467895985,0.110000000,-0.072000000,-0.130000000,-0.001000000,0.000000000,0.005000000
1696856793.471046,443725.000000000,1696856793.469931126,0.109000000,-0.073000000,-0.132000000,-0.001000000,0.000000000,0.005000000
1696856793.482083,443730.000000000,1696856793.479891300,0.106000000,-0.060000000,-0.137000000,-0.001000000,0.000000000,0.005000000
1696856793.483104,443731.000000000,1696856793.481896400,0.106000000,-0.058000000,-0.137000000,-0.001000000,0.000000000,0.005000000
1696856793.485057,443732.000000000,1696856793.483902931,0.106000000,-0.058000000,-0.138000000,-0.001000000,0.000000000,0.005000000
1696856793.486996,443733.000000000,1696856793.485902548,0.106000000,-0.059000000,-0.138000000,-0.001000000,0.000000000,0.005000000
1696856793.488984,443734.000000000,1696856793.487887144,0.106000000,-0.060000000,-0.138000000,-0.001000000,0.000000000,0.005000000
1696856793.491016,443735.000000000,1696856793.489895344,0.107000000,-0.062000000,-0.138000000,-0.001000000,0.000000000,0.005000000
1696856793.493267,443736.000000000,1696856793.491917610,0.107000000,-0.063000000,-0.138000000,-0.001000000,0.000000000,0.005000000
1696856793.495000,443737.000000000,1696856793.493878126,0.108000000,-0.063000000,-0.136000000,-0.001000000,0.000000000,0.004000000
1696856793.497029,443738.000000000,1696856793.495930195,0.108000000,-0.062000000,-0.134000000,-0.001000000,0.000000000,0.004000000
1696856793.500036,443739.000000000,1696856793.497892857,0.109000000,-0.061000000,-0.132000000,-0.001000000,0.000000000,0.004000000
1696856793.501616,443740.000000000,1696856793.499926090,0.109000000,-0.058000000,-0.129000000,-0.001000000,0.000000000,0.004000000
1696856793.503035,443741.000000000,1696856793.501905680,0.110000000,-0.056000000,-0.127000000,-0.001000000,0.000000000,0.004000000
1696856793.505004,443742.000000000,1696856793.503869772,0.110000000,-0.055000000,-0.124000000,-0.001000000,0.000000000,0.004000000
1696856793.528624,443753.000000000,1696856793.525899887,0.114000000,-0.063000000,-0.090000000,-0.002000000,0.000000000,0.002000000
1696856793.529063,443754.000000000,1696856793.527944565,0.114000000,-0.064000000,-0.088000000,-0.002000000,0.000000000,0.002000000
1696856793.531014,443755.000000000,1696856793.529902220,0.113000000,-0.065000000,-0.086000000,-0.002000000,0.000000000,0.002000000
1696856793.533270,443756.000000000,1696856793.531958342,0.113000000,-0.068000000,-0.085000000,-0.002000000,0.000000000,0.002000000
1696856793.535101,443757.000000000,1696856793.533883333,0.113000000,-0.071000000,-0.082000000,-0.001000000,0.000000000,0.002000000
1696856793.537211,443758.000000000,1696856793.535989046,0.113000000,-0.074000000,-0.080000000,-0.001000000,0.000000000,0.002000000
1696856793.539097,443759.000000000,1696856793.537879467,0.113000000,-0.076000000,-0.077000000,-0.001000000,0.000000000,0.002000000
1696856793.541639,443760.000000000,1696856793.540002108,0.113000000,-0.077000000,-0.077000000,-0.001000000,0.000000000,0.002000000
1696856793.543441,443761.000000000,1696856793.541901588,0.112000000,-0.078000000,-0.075000000,-0.001000000,0.000000000,0.002000000
1696856793.545065,443762.000000000,1696856793.543938875,0.111000000,-0.077000000,-0.073000000,-0.001000000,0.000000000,0.002000000
1696856793.547018,443763.000000000,1696856793.545895576,0.111000000,-0.076000000,-0.070000000,-0.001000000,0.000000000,0.002000000
1696856793.549207,443764.000000000,1696856793.547986031,0.109000000,-0.076000000,-0.069000000,-0.002000000,0.000000000,0.002000000
1696856793.573885,443776.000000000,1696856793.571910143,0.098000000,-0.084000000,-0.064000000,-0.001000000,-0.001000000,0.004000000
1696856793.575085,443777.000000000,1696856793.573900700,0.097000000,-0.084000000,-0.063000000,-0.001000000,-0.001000000,0.004000000
1696856793.577089,443778.000000000,1696856793.575908184,0.096000000,-0.084000000,-0.064000000,-0.001000000,-0.001000000,0.004000000
1696856793.579093,443779.000000000,1696856793.577888966,0.095000000,-0.087000000,-0.063000000,-0.001000000,-0.001000000,0.004000000
1696856793.581246,443780.000000000,1696856793.579970837,0.095000000,-0.089000000,-0.064000000,-0.001000000,-0.001000000,0.004000000
1696856793.583162,443781.000000000,1696856793.581905365,0.094000000,-0.091000000,-0.064000000,-0.001000000,-0.001000000,0.004000000
1696856793.585116,443782.000000000,1696856793.583895922,0.094000000,-0.093000000,-0.064000000,-0.001000000,-0.001000000,0.004000000
1696856793.588085,443783.000000000,1696856793.585984230,0.093000000,-0.094000000,-0.063000000,-0.001000000,-0.001000000,0.004000000
1696856793.589101,443784.000000000,1696856793.587937117,0.092000000,-0.093000000,-0.063000000,-0.001000000,-0.001000000,0.004000000
1696856793.591114,443785.000000000,1696856793.589900732,0.091000000,-0.092000000,-0.062000000,-0.001000000,-0.001000000,0.004000000
1696856793.614681,443796.000000000,1696856793.611946583,0.085000000,-0.090000000,-0.053000000,-0.001000000,-0.001000000,0.003000000
1696856793.624355,443801.000000000,1696856793.621903181,0.083000000,-0.082000000,-0.050000000,-0.001000000,-0.001000000,0.003000000
1696856793.640675,443809.000000000,1696856793.637921810,0.085000000,-0.080000000,-0.050000000,-0.001000000,-0.001000000,0.003000000
1696856793.658693,443818.000000000,1696856793.655881405,0.088000000,-0.081000000,-0.059000000,-0.001000000,-0.001000000,0.002000000
1696856793.678753,443828.000000000,1696856793.675919533,0.086000000,-0.080000000,-0.066000000,-0.001000000,-0.001000000,0.003000000
1696856793.690150,443834.000000000,1696856793.687914848,0.082000000,-0.072000000,-0.064000000,-0.002000000,-0.001000000,0.003000000
1696856793.691105,443835.000000000,1696856793.689930677,0.081000000,-0.073000000,-0.064000000,-0.002000000,-0.001000000,0.003000000
1696856793.693149,443836.000000000,1696856793.692008495,0.081000000,-0.074000000,-0.063000000,-0.002000000,-0.001000000,0.003000000
1696856793.695055,443837.000000000,1696856793.693930864,0.080000000,-0.076000000,-0.063000000,-0.001000000,-0.001000000,0.003000000
1696856793.697107,443838.000000000,1696856793.695951462,0.080000000,-0.079000000,-0.064000000,-0.001000000,-0.001000000,0.003000000
1696856793.699502,443839.000000000,1696856793.697906733,0.079000000,-0.080000000,-0.064000000,-0.001000000,-0.001000000,0.003000000
1696856793.702251,443840.000000000,1696856793.699954271,0.079000000,-0.081000000,-0.063000000,-0.001000000,-0.001000000,0.003000000
1696856793.715029,443846.000000000,1696856793.711926937,0.074000000,-0.073000000,-0.058000000,-0.001000000,-0.001000000,0.004000000
1696856793.715178,443847.000000000,1696856793.713917255,0.073000000,-0.074000000,-0.057000000,-0.001000000,-0.001000000,0.004000000
1696856793.717250,443848.000000000,1696856793.715913534,0.073000000,-0.076000000,-0.058000000,-0.001000000,-0.001000000,0.004000000
1696856793.719074,443849.000000000,1696856793.717898846,0.073000000,-0.077000000,-0.059000000,-0.001000000,-0.001000000,0.003000000
1696856793.721105,443850.000000000,1696856793.719923973,0.074000000,-0.078000000,-0.060000000,-0.001000000,-0.001000000,0.004000000
1696856793.723078,443851.000000000,1696856793.721901894,0.073000000,-0.080000000,-0.062000000,-0.001000000,-0.001000000,0.004000000
1696856793.725309,443852.000000000,1696856793.723920584,0.073000000,-0.079000000,-0.062000000,-0.001000000,-0.001000000,0.004000000
1696856793.727103,443853.000000000,1696856793.725907564,0.073000000,-0.076000000,-0.062000000,-0.001000000,-0.001000000,0.004000000
1696856793.730074,443854.000000000,1696856793.728889227,0.073000000,-0.073000000,-0.064000000,-0.001000000,-0.001000000,0.004000000
1696856793.731205,443855.000000000,1696856793.729994535,0.072000000,-0.070000000,-0.063000000,-0.001000000,-0.001000000,0.004000000
1696856793.733340,443856.000000000,1696856793.731913805,0.072000000,-0.068000000,-0.065000000,-0.001000000,-0.001000000,0.004000000
1696856793.735271,443857.000000000,1696856793.733970404,0.072000000,-0.066000000,-0.068000000,-0.001000000,-0.001000000,0.004000000
1696856793.737116,443858.000000000,1696856793.735904455,0.072000000,-0.066000000,-0.070000000,-0.001000000,-0.001000000,0.004000000
1696856793.739081,443859.000000000,1696856793.737901926,0.073000000,-0.066000000,-0.072000000,-0.001000000,-0.001000000,0.004000000
1696856793.742068,443860.000000000,1696856793.739925146,0.074000000,-0.067000000,-0.076000000,-0.001000000,-0.001000000,0.004000000
1696856793.743046,443861.000000000,1696856793.741907358,0.075000000,-0.068000000,-0.081000000,-0.001000000,-0.001000000,0.004000000
1696856793.745085,443862.000000000,1696856793.743914127,0.076000000,-0.069000000,-0.084000000,-0.001000000,-0.001000000,0.005000000
1696856793.755406,443867.000000000,1696856793.753919125,0.080000000,-0.054000000,-0.098000000,-0.001000000,-0.001000000,0.004000000
1696856793.757149,443868.000000000,1696856793.755963564,0.082000000,-0.052000000,-0.101000000,-0.001000000,-0.001000000,0.004000000
1696856793.759161,443869.000000000,1696856793.757977962,0.083000000,-0.050000000,-0.105000000,-0.001000000,0.000000000,0.004000000
1696856793.761084,443870.000000000,1696856793.759906530,0.085000000,-0.051000000,-0.109000000,-0.001000000,0.000000000,0.004000000
1696856793.763096,443871.000000000,1696856793.761917114,0.087000000,-0.051000000,-0.113000000,-0.001000000,0.000000000,0.004000000
1696856793.765098,443872.000000000,1696856793.763917685,0.089000000,-0.052000000,-0.116000000,-0.001000000,0.000000000,0.004000000
1696856793.767091,443873.000000000,1696856793.765922308,0.091000000,-0.053000000,-0.120000000,-0.001000000,0.000000000,0.004000000
1696856793.768997,443874.000000000,1696856793.767876625,0.093000000,-0.053000000,-0.123000000,-0.001000000,0.000000000,0.004000000
1696856793.771116,443875.000000000,1696856793.769908190,0.095000000,-0.051000000,-0.126000000,-0.001000000,0.000000000,0.004000000
1696856793.773148,443876.000000000,1696856793.771940470,0.097000000,-0.049000000,-0.127000000,-0.001000000,0.000000000,0.004000000
1696856793.775111,443877.000000000,1696856793.773930788,0.098000000,-0.045000000,-0.129000000,-0.001000000,0.000000000,0.004000000
1696856793.777019,443878.000000000,1696856793.775892973,0.100000000,-0.043000000,-0.129000000,-0.001000000,0.000000000,0.004000000
1696856793.779454,443879.000000000,1696856793.778020382,0.102000000,-0.040000000,-0.130000000,-0.001000000,0.000000000,0.004000000
1696856793.781876,443880.000000000,1696856793.779968977,0.104000000,-0.040000000,-0.131000000,-0.001000000,0.000000000,0.003000000
1696856793.783118,443881.000000000,1696856793.781930923,0.106000000,-0.041000000,-0.133000000,-0.001000000,0.000000000,0.003000000
1696856793.785063,443882.000000000,1696856793.783915758,0.108000000,-0.042000000,-0.134000000,-0.001000000,0.000000000,0.003000000
1696856793.787125,443883.000000000,1696856793.785910606,0.110000000,-0.044000000,-0.134000000,-0.001000000,0.000000000,0.003000000
1696856793.809019,443892.000000000,1696856793.803909779,0.121000000,-0.045000000,-0.116000000,-0.002000000,0.000000000,0.003000000
1696856793.812002,443893.000000000,1696856793.805918455,0.121000000,-0.049000000,-0.113000000,-0.002000000,0.000000000,0.003000000
1696856793.826075,443902.000000000,1696856793.823933601,0.120000000,-0.061000000,-0.078000000,-0.001000000,0.000000000,0.003000000
1696856793.833634,443906.000000000,1696856793.831898212,0.116000000,-0.072000000,-0.065000000,-0.001000000,0.000000000,0.003000000
1696856793.848273,443913.000000000,1696856793.845921516,0.109000000,-0.077000000,-0.041000000,-0.001000000,0.000000000,0.003000000
1696856793.849116,443914.000000000,1696856793.847890377,0.107000000,-0.078000000,-0.039000000,-0.001000000,0.000000000,0.003000000
1696856793.851110,443915.000000000,1696856793.849921942,0.106000000,-0.079000000,-0.037000000,-0.001000000,0.000000000,0.003000000
1696856793.853104,443916.000000000,1696856793.851906300,0.105000000,-0.081000000,-0.035000000,-0.001000000,0.000000000,0.003000000
1696856793.855036,443917.000000000,1696856793.853906393,0.105000000,-0.084000000,-0.034000000,-0.001000000,0.000000000,0.003000000
1696856793.857012,443918.000000000,1696856793.855892181,0.105000000,-0.087000000,-0.032000000,-0.001000000,0.000000000,0.002000000
1696856793.859072,443919.000000000,1696856793.857939959,0.105000000,-0.089000000,-0.031000000,-0.001000000,0.000000000,0.002000000
1696856793.861191,443920.000000000,1696856793.859956980,0.104000000,-0.090000000,-0.031000000,-0.001000000,0.000000000,0.003000000
1696856793.863132,443921.000000000,1696856793.861937761,0.104000000,-0.090000000,-0.028000000,-0.001000000,0.000000000,0.002000000
1696856793.865137,443922.000000000,1696856793.863923788,0.104000000,-0.088000000,-0.025000000,-0.001000000,0.000000000,0.002000000
1696856793.867373,443923.000000000,1696856793.865941525,0.103000000,-0.086000000,-0.023000000,-0.001000000,0.000000000,0.002000000
1696856793.869236,443924.000000000,1696856793.867913008,0.103000000,-0.084000000,-0.023000000,-0.001000000,0.000000000,0.002000000
1696856793.871089,443925.000000000,1696856793.869898319,0.102000000,-0.083000000,-0.022000000,-0.001000000,0.000000000,0.002000000
1696856793.873067,443926.000000000,1696856793.871889830,0.102000000,-0.082000000,-0.020000000,-0.001000000,0.000000000,0.002000000
1696856793.875084,443927.000000000,1696856793.873904228,0.102000000,-0.084000000,-0.020000000,-0.001000000,0.000000000,0.002000000
1696856793.889477,443934.000000000,1696856793.887941837,0.105000000,-0.083000000,-0.015000000,-0.001000000,0.000000000,0.001000000
1696856793.892009,443935.000000000,1696856793.889949083,0.105000000,-0.080000000,-0.013000000,-0.001000000,0.000000000,0.001000000
1696856793.893070,443936.000000000,1696856793.891951561,0.105000000,-0.077000000,-0.013000000,-0.001000000,0.000000000,0.001000000
1696856793.895102,443937.000000000,1696856793.893923044,0.105000000,-0.077000000,-0.013000000,-0.001000000,0.000000000,0.001000000
1696856793.897026,443938.000000000,1696856793.895921946,0.106000000,-0.076000000,-0.014000000,-0.001000000,0.000000000,0.001000000
1696856793.899610,443939.000000000,1696856793.897926331,0.105000000,-0.077000000,-0.013000000,-0.001000000,0.000000000,0.001000000
1696856793.902312,443940.000000000,1696856793.899919510,0.106000000,-0.078000000,-0.013000000,-0.001000000,0.000000000,0.001000000
1696856793.903227,443941.000000000,1696856793.902046680,0.107000000,-0.078000000,-0.014000000,-0.001000000,0.000000000,0.000000000
1696856793.905114,443942.000000000,1696856793.903942347,0.107000000,-0.079000000,-0.015000000,-0.001000000,0.000000000,0.000000000
1696856793.907102,443943.000000000,1696856793.905978441,0.107000000,-0.079000000,-0.015000000,-0.001000000,0.000000000,0.000000000
1696856793.909126,443944.000000000,1696856793.907936811,0.107000000,-0.077000000,-0.016000000,-0.001000000,0.000000000,0.001000000
1696856793.911248,443945.000000000,1696856793.909960985,0.107000000,-0.074000000,-0.014000000,-0.001000000,0.000000000,0.001000000
1696856793.913111,443946.000000000,1696856793.911887407,0.106000000,-0.070000000,-0.014000000,-0.001000000,0.000000000,0.000000000
1696856793.915633,443947.000000000,1696856793.913936138,0.106000000,-0.068000000,-0.014000000,-0.002000000,0.000000000,0.000000000
1696856793.917178,443948.000000000,1696856793.915900230,0.106000000,-0.066000000,-0.016000000,-0.002000000,0.000000000,0.000000000
1696856793.937581,443958.000000000,1696856793.935889959,0.099000000,-0.063000000,-0.023000000,-0.002000000,0.000000000,0.001000000
1696856793.939013,443959.000000000,1696856793.937906981,0.098000000,-0.061000000,-0.026000000,-0.002000000,0.000000000,0.002000000
1696856793.957181,443968.000000000,1696856793.955907822,0.089000000,-0.068000000,-0.036000000,-0.001000000,-0.001000000,0.003000000
1696856793.959963,443969.000000000,1696856793.957942247,0.087000000,-0.066000000,-0.036000000,-0.001000000,-0.001000000,0.003000000
1696856793.973542,443976.000000000,1696856793.971917868,0.080000000,-0.075000000,-0.042000000,-0.001000000,-0.001000000,0.004000000
1696856793.975031,443977.000000000,1696856793.973918200,0.079000000,-0.076000000,-0.043000000,-0.001000000,-0.001000000,0.004000000
1696856793.977112,443978.000000000,1696856793.975945711,0.079000000,-0.076000000,-0.042000000,-0.001000000,-0.001000000,0.004000000
1696856793.979061,443979.000000000,1696856793.977904320,0.078000000,-0.074000000,-0.042000000,-0.001000000,-0.001000000,0.004000000
1696856793.981313,443980.000000000,1696856793.979939222,0.077000000,-0.073000000,-0.042000000,-0.001000000,-0.001000000,0.004000000
1696856793.983113,443981.000000000,1696856793.981923580,0.076000000,-0.071000000,-0.040000000,-0.001000000,-0.002000000,0.004000000
1696856793.985082,443982.000000000,1696856793.983939409,0.075000000,-0.070000000,-0.039000000,-0.001000000,-0.002000000,0.004000000
1696856793.987056,443983.000000000,1696856793.985930443,0.075000000,-0.070000000,-0.040000000,-0.001000000,-0.002000000,0.004000000
1696856793.989105,443984.000000000,1696856793.987924814,0.075000000,-0.071000000,-0.041000000,-0.001000000,-0.002000000,0.004000000
1696856793.991095,443985.000000000,1696856793.989919662,0.075000000,-0.074000000,-0.041000000,-0.001000000,-0.002000000,0.004000000
1696856793.993058,443986.000000000,1696856793.991917133,0.075000000,-0.076000000,-0.042000000,-0.001000000,-0.002000000,0.004000000
1696856793.995028,443987.000000000,1696856793.993903637,0.076000000,-0.078000000,-0.043000000,-0.001000000,-0.002000000,0.003000000
1696856793.997130,443988.000000000,1696856793.995924711,0.075000000,-0.078000000,-0.044000000,-0.001000000,-0.002000000,0.003000000
1696856793.999289,443989.000000000,1696856793.997940302,0.076000000,-0.078000000,-0.044000000,-0.001000000,-0.001000000,0.003000000
1696856794.001204,443990.000000000,1696856793.999965668,0.076000000,-0.076000000,-0.044000000,-0.001000000,-0.001000000,0.003000000
1696856794.018051,443998.000000000,1696856794.015896797,0.079000000,-0.069000000,-0.058000000,-0.001000000,-0.001000000,0.003000000
1696856794.021045,443999.000000000,1696856794.018805265,0.080000000,-0.070000000,-0.062000000,-0.001000000,-0.001000000,0.003000000
1696856794.021399,444000.000000000,1696856794.019958258,0.080000000,-0.069000000,-0.065000000,-0.001000000,-0.001000000,0.003000000
1696856794.023359,444001.000000000,1696856794.022147179,0.080000000,-0.066000000,-0.067000000,-0.001000000,-0.001000000,0.003000000
1696856794.025116,444002.000000000,1696856794.023938417,0.080000000,-0.063000000,-0.070000000,-0.001000000,-0.001000000,0.003000000
1696856794.027043,444003.000000000,1696856794.025916100,0.081000000,-0.058000000,-0.072000000,-0.001000000,-0.001000000,0.003000000
1696856794.029054,444004.000000000,1696856794.027888060,0.082000000,-0.055000000,-0.076000000,-0.001000000,-0.001000000,0.003000000
1696856794.031083,444005.000000000,1696856794.029917479,0.081000000,-0.053000000,-0.081000000,-0.001000000,-0.001000000,0.003000000
1696856794.033142,444006.000000000,1696856794.031924725,0.081000000,-0.051000000,-0.085000000,-0.001000000,-0.001000000,0.003000000
1696856794.035211,444007.000000000,1696856794.033896923,0.082000000,-0.051000000,-0.090000000,-0.001000000,-0.001000000,0.004000000
1696856794.037117,444008.000000000,1696856794.035913229,0.081000000,-0.051000000,-0.093000000,-0.001000000,-0.001000000,0.003000000
1696856794.039000,444009.000000000,1696856794.037882805,0.082000000,-0.051000000,-0.099000000,-0.001000000,0.000000000,0.003000000
1696856794.041406,444010.000000000,1696856794.039936543,0.083000000,-0.052000000,-0.104000000,-0.001000000,0.000000000,0.003000000
1696856794.043075,444011.000000000,1696856794.041945457,0.083000000,-0.052000000,-0.109000000,-0.001000000,0.000000000,0.004000000
1696856794.045139,444012.000000000,1696856794.043951035,0.082000000,-0.050000000,-0.112000000,-0.001000000,0.000000000,0.004000000
1696856794.060668,444019.000000000,1696856794.057945967,0.078000000,-0.037000000,-0.133000000,-0.002000000,0.000000000,0.004000000
1696856794.061111,444020.000000000,1696856794.059930563,0.078000000,-0.039000000,-0.136000000,-0.001000000,0.000000000,0.005000000
1696856794.063016,444021.000000000,1696856794.061909676,0.077000000,-0.041000000,-0.139000000,-0.001000000,0.000000000,0.005000000
1696856794.065096,444022.000000000,1696856794.063968420,0.077000000,-0.042000000,-0.141000000,-0.001000000,0.000000000,0.005000000
1696856794.067246,444023.000000000,1696856794.066070318,0.076000000,-0.042000000,-0.140000000,-0.001000000,0.000000000,0.005000000
1696856794.073976,444026.000000000,1696856794.071895838,0.073000000,-0.038000000,-0.137000000,-0.002000000,0.000000000,0.005000000
1696856794.075117,444027.000000000,1696856794.073913574,0.072000000,-0.037000000,-0.137000000,-0.002000000,0.000000000,0.005000000
1696856794.077049,444028.000000000,1696856794.075888157,0.071000000,-0.037000000,-0.135000000,-0.002000000,-0.001000000,0.005000000
1696856794.079099,444029.000000000,1696856794.077932835,0.070000000,-0.039000000,-0.133000000,-0.002000000,-0.001000000,0.005000000
1696856794.081198,444030.000000000,1696856794.080032110,0.069000000,-0.042000000,-0.130000000,-0.001000000,-0.001000000,0.005000000
1696856794.083488,444031.000000000,1696856794.081945896,0.069000000,-0.045000000,-0.128000000,-0.001000000,-0.001000000,0.005000000
1696856794.085544,444032.000000000,1696856794.083912849,0.068000000,-0.049000000,-0.126000000,-0.001000000,-0.001000000,0.005000000
1696856794.087120,444033.000000000,1696856794.085976362,0.068000000,-0.052000000,-0.123000000,-0.001000000,-0.001000000,0.005000000
1696856794.101116,444039.000000000,1696856794.097939730,0.066000000,-0.055000000,-0.094000000,-0.001000000,-0.001000000,0.005000000
1696856794.101323,444040.000000000,1696856794.099970579,0.067000000,-0.057000000,-0.091000000,-0.001000000,-0.001000000,0.005000000
1696856794.103034,444041.000000000,1696856794.101922750,0.067000000,-0.059000000,-0.086000000,-0.001000000,-0.001000000,0.005000000
1696856794.105023,444042.000000000,1696856794.103923559,0.068000000,-0.063000000,-0.082000000,-0.001000000,-0.001000000,0.005000000
1696856794.107227,444043.000000000,1696856794.106007099,0.069000000,-0.066000000,-0.078000000,-0.001000000,-0.001000000,0.005000000
1696856794.109079,444044.000000000,1696856794.107948542,0.070000000,-0.070000000,-0.074000000,-0.001000000,-0.001000000,0.005000000
1696856794.111049,444045.000000000,1696856794.109911203,0.070000000,-0.073000000,-0.069000000,-0.001000000,-0.001000000,0.004000000
1696856794.113065,444046.000000000,1696856794.111900091,0.072000000,-0.074000000,-0.068000000,-0.001000000,-0.001000000,0.004000000
1696856794.115131,444047.000000000,1696856794.113939524,0.073000000,-0.074000000,-0.064000000,-0.001000000,-0.001000000,0.004000000
1696856794.117194,444048.000000000,1696856794.115919352,0.074000000,-0.074000000,-0.057000000,-0.001000000,-0.001000000,0.004000000
1696856794.119076,444049.000000000,1696856794.117913485,0.075000000,-0.072000000,-0.053000000,-0.001000000,-0.001000000,0.004000000
1696856794.121161,444050.000000000,1696856794.119970798,0.077000000,-0.071000000,-0.049000000,-0.001000000,-0.001000000,0.004000000
1696856794.123073,444051.000000000,1696856794.121941566,0.077000000,-0.071000000,-0.045000000,-0.001000000,-0.001000000,0.003000000
1696856794.125193,444052.000000000,1696856794.123902559,0.080000000,-0.072000000,-0.044000000,-0.001000000,-0.001000000,0.003000000
1696856794.127061,444053.000000000,1696856794.125931501,0.082000000,-0.074000000,-0.041000000,-0.001000000,-0.001000000,0.003000000
1696856794.129230,444054.000000000,1696856794.127982378,0.084000000,-0.076000000,-0.040000000,-0.001000000,-0.001000000,0.003000000
1696856794.145172,444062.000000000,1696856794.143912554,0.101000000,-0.071000000,-0.027000000,-0.001000000,0.000000000,0.001000000
1696856794.150082,444064.000000000,1696856794.147931576,0.105000000,-0.071000000,-0.024000000,-0.001000000,0.000000000,0.001000000
1696856794.151119,444065.000000000,1696856794.149957657,0.109000000,-0.073000000,-0.025000000,-0.001000000,0.000000000,0.001000000
1696856794.153061,444066.000000000,1696856794.151913404,0.111000000,-0.074000000,-0.025000000,-0.001000000,0.000000000,0.001000000
1696856794.155075,444067.000000000,1696856794.153921604,0.112000000,-0.076000000,-0.025000000,-0.001000000,0.000000000,0.001000000
1696856794.157090,444068.000000000,1696856794.155946016,0.115000000,-0.076000000,-0.025000000,-0.001000000,0.000000000,0.001000000
1696856794.159150,444069.000000000,1696856794.157983303,0.116000000,-0.075000000,-0.024000000,-0.001000000,0.000000000,0.000000000
1696856794.161082,444070.000000000,1696856794.159908772,0.118000000,-0.074000000,-0.024000000,-0.001000000,0.000000000,0.000000000
1696856794.163047,444071.000000000,1696856794.161945581,0.119000000,-0.071000000,-0.022000000,-0.001000000,0.000000000,0.000000000
1696856794.165563,444072.000000000,1696856794.163973808,0.120000000,-0.068000000,-0.020000000,-0.001000000,0.000000000,0.000000000
1696856794.167034,444073.000000000,1696856794.165938139,0.121000000,-0.066000000,-0.020000000,-0.002000000,0.000000000,0.000000000
1696856794.169059,444074.000000000,1696856794.167901754,0.122000000,-0.065000000,-0.020000000,-0.002000000,0.000000000,0.000000000
1696856794.171030,444075.000000000,1696856794.169891596,0.122000000,-0.065000000,-0.019000000,-0.002000000,0.000000000,0.000000000
1696856794.182882,444080.000000000,1696856794.179944992,0.124000000,-0.072000000,-0.019000000,-0.001000000,0.000000000,0.001000000
1696856794.183377,444081.000000000,1696856794.181951523,0.124000000,-0.071000000,-0.019000000,-0.001000000,0.000000000,0.001000000
1696856794.190619,444084.000000000,1696856794.187940598,0.121000000,-0.066000000,-0.016000000,-0.001000000,0.000000000,0.001000000
1696856794.191283,444085.000000000,1696856794.189961433,0.119000000,-0.065000000,-0.016000000,-0.001000000,0.000000000,0.001000000
1696856794.193040,444086.000000000,1696856794.191917896,0.118000000,-0.065000000,-0.016000000,-0.001000000,0.000000000,0.001000000
1696856794.195055,444087.000000000,1696856794.193931341,0.117000000,-0.067000000,-0.017000000,-0.001000000,0.000000000,0.001000000
1696856794.197346,444088.000000000,1696856794.196034908,0.116000000,-0.069000000,-0.018000000,-0.001000000,0.000000000,0.001000000
1696856794.199587,444089.000000000,1696856794.197944403,0.115000000,-0.072000000,-0.018000000,-0.001000000,0.000000000,0.002000000
1696856794.202236,444090.000000000,1696856794.200003386,0.113000000,-0.074000000,-0.019000000,-0.001000000,0.000000000,0.002000000
1696856794.203340,444091.000000000,1696856794.201928377,0.112000000,-0.075000000,-0.020000000,-0.001000000,0.000000000,0.002000000
1696856794.205206,444092.000000000,1696856794.203936100,0.111000000,-0.075000000,-0.020000000,-0.001000000,0.000000000,0.002000000
1696856794.207226,444093.000000000,1696856794.206044197,0.109000000,-0.074000000,-0.019000000,-0.001000000,0.000000000,0.002000000
1696856794.209049,444094.000000000,1696856794.207909822,0.107000000,-0.072000000,-0.020000000,-0.001000000,0.000000000,0.002000000
1696856794.211105,444095.000000000,1696856794.209915876,0.105000000,-0.071000000,-0.020000000,-0.001000000,0.000000000,0.002000000
1696856794.213160,444096.000000000,1696856794.211955786,0.104000000,-0.069000000,-0.020000000,-0.001000000,0.000000000,0.002000000
1696856794.225033,444101.000000000,1696856794.221916437,0.098000000,-0.078000000,-0.025000000,-0.001000000,0.000000000,0.002000000
1696856794.225221,444102.000000000,1696856794.223879576,0.097000000,-0.080000000,-0.026000000,-0.001000000,0.000000000,0.002000000
1696856794.227069,444103.000000000,1696856794.225874186,0.096000000,-0.081000000,-0.028000000,-0.001000000,0.000000000,0.002000000
1696856794.229139,444104.000000000,1696856794.227898359,0.096000000,-0.080000000,-0.028000000,-0.001000000,0.000000000,0.002000000
1696856794.231046,444105.000000000,1696856794.229896545,0.095000000,-0.078000000,-0.028000000,-0.001000000,0.000000000,0.002000000
1696856794.233270,444106.000000000,1696856794.231921673,0.095000000,-0.076000000,-0.027000000,-0.001000000,0.000000000,0.002000000
1696856794.235104,444107.000000000,1696856794.233908415,0.094000000,-0.075000000,-0.028000000,-0.001000000,0.000000000,0.002000000
1696856794.237161,444108.000000000,1696856794.235914469,0.094000000,-0.074000000,-0.030000000,-0.001000000,0.000000000,0.002000000
1696856794.239126,444109.000000000,1696856794.237914324,0.094000000,-0.075000000,-0.031000000,-0.001000000,-0.001000000,0.002000000
1696856794.241435,444110.000000000,1696856794.239936590,0.095000000,-0.077000000,-0.032000000,-0.001000000,-0.001000000,0.002000000
1696856794.243193,444111.000000000,1696856794.241946220,0.095000000,-0.078000000,-0.032000000,-0.001000000,-0.001000000,0.002000000
1696856794.245193,444112.000000000,1696856794.243931055,0.096000000,-0.081000000,-0.033000000,-0.001000000,0.000000000,0.002000000
1696856794.247138,444113.000000000,1696856794.245931625,0.097000000,-0.082000000,-0.034000000,-0.001000000,0.000000000,0.002000000
1696856794.249120,444114.000000000,1696856794.247911692,0.098000000,-0.083000000,-0.035000000,-0.001000000,0.000000000,0.002000000
1696856794.251229,444115.000000000,1696856794.249953032,0.100000000,-0.082000000,-0.037000000,-0.001000000,0.000000000,0.002000000
1696856794.253120,444116.000000000,1696856794.251910210,0.100000000,-0.080000000,-0.036000000,-0.001000000,0.000000000,0.002000000
1696856794.255239,444117.000000000,1696856794.253946066,0.102000000,-0.078000000,-0.036000000,-0.001000000,0.000000000,0.002000000
1696856794.257195,444118.000000000,1696856794.255905390,0.102000000,-0.076000000,-0.035000000,-0.001000000,0.000000000,0.001000000
1696856794.259412,444119.000000000,1696856794.258128405,0.104000000,-0.074000000,-0.036000000,-0.001000000,0.000000000,0.001000000
1696856794.261663,444120.000000000,1696856794.260101318,0.105000000,-0.074000000,-0.036000000,-0.001000000,0.000000000,0.001000000
1696856794.263176,444121.000000000,1696856794.261976242,0.106000000,-0.075000000,-0.037000000,-0.001000000,0.000000000,0.002000000
1696856794.265123,444122.000000000,1696856794.263884306,0.107000000,-0.077000000,-0.038000000,-0.001000000,0.000000000,0.002000000
1696856794.267091,444123.000000000,1696856794.265913248,0.109000000,-0.078000000,-0.038000000,-0.001000000,0.000000000,0.001000000
1696856794.269064,444124.000000000,1696856794.267878771,0.111000000,-0.079000000,-0.039000000,-0.001000000,0.000000000,0.001000000
1696856794.271043,444125.000000000,1696856794.269892454,0.112000000,-0.080000000,-0.040000000,-0.001000000,0.000000000,0.000000000
1696856794.273034,444126.000000000,1696856794.271932364,0.114000000,-0.080000000,-0.041000000,-0.001000000,0.000000000,0.000000000
1696856794.275031,444127.000000000,1696856794.273919344,0.115000000,-0.078000000,-0.042000000,-0.001000000,0.000000000,0.001000000
1696856794.277024,444128.000000000,1696856794.275915146,0.115000000,-0.076000000,-0.040000000,-0.001000000,0.000000000,0.001000000
1696856794.279013,444129.000000000,1696856794.277924538,0.115000000,-0.073000000,-0.040000000,-0.001000000,0.000000000,0.001000000
1696856794.281080,444130.000000000,1696856794.279917479,0.115000000,-0.071000000,-0.039000000,-0.001000000,0.000000000,0.001000000
1696856794.283054,444131.000000000,1696856794.281970024,0.116000000,-0.070000000,-0.042000000,-0.001000000,0.000000000,0.001000000
1696856794.285141,444132.000000000,1696856794.284006119,0.116000000,-0.070000000,-0.043000000,-0.001000000,0.000000000,0.000000000
1696856794.287049,444133.000000000,1696856794.285937548,0.117000000,-0.072000000,-0.045000000,-0.001000000,0.000000000,0.001000000
1696856794.289033,444134.000000000,1696856794.287905931,0.117000000,-0.073000000,-0.045000000,-0.001000000,0.000000000,0.001000000
1696856794.291311,444135.000000000,1696856794.289983273,0.117000000,-0.074000000,-0.046000000,-0.001000000,0.000000000,0.001000000
1696856794.293069,444136.000000000,1696856794.291939020,0.117000000,-0.076000000,-0.049000000,-0.001000000,0.000000000,0.001000000
1696856794.295040,444137.000000000,1696856794.293915510,0.116000000,-0.076000000,-0.051000000,-0.001000000,0.000000000,0.001000000
1696856794.297031,444138.000000000,1696856794.295910358,0.115000000,-0.075000000,-0.053000000,-0.001000000,0.000000000,0.001000000
1696856794.299030,444139.000000000,1696856794.297909260,0.114000000,-0.072000000,-0.055000000,-0.001000000,0.000000000,0.001000000
1696856794.301737,444140.000000000,1696856794.300006151,0.113000000,-0.070000000,-0.055000000,-0.001000000,0.000000000,0.001000000
1696856794.303078,444141.000000000,1696856794.301929951,0.111000000,-0.067000000,-0.057000000,-0.001000000,0.000000000,0.002000000
1696856794.305064,444142.000000000,1696856794.303950071,0.109000000,-0.065000000,-0.059000000,-0.001000000,0.000000000,0.002000000
1696856794.307376,444143.000000000,1696856794.305945635,0.107000000,-0.065000000,-0.063000000,-0.001000000,0.000000000,0.003000000
1696856794.309590,444144.000000000,1696856794.308453560,0.104000000,-0.066000000,-0.066000000,-0.001000000,0.000000000,0.003000000
1696856794.311069,444145.000000000,1696856794.309914351,0.103000000,-0.067000000,-0.072000000,-0.001000000,0.000000000,0.003000000
1696856794.313055,444146.000000000,1696856794.311896324,0.101000000,-0.069000000,-0.074000000,-0.001000000,0.000000000,0.003000000
1696856794.315120,444147.000000000,1696856794.313926935,0.100000000,-0.070000000,-0.078000000,-0.001000000,0.000000000,0.003000000
1696856794.317281,444148.000000000,1696856794.315963507,0.097000000,-0.071000000,-0.083000000,-0.001000000,0.000000000,0.003000000
1696856794.319130,444149.000000000,1696856794.317954540,0.094000000,-0.070000000,-0.086000000,-0.001000000,0.000000000,0.004000000
1696856794.321358,444150.000000000,1696856794.319961071,0.092000000,-0.068000000,-0.089000000,-0.001000000,0.000000000,0.004000000
1696856794.323042,444151.000000000,1696856794.321925640,0.089000000,-0.066000000,-0.093000000,-0.001000000,0.000000000,0.005000000
1696856794.325103,444152.000000000,1696856794.323949575,0.086000000,-0.063000000,-0.095000000,-0.001000000,-0.001000000,0.005000000
1696856794.327022,444153.000000000,1696856794.325925350,0.083000000,-0.061000000,-0.100000000,-0.001000000,-0.001000000,0.005000000
1696856794.329058,444154.000000000,1696856794.327962875,0.081000000,-0.060000000,-0.104000000,-0.001000000,-0.001000000,0.005000000
1696856794.331123,444155.000000000,1696856794.329929829,0.079000000,-0.060000000,-0.109000000,-0.001000000,-0.001000000,0.005000000
1696856794.333249,444156.000000000,1696856794.331945419,0.076000000,-0.062000000,-0.112000000,-0.001000000,-0.001000000,0.005000000
1696856794.335489,444157.000000000,1696856794.333940506,0.074000000,-0.064000000,-0.116000000,-0.001000000,-0.001000000,0.006000000
1696856794.337039,444158.000000000,1696856794.335922956,0.072000000,-0.066000000,-0.122000000,-0.001000000,-0.001000000,0.006000000
1696856794.339102,444159.000000000,1696856794.337930679,0.070000000,-0.067000000,-0.125000000,-0.001000000,-0.001000000,0.006000000
1696856794.341757,444160.000000000,1696856794.339942694,0.068000000,-0.066000000,-0.130000000,-0.001000000,-0.001000000,0.006000000
1696856794.343040,444161.000000000,1696856794.341924429,0.067000000,-0.065000000,-0.131000000,-0.001000000,-0.001000000,0.006000000
1696856794.345040,444162.000000000,1696856794.343908310,0.065000000,-0.062000000,-0.133000000,-0.001000000,-0.001000000,0.006000000
1696856794.347040,444163.000000000,1696856794.345924377,0.064000000,-0.060000000,-0.135000000,-0.001000000,-0.001000000,0.006000000
1696856794.349177,444164.000000000,1696856794.347945929,0.062000000,-0.058000000,-0.137000000,-0.001000000,-0.001000000,0.007000000
1696856794.351092,444165.000000000,1696856794.349961281,0.060000000,-0.057000000,-0.138000000,-0.001000000,-0.001000000,0.007000000
1696856794.353199,444166.000000000,1696856794.351929903,0.059000000,-0.058000000,-0.140000000,-0.001000000,-0.001000000,0.007000000
1696856794.355091,444167.000000000,1696856794.353922129,0.059000000,-0.059000000,-0.142000000,-0.001000000,-0.002000000,0.007000000
1696856794.357122,444168.000000000,1696856794.355929136,0.058000000,-0.061000000,-0.143000000,-0.001000000,-0.002000000,0.006000000
1696856794.359165,444169.000000000,1696856794.357969999,0.059000000,-0.063000000,-0.143000000,-0.001000000,-0.002000000,0.006000000
1696856794.361149,444170.000000000,1696856794.359935999,0.060000000,-0.065000000,-0.145000000,-0.001000000,-0.002000000,0.006000000
1696856794.363286,444171.000000000,1696856794.361946583,0.060000000,-0.066000000,-0.145000000,-0.001000000,-0.002000000,0.006000000
1696856794.365199,444172.000000000,1696856794.363969326,0.060000000,-0.065000000,-0.143000000,-0.001000000,-0.001000000,0.007000000
1696856794.367048,444173.000000000,1696856794.365940332,0.060000000,-0.064000000,-0.142000000,-0.001000000,-0.001000000,0.006000000
1696856794.369150,444174.000000000,1696856794.367949486,0.060000000,-0.062000000,-0.138000000,-0.001000000,-0.001000000,0.006000000
1696856794.371170,444175.000000000,1696856794.369924068,0.060000000,-0.061000000,-0.137000000,-0.001000000,-0.002000000,0.006000000
1696856794.373424,444176.000000000,1696856794.372103214,0.061000000,-0.059000000,-0.133000000,-0.001000000,-0.002000000,0.005000000
1696856794.375069,444177.000000000,1696856794.373900175,0.063000000,-0.060000000,-0.132000000,-0.001000000,-0.002000000,0.005000000
1696856794.377024,444178.000000000,1696856794.375892401,0.064000000,-0.062000000,-0.129000000,-0.001000000,-0.002000000,0.005000000
1696856794.379047,444179.000000000,1696856794.377927780,0.065000000,-0.064000000,-0.126000000,-0.001000000,-0.001000000,0.006000000
1696856794.381063,444180.000000000,1696856794.379897594,0.066000000,-0.066000000,-0.124000000,-0.001000000,-0.001000000,0.005000000
1696856794.383054,444181.000000000,1696856794.381922960,0.068000000,-0.069000000,-0.121000000,-0.001000000,-0.001000000,0.005000000
1696856794.385055,444182.000000000,1696856794.383898020,0.070000000,-0.071000000,-0.118000000,-0.001000000,-0.001000000,0.005000000
1696856794.387015,444183.000000000,1696856794.385929585,0.071000000,-0.071000000,-0.114000000,-0.001000000,-0.001000000,0.005000000
1696856794.389081,444184.000000000,1696856794.387928247,0.073000000,-0.071000000,-0.110000000,-0.001000000,-0.001000000,0.004000000
1696856794.391109,444185.000000000,1696856794.389933825,0.074000000,-0.069000000,-0.105000000,-0.001000000,-0.001000000,0.004000000
1696856794.393101,444186.000000000,1696856794.391917706,0.075000000,-0.067000000,-0.099000000,-0.001000000,-0.001000000,0.004000000
1696856794.395062,444187.000000000,1696856794.393948317,0.077000000,-0.066000000,-0.096000000,-0.002000000,-0.001000000,0.004000000
1696856794.397078,444188.000000000,1696856794.395942211,0.078000000,-0.066000000,-0.093000000,-0.002000000,-0.001000000,0.004000000
1696856794.399324,444189.000000000,1696856794.397921562,0.079000000,-0.067000000,-0.091000000,-0.002000000,-0.001000000,0.004000000
1696856794.401249,444190.000000000,1696856794.399945021,0.081000000,-0.070000000,-0.088000000,-0.001000000,-0.001000000,0.004000000
1696856794.403048,444191.000000000,1696856794.401926517,0.082000000,-0.072000000,-0.084000000,-0.001000000,-0.001000000,0.004000000
1696856794.405153,444192.000000000,1696856794.403951883,0.083000000,-0.074000000,-0.080000000,-0.001000000,-0.001000000,0.004000000
1696856794.407089,444193.000000000,1696856794.405961990,0.085000000,-0.076000000,-0.077000000,-0.001000000,-0.001000000,0.003000000
1696856794.409207,444194.000000000,1696856794.407978058,0.087000000,-0.077000000,-0.077000000,-0.001000000,-0.001000000,0.003000000
1696856794.411076,444195.000000000,1696856794.409923792,0.087000000,-0.077000000,-0.074000000,-0.001000000,0.000000000,0.003000000
1696856794.413091,444196.000000000,1696856794.411927700,0.088000000,-0.076000000,-0.071000000,-0.001000000,0.000000000,0.003000000
1696856794.415403,444197.000000000,1696856794.414013147,0.088000000,-0.074000000,-0.067000000,-0.001000000,0.000000000,0.003000000
1696856794.417066,444198.000000000,1696856794.415952682,0.088000000,-0.072000000,-0.063000000,-0.002000000,0.000000000,0.003000000
1696856794.419255,444199.000000000,1696856794.418080807,0.088000000,-0.071000000,-0.062000000,-0.002000000,0.000000000,0.003000000
1696856794.421573,444200.000000000,1696856794.420097351,0.089000000,-0.071000000,-0.061000000,-0.002000000,0.000000000,0.003000000
1696856794.423244,444201.000000000,1696856794.421930075,0.090000000,-0.072000000,-0.061000000,-0.001000000,0.000000000,0.002000000
1696856794.425121,444202.000000000,1696856794.423889875,0.090000000,-0.074000000,-0.060000000,-0.001000000,0.000000000,0.002000000
1696856794.427051,444203.000000000,1696856794.425881147,0.091000000,-0.077000000,-0.058000000,-0.001000000,0.000000000,0.002000000
1696856794.429197,444204.000000000,1696856794.427873135,0.091000000,-0.079000000,-0.058000000,-0.001000000,0.000000000,0.003000000
1696856794.431092,444205.000000000,1696856794.429894447,0.091000000,-0.080000000,-0.058000000,-0.001000000,0.000000000,0.003000000
1696856794.433821,444206.000000000,1696856794.431878328,0.091000000,-0.080000000,-0.059000000,-0.001000000,0.000000000,0.003000000
1696856794.434994,444207.000000000,1696856794.433853388,0.091000000,-0.078000000,-0.057000000,-0.001000000,0.000000000,0.002000000
1696856794.437281,444208.000000000,1696856794.435903788,0.091000000,-0.077000000,-0.056000000,-0.001000000,0.000000000,0.002000000
1696856794.439552,444209.000000000,1696856794.437967539,0.090000000,-0.075000000,-0.054000000,-0.001000000,0.000000000,0.002000000
1696856794.441239,444210.000000000,1696856794.439917326,0.090000000,-0.073000000,-0.053000000,-0.001000000,0.000000000,0.002000000
1696856794.443035,444211.000000000,1696856794.441892862,0.089000000,-0.073000000,-0.053000000,-0.001000000,0.000000000,0.002000000
1696856794.445033,444212.000000000,1696856794.443919659,0.087000000,-0.074000000,-0.052000000,-0.001000000,-0.001000000,0.003000000
1696856794.447057,444213.000000000,1696856794.445941210,0.087000000,-0.076000000,-0.052000000,-0.001000000,-0.001000000,0.002000000
1696856794.449239,444214.000000000,1696856794.447983980,0.087000000,-0.079000000,-0.053000000,-0.001000000,-0.001000000,0.002000000
1696856794.451029,444215.000000000,1696856794.449925900,0.088000000,-0.081000000,-0.053000000,-0.001000000,-0.001000000,0.002000000
1696856794.453049,444216.000000000,1696856794.451930523,0.088000000,-0.082000000,-0.053000000,-0.001000000,-0.001000000,0.002000000
1696856794.455078,444217.000000000,1696856794.453952074,0.087000000,-0.083000000,-0.053000000,-0.001000000,-0.001000000,0.002000000
1696856794.457081,444218.000000000,1696856794.455915928,0.087000000,-0.083000000,-0.051000000,-0.001000000,-0.001000000,0.002000000
1696856794.459092,444219.000000000,1696856794.457961559,0.086000000,-0.082000000,-0.050000000,-0.001000000,-0.001000000,0.002000000
1696856794.461273,444220.000000000,1696856794.460110664,0.085000000,-0.080000000,-0.048000000,-0.001000000,-0.001000000,0.002000000
1696856794.463075,444221.000000000,1696856794.461931229,0.084000000,-0.078000000,-0.047000000,-0.001000000,-0.001000000,0.002000000
1696856794.465178,444222.000000000,1696856794.464033842,0.084000000,-0.077000000,-0.046000000,-0.001000000,-0.001000000,0.002000000
1696856794.467081,444223.000000000,1696856794.465921879,0.084000000,-0.078000000,-0.046000000,-0.001000000,-0.001000000,0.002000000
1696856794.469101,444224.000000000,1696856794.467937469,0.083000000,-0.080000000,-0.044000000,-0.001000000,-0.001000000,0.002000000
1696856794.471072,444225.000000000,1696856794.469935179,0.084000000,-0.082000000,-0.043000000,-0.001000000,-0.001000000,0.002000000
1696856794.473020,444226.000000000,1696856794.471909285,0.084000000,-0.085000000,-0.043000000,-0.001000000,-0.001000000,0.002000000
1696856794.475038,444227.000000000,1696856794.473924875,0.083000000,-0.087000000,-0.044000000,-0.001000000,-0.001000000,0.002000000
1696856794.477122,444228.000000000,1696856794.475983858,0.083000000,-0.088000000,-0.042000000,-0.001000000,-0.001000000,0.002000000
1696856794.479084,444229.000000000,1696856794.477962971,0.083000000,-0.088000000,-0.041000000,-0.001000000,-0.001000000,0.002000000
1696856794.481426,444230.000000000,1696856794.479939938,0.083000000,-0.087000000,-0.039000000,-0.001000000,-0.001000000,0.002000000
1696856794.483665,444231.000000000,1696856794.481996536,0.083000000,-0.085000000,-0.037000000,-0.001000000,-0.001000000,0.002000000
1696856794.485226,444232.000000000,1696856794.483971834,0.082000000,-0.083000000,-0.035000000,-0.001000000,-0.001000000,0.002000000
1696856794.487221,444233.000000000,1696856794.485972881,0.082000000,-0.082000000,-0.035000000,-0.001000000,-0.001000000,0.002000000
1696856794.489189,444234.000000000,1696856794.487939835,0.081000000,-0.082000000,-0.033000000,-0.001000000,-0.001000000,0.003000000
1696856794.491249,444235.000000000,1696856794.489965916,0.081000000,-0.083000000,-0.033000000,-0.001000000,-0.001000000,0.003000000
1696856794.493207,444236.000000000,1696856794.491955757,0.081000000,-0.085000000,-0.032000000,-0.001000000,-0.001000000,0.002000000
1696856794.495115,444237.000000000,1696856794.493931532,0.082000000,-0.087000000,-0.032000000,-0.001000000,-0.001000000,0.002000000
1696856794.497107,444238.000000000,1696856794.495933771,0.082000000,-0.089000000,-0.032000000,-0.001000000,-0.001000000,0.002000000
1696856794.499208,444239.000000000,1696856794.497991085,0.082000000,-0.090000000,-0.031000000,-0.001000000,-0.001000000,0.002000000
1696856794.501468,444240.000000000,1696856794.500027895,0.083000000,-0.090000000,-0.031000000,-0.001000000,-0.001000000,0.003000000
1696856794.503080,444241.000000000,1696856794.501955748,0.082000000,-0.089000000,-0.030000000,-0.001000000,-0.001000000,0.003000000
1696856794.505133,444242.000000000,1696856794.503965139,0.082000000,-0.087000000,-0.030000000,-0.001000000,-0.001000000,0.003000000
1696856794.507159,444243.000000000,1696856794.505970716,0.081000000,-0.084000000,-0.028000000,-0.001000000,-0.001000000,0.003000000
1696856794.509378,444244.000000000,1696856794.507966757,0.081000000,-0.082000000,-0.028000000,-0.001000000,-0.001000000,0.003000000
1696856794.511069,444245.000000000,1696856794.509938955,0.081000000,-0.081000000,-0.028000000,-0.001000000,-0.001000000,0.003000000
1696856794.513063,444246.000000000,1696856794.511936426,0.082000000,-0.080000000,-0.028000000,-0.001000000,-0.001000000,0.003000000
1696856794.515224,444247.000000000,1696856794.514084816,0.083000000,-0.081000000,-0.028000000,-0.001000000,-0.001000000,0.003000000
1696856794.517154,444248.000000000,1696856794.515951872,0.083000000,-0.083000000,-0.029000000,-0.001000000,-0.001000000,0.003000000
1696856794.519092,444249.000000000,1696856794.517962694,0.083000000,-0.085000000,-0.030000000,-0.001000000,-0.001000000,0.004000000
1696856794.521090,444250.000000000,1696856794.519936085,0.084000000,-0.086000000,-0.030000000,-0.001000000,-0.001000000,0.004000000
1696856794.523080,444251.000000000,1696856794.521947384,0.085000000,-0.085000000,-0.032000000,-0.001000000,-0.001000000,0.003000000
1696856794.525099,444252.000000000,1696856794.523942947,0.085000000,-0.084000000,-0.031000000,-0.001000000,-0.001000000,0.003000000
1696856794.527091,444253.000000000,1696856794.525970221,0.086000000,-0.082000000,-0.030000000,-0.001000000,-0.001000000,0.003000000
1696856794.529118,444254.000000000,1696856794.527922630,0.086000000,-0.079000000,-0.030000000,-0.001000000,-0.001000000,0.004000000
1696856794.531055,444255.000000000,1696856794.529929876,0.086000000,-0.076000000,-0.029000000,-0.002000000,-0.001000000,0.004000000
1696856794.533154,444256.000000000,1696856794.531959295,0.086000000,-0.073000000,-0.028000000,-0.002000000,-0.001000000,0.003000000
1696856794.535088,444257.000000000,1696856794.533948660,0.087000000,-0.073000000,-0.029000000,-0.002000000,-0.001000000,0.003000000
1696856794.537120,444258.000000000,1696856794.535942316,0.087000000,-0.074000000,-0.031000000,-0.002000000,-0.001000000,0.003000000
1696856794.539041,444259.000000000,1696856794.537929296,0.088000000,-0.075000000,-0.032000000,-0.002000000,-0.001000000,0.003000000
1696856794.541472,444260.000000000,1696856794.539970160,0.089000000,-0.076000000,-0.031000000,-0.001000000,-0.001000000,0.003000000
1696856794.543044,444261.000000000,1696856794.541930914,0.090000000,-0.077000000,-0.030000000,-0.001000000,-0.001000000,0.003000000
1696856794.545106,444262.000000000,1696856794.543928623,0.091000000,-0.077000000,-0.029000000,-0.001000000,-0.001000000,0.003000000
1696856794.547031,444263.000000000,1696856794.545931339,0.092000000,-0.077000000,-0.031000000,-0.001000000,0.000000000,0.003000000
1696856794.549203,444264.000000000,1696856794.547974586,0.093000000,-0.075000000,-0.031000000,-0.001000000,0.000000000,0.003000000
1696856794.551106,444265.000000000,1696856794.549932957,0.093000000,-0.073000000,-0.030000000,-0.001000000,0.000000000,0.003000000
1696856794.553177,444266.000000000,1696856794.551947832,0.094000000,-0.070000000,-0.028000000,-0.002000000,0.000000000,0.003000000
1696856794.555133,444267.000000000,1696856794.553961992,0.095000000,-0.068000000,-0.027000000,-0.002000000,0.000000000,0.002000000
1696856794.557158,444268.000000000,1696856794.556017637,0.095000000,-0.067000000,-0.025000000,-0.002000000,0.000000000,0.002000000
1696856794.559084,444269.000000000,1696856794.557962894,0.096000000,-0.067000000,-0.025000000,-0.002000000,0.000000000,0.002000000
1696856794.561081,444270.000000000,1696856794.559935808,0.097000000,-0.069000000,-0.025000000,-0.002000000,0.000000000,0.002000000
1696856794.563035,444271.000000000,1696856794.561918974,0.098000000,-0.071000000,-0.024000000,-0.001000000,0.000000000,0.002000000
1696856794.565315,444272.000000000,1696856794.564136267,0.099000000,-0.074000000,-0.024000000,-0.001000000,0.000000000,0.002000000
1696856794.567054,444273.000000000,1696856794.565908909,0.099000000,-0.075000000,-0.024000000,-0.001000000,0.000000000,0.001000000
1696856794.569072,444274.000000000,1696856794.567911386,0.100000000,-0.076000000,-0.023000000,-0.001000000,0.000000000,0.001000000
1696856794.571088,444275.000000000,1696856794.569959879,0.101000000,-0.075000000,-0.022000000,-0.001000000,0.000000000,0.001000000
1696856794.573093,444276.000000000,1696856794.571921110,0.101000000,-0.074000000,-0.022000000,-0.001000000,0.000000000,0.001000000
1696856794.575148,444277.000000000,1696856794.573942423,0.102000000,-0.072000000,-0.020000000,-0.001000000,0.000000000,0.001000000
1696856794.577155,444278.000000000,1696856794.575961113,0.102000000,-0.070000000,-0.020000000,-0.001000000,0.000000000,0.001000000
1696856794.579478,444279.000000000,1696856794.577949524,0.102000000,-0.069000000,-0.021000000,-0.001000000,0.000000000,0.001000000
1696856794.581592,444280.000000000,1696856794.579959154,0.102000000,-0.070000000,-0.021000000,-0.001000000,0.000000000,0.001000000
1696856794.583175,444281.000000000,1696856794.581959248,0.102000000,-0.072000000,-0.022000000,-0.001000000,0.000000000,0.001000000
1696856794.585086,444282.000000000,1696856794.583940983,0.103000000,-0.074000000,-0.024000000,-0.001000000,0.000000000,0.001000000
1696856794.587080,444283.000000000,1696856794.585947990,0.104000000,-0.076000000,-0.024000000,-0.001000000,0.000000000,0.001000000
1696856794.589148,444284.000000000,1696856794.587938786,0.104000000,-0.079000000,-0.026000000,-0.001000000,0.000000000,0.001000000
1696856794.591114,444285.000000000,1696856794.589961290,0.105000000,-0.080000000,-0.029000000,-0.001000000,0.000000000,0.001000000
1696856794.593173,444286.000000000,1696856794.591994524,0.105000000,-0.080000000,-0.033000000,-0.001000000,0.000000000,0.001000000
1696856794.595267,444287.000000000,1696856794.593967438,0.105000000,-0.079000000,-0.034000000,-0.001000000,0.000000000,0.001000000
1696856794.597135,444288.000000000,1696856794.595951319,0.105000000,-0.077000000,-0.036000000,-0.001000000,0.000000000,0.001000000
1696856794.600924,444289.000000000,1696856794.598898649,0.105000000,-0.074000000,-0.038000000,-0.001000000,0.000000000,0.001000000
1696856794.601410,444290.000000000,1696856794.599926949,0.105000000,-0.073000000,-0.043000000,-0.001000000,0.000000000,0.002000000
1696856794.603708,444291.000000000,1696856794.602442741,0.105000000,-0.072000000,-0.047000000,-0.001000000,0.000000000,0.002000000
1696856794.605381,444292.000000000,1696856794.603951216,0.105000000,-0.073000000,-0.052000000,-0.001000000,0.000000000,0.002000000
1696856794.607107,444293.000000000,1696856794.605935812,0.105000000,-0.074000000,-0.057000000,-0.001000000,0.000000000,0.002000000
1696856794.609090,444294.000000000,1696856794.607935429,0.105000000,-0.076000000,-0.061000000,-0.001000000,0.000000000,0.002000000
1696856794.611131,444295.000000000,1696856794.609928846,0.106000000,-0.077000000,-0.067000000,-0.001000000,0.000000000,0.002000000
1696856794.613100,444296.000000000,1696856794.611941814,0.106000000,-0.078000000,-0.073000000,-0.001000000,0.000000000,0.003000000
1696856794.615122,444297.000000000,1696856794.613970757,0.106000000,-0.077000000,-0.078000000,-0.001000000,0.000000000,0.003000000
1696856794.617071,444298.000000000,1696856794.615967989,0.106000000,-0.075000000,-0.083000000,-0.001000000,0.000000000,0.003000000
1696856794.619040,444299.000000000,1696856794.617940903,0.107000000,-0.072000000,-0.088000000,-0.001000000,0.000000000,0.003000000
1696856794.621213,444300.000000000,1696856794.619968176,0.106000000,-0.069000000,-0.092000000,-0.001000000,0.000000000,0.004000000
1696856794.623103,444301.000000000,1696856794.621969461,0.106000000,-0.066000000,-0.097000000,-0.001000000,0.000000000,0.004000000
1696856794.625193,444302.000000000,1696856794.623970270,0.106000000,-0.064000000,-0.103000000,-0.001000000,0.000000000,0.004000000
1696856794.627052,444303.000000000,1696856794.625936031,0.107000000,-0.062000000,-0.109000000,-0.001000000,0.000000000,0.004000000
1696856794.629134,444304.000000000,1696856794.627977610,0.107000000,-0.062000000,-0.114000000,-0.001000000,0.000000000,0.004000000
1696856794.631089,444305.000000000,1696856794.629936457,0.108000000,-0.063000000,-0.119000000,-0.001000000,0.000000000,0.004000000
1696856794.633410,444306.000000000,1696856794.631968021,0.108000000,-0.063000000,-0.122000000,-0.001000000,0.000000000,0.005000000
1696856794.635140,444307.000000000,1696856794.633994341,0.109000000,-0.064000000,-0.127000000,-0.001000000,0.000000000,0.005000000
1696856794.637177,444308.000000000,1696856794.635961294,0.109000000,-0.063000000,-0.131000000,-0.001000000,0.000000000,0.005000000
1696856794.639073,444309.000000000,1696856794.637924910,0.110000000,-0.060000000,-0.134000000,-0.001000000,0.000000000,0.005000000
1696856794.641126,444310.000000000,1696856794.639931202,0.110000000,-0.058000000,-0.136000000,-0.001000000,0.000000000,0.005000000
1696856794.643244,444311.000000000,1696856794.641936064,0.110000000,-0.054000000,-0.137000000,-0.001000000,0.000000000,0.005000000
1696856794.645418,444312.000000000,1696856794.643954039,0.109000000,-0.051000000,-0.138000000,-0.001000000,0.000000000,0.005000000
1696856794.647134,444313.000000000,1696856794.645952463,0.110000000,-0.048000000,-0.137000000,-0.001000000,0.000000000,0.005000000
1696856794.649106,444314.000000000,1696856794.647934198,0.110000000,-0.047000000,-0.140000000,-0.001000000,0.000000000,0.005000000
1696856794.651121,444315.000000000,1696856794.649944544,0.110000000,-0.047000000,-0.139000000,-0.001000000,0.000000000,0.005000000
1696856794.653069,444316.000000000,1696856794.651952744,0.111000000,-0.048000000,-0.140000000,-0.001000000,0.000000000,0.005000000
1696856794.655034,444317.000000000,1696856794.653935432,0.111000000,-0.049000000,-0.139000000,-0.001000000,0.000000000,0.005000000
1696856794.657127,444318.000000000,1696856794.655922174,0.111000000,-0.051000000,-0.137000000,-0.001000000,0.000000000,0.005000000
1696856794.659205,444319.000000000,1696856794.658043146,0.112000000,-0.051000000,-0.134000000,-0.001000000,0.000000000,0.005000000
1696856794.661197,444320.000000000,1696856794.659964323,0.112000000,-0.051000000,-0.133000000,-0.001000000,0.000000000,0.005000000
1696856794.663145,444321.000000000,1696856794.661965609,0.112000000,-0.050000000,-0.130000000,-0.001000000,0.000000000,0.005000000
1696856794.665242,444322.000000000,1696856794.663988590,0.111000000,-0.048000000,-0.126000000,-0.001000000,0.000000000,0.005000000
1696856794.667079,444323.000000000,1696856794.665959835,0.111000000,-0.045000000,-0.119000000,-0.002000000,0.000000000,0.005000000
1696856794.669455,444324.000000000,1696856794.667959452,0.110000000,-0.044000000,-0.115000000,-0.002000000,0.000000000,0.004000000
1696856794.671133,444325.000000000,1696856794.669936657,0.110000000,-0.043000000,-0.110000000,-0.002000000,0.000000000,0.004000000
1696856794.673084,444326.000000000,1696856794.671923161,0.110000000,-0.045000000,-0.107000000,-0.002000000,0.000000000,0.004000000
1696856794.675193,444327.000000000,1696856794.673998117,0.109000000,-0.047000000,-0.102000000,-0.002000000,0.000000000,0.004000000
1696856794.677194,444328.000000000,1696856794.675962210,0.109000000,-0.050000000,-0.097000000,-0.002000000,0.000000000,0.004000000
1696856794.679139,444329.000000000,1696856794.677959681,0.108000000,-0.053000000,-0.091000000,-0.001000000,0.000000000,0.004000000
