__time,/hsrb/joint_states/arm_flex_joint/effort,/hsrb/joint_states/arm_flex_joint/position,/hsrb/joint_states/arm_flex_joint/velocity,/hsrb/joint_states/arm_lift_joint/effort,/hsrb/joint_states/arm_lift_joint/position,/hsrb/joint_states/arm_lift_joint/velocity,/hsrb/joint_states/arm_roll_joint/effort,/hsrb/joint_states/arm_roll_joint/position,/hsrb/joint_states/arm_roll_joint/velocity,/hsrb/joint_states/base_l_drive_wheel_joint/effort,/hsrb/joint_states/base_l_drive_wheel_joint/position,/hsrb/joint_states/base_l_drive_wheel_joint/velocity,/hsrb/joint_states/base_r_drive_wheel_joint/effort,/hsrb/joint_states/base_r_drive_wheel_joint/position,/hsrb/joint_states/base_r_drive_wheel_joint/velocity,/hsrb/joint_states/base_roll_joint/effort,/hsrb/joint_states/base_roll_joint/position,/hsrb/joint_states/base_roll_joint/velocity,/hsrb/joint_states/hand_l_spring_proximal_joint/effort,/hsrb/joint_states/hand_l_spring_proximal_joint/position,/hsrb/joint_states/hand_l_spring_proximal_joint/velocity,/hsrb/joint_states/hand_motor_joint/effort,/hsrb/joint_states/hand_motor_joint/position,/hsrb/joint_states/hand_motor_joint/velocity,/hsrb/joint_states/hand_r_spring_proximal_joint/effort,/hsrb/joint_states/hand_r_spring_proximal_joint/position,/hsrb/joint_states/hand_r_spring_proximal_joint/velocity,/hsrb/joint_states/head_pan_joint/effort,/hsrb/joint_states/head_pan_joint/position,/hsrb/joint_states/head_pan_joint/velocity,/hsrb/joint_states/head_tilt_joint/effort,/hsrb/joint_states/head_tilt_joint/position,/hsrb/joint_states/head_tilt_joint/velocity,/hsrb/joint_states/header/seq,/hsrb/joint_states/header/stamp,/hsrb/joint_states/wrist_flex_joint/effort,/hsrb/joint_states/wrist_flex_joint/position,/hsrb/joint_states/wrist_flex_joint/velocity,/hsrb/joint_states/wrist_roll_joint/effort,/hsrb/joint_states/wrist_roll_joint/position,/hsrb/joint_states/wrist_roll_joint/velocity,/hsrb/pressure_sensor/data,/hsrb/wrist_wrench/compensated/header/seq,/hsrb/wrist_wrench/compensated/header/stamp,/hsrb/wrist_wrench/compensated/wrench/force/x,/hsrb/wrist_wrench/compensated/wrench/force/y,/hsrb/wrist_wrench/compensated/wrench/force/z,/hsrb/wrist_wrench/compensated/wrench/torque/x,/hsrb/wrist_wrench/compensated/wrench/torque/y,/hsrb/wrist_wrench/compensated/wrench/torque/z
1692875642.288883,1.180936,-0.025652,-0.000880,-45.403973,0.000942,0.000008,0.104880,0.001453,-0.000046,0.000000,-2.880301,0.000653,-0.018879,3.094148,-0.001266,-0.176640,-1.874410,-0.007456,-0.902000,0.134363,0.001000,0.006549,0.504636,0.002954,-0.551000,0.199363,0.001000,0.073600,-0.000015,0.000138,-1.248571,-0.000003,0.000038,17129.000000,1692875642.279087,0.662400,-1.570003,-0.000048,-0.042057,0.000153,0.000048,,,,,,,,,
1692875642.310244,0.922101,-0.025652,0.000018,-45.403973,0.000942,0.000008,0.143520,0.001453,-0.000046,0.000000,-2.880301,0.000653,-0.008091,3.094148,-0.001049,0.077280,-1.874389,0.005717,-0.902000,0.135363,0.004999,0.000000,0.504636,0.000000,-0.551000,0.199363,0.001000,0.160080,-0.000015,0.000138,-1.228857,-0.000003,0.000038,17130.000000,1692875642.299062,0.667657,-1.570003,-0.000048,-0.010514,0.000153,0.000048,,,,,,,,,
1692875642.333681,0.614734,-0.025652,-0.001147,-46.277126,0.000942,0.000008,0.126960,0.001453,-0.000046,-0.002697,-2.880301,0.000653,-0.010788,3.094148,-0.000653,-0.132480,-1.874400,-0.002178,-0.898000,0.136363,0.004999,0.001637,0.504636,0.000000,-0.550000,0.200363,0.009999,0.134320,-0.000015,0.000138,-1.150000,-0.000003,0.000038,17131.000000,1692875642.319061,0.667657,-1.570003,-0.000048,0.042057,0.000153,0.000048,,,,,,,,,
1692875642.347699,0.339721,-0.025652,-0.000018,-46.277126,0.000942,0.000008,0.082800,0.001453,-0.000046,0.002697,-2.880301,0.000653,-0.010788,3.094148,-0.000653,0.099360,-1.874389,0.008021,-0.898000,0.136363,0.008999,0.003683,0.504636,0.002954,-0.552000,0.198364,0.000000,0.139840,-0.000015,0.000138,-1.242000,-0.000003,0.000038,17132.000000,1692875642.339061,0.778057,-1.570003,-0.000048,0.068343,0.000153,0.000048,,,,,,,,,
1692875642.370272,0.355898,-0.025652,0.000246,-46.568177,0.000942,0.000008,0.055200,0.001453,-0.000046,0.002697,-2.880301,0.000653,0.005394,3.094148,-0.001167,-0.044160,-1.874400,-0.001319,-0.897000,0.138136,0.008999,0.001637,0.502863,-0.002363,-0.551000,0.199137,0.001000,0.149040,-0.000015,0.000138,-1.320857,-0.000003,0.000038,17133.000000,1692875642.359086,0.678171,-1.570003,-0.000048,0.000000,0.000153,0.000048,,,,,,,,,
1692875642.389553,0.161772,-0.025652,0.000280,-44.821870,0.000941,-0.000008,0.077280,0.001453,-0.000046,0.005394,-2.880301,0.000653,-0.013485,3.094148,-0.000653,-0.066240,-1.874400,-0.002890,-0.893000,0.139363,0.013000,0.000408,0.504636,-0.007681,-0.555000,0.196363,-0.013000,0.136160,-0.000015,0.000138,-1.288000,-0.000003,0.000038,17134.000000,1692875642.379064,0.720229,-1.570003,-0.000048,-0.005257,0.000153,0.000048,,,,,,,,,
1692875642.415389,0.970632,-0.025652,-0.000018,-45.112921,0.000941,-0.000008,0.077280,0.001453,-0.000046,-0.008091,-2.880301,0.000653,-0.016182,3.094148,-0.001207,-0.033120,-1.874389,0.005801,-0.894000,0.137364,0.016000,0.001637,0.504636,0.001181,-0.558000,0.196363,-0.013000,0.051520,-0.000015,0.000138,-1.235429,-0.000003,0.000038,17135.000000,1692875642.399058,0.746514,-1.570003,-0.000048,0.010514,0.000153,0.000048,,,,,,,,,
1692875642.431408,1.617720,-0.025652,-0.000054,-44.530819,0.000941,-0.000008,0.154560,0.001453,-0.000046,0.002697,-2.880301,0.000653,-0.008091,3.094148,-0.000989,-0.154560,-1.874389,0.005256,-0.898000,0.134954,0.010999,0.002454,0.504045,0.001181,-0.551000,0.200954,-0.008000,0.077280,-0.000015,0.000138,-1.347143,-0.000003,0.000038,17136.000000,1692875642.419062,0.757029,-1.570003,-0.000048,0.063086,0.000153,0.000048,,,,,,,,,
1692875642.454383,0.663265,-0.025652,0.000036,-44.239768,0.000941,-0.000008,0.049680,0.001453,-0.000046,0.010788,-2.880301,0.000653,-0.005394,3.094148,-0.001227,-0.066240,-1.874389,0.001277,-0.897000,0.135772,0.001000,-0.000817,0.505227,0.004136,-0.552000,0.198772,0.002000,0.152720,-0.000015,0.000138,-1.255143,-0.000003,0.000038,17137.000000,1692875642.439064,0.688686,-1.570003,-0.000048,0.000000,0.000153,0.000048,,,,,,,,,
1692875642.472300,0.598556,-0.025652,0.000042,-43.948717,0.000941,-0.000008,0.049680,0.001453,-0.000046,-0.002697,-2.880301,0.000653,-0.008091,3.094148,-0.000890,-0.110400,-1.874400,-0.001612,-0.896000,0.136773,0.008999,0.004912,0.505227,0.009454,-0.555000,0.197773,0.006000,0.156400,-0.000015,0.000138,-1.235429,-0.000003,0.000038,17138.000000,1692875642.459066,0.651886,-1.570003,-0.000048,0.000000,0.000153,0.000048,,,,,,,,,
1692875642.490850,,,,,,,,,,,,,,,,,,,,,,,,,,,,,,,,,,,,,,,,,,0.000000,,,,,,,,
1692875642.496551,0.760329,-0.025652,0.000383,-43.657666,0.000941,-0.000008,0.055200,0.001453,-0.000046,0.000000,-2.880301,0.000653,-0.010788,3.094148,-0.000653,0.000000,-1.874389,0.004618,-0.893000,0.137955,-0.001000,0.002046,0.504045,0.000590,-0.556000,0.196954,-0.008000,0.130640,-0.000015,0.000138,-1.294571,-0.000003,0.000038,17139.000000,1692875642.479065,0.704457,-1.570003,-0.000048,-0.099886,0.000153,0.000048,,,,,,,,,
1692875642.512212,0.938278,-0.025652,-0.000311,-44.239768,0.000942,0.000008,0.016560,0.001453,-0.000046,0.000000,-2.880301,0.000653,-0.008091,3.094148,-0.000653,-0.342240,-1.874400,-0.003445,-0.892000,0.138364,0.008999,0.001225,0.504636,-0.002363,-0.558000,0.196363,-0.012000,0.097520,-0.000015,0.000138,-1.222286,-0.000003,0.000038,17140.000000,1692875642.499066,0.699200,-1.570003,-0.000048,0.031543,0.000153,0.000048,,,,,,,,,
1692875642.535602,1.682429,-0.025652,0.000034,-44.530819,0.000942,0.000008,0.082800,0.001453,-0.000046,-0.005394,-2.880301,0.000653,-0.005394,3.094148,-0.000950,0.044160,-1.874400,0.004565,-0.892000,0.136773,0.013000,-0.001225,0.505227,0.002954,-0.560000,0.195772,-0.016000,0.112240,-0.000015,0.000138,-1.215714,-0.000003,0.000038,17141.000000,1692875642.519105,0.630857,-1.570003,-0.000048,0.089371,0.000153,0.000048,,,,,,,,,
1692875642.555133,2.232454,-0.025652,0.001324,-44.821870,0.000942,0.000008,0.082800,0.001453,-0.000046,0.000000,-2.880301,0.000653,-0.005394,3.094168,0.003978,-0.209760,-1.874400,0.000094,-0.894000,0.134772,-0.007000,-0.000408,0.505227,0.002954,-0.560000,0.195772,-0.001000,0.169280,-0.000015,0.000138,-1.235429,-0.000003,0.000038,17142.000000,1692875642.539063,0.804343,-1.570003,-0.000048,-0.015771,0.000153,0.000048,,,,,,,,,
1692875642.565923,,,,,,,,,,,,,,,,,,,,,,,,,,,,,,,,,,,,,,,,,,,33420.000000,1692875642.551524,0.000000,0.000000,0.000000,0.000000,0.000000,0.000000
1692875642.570061,1.391239,-0.025652,0.001141,-45.112921,0.000942,0.000008,0.066240,0.001453,-0.000046,-0.002697,-2.880301,0.000653,-0.018879,3.094168,0.002909,-0.110400,-1.874410,-0.000932,-0.893000,0.136363,0.003000,-0.000408,0.504636,0.002954,-0.560000,0.196363,-0.009999,0.097520,-0.000015,0.000138,-1.281429,-0.000003,0.000038,17143.000000,1692875642.559062,0.672914,-1.570003,-0.000048,0.015771,0.000153,0.000048,,,,,,,,,
1692875642.577347,,,,,,,,,,,,,,,,,,,,,,,,,,,,,,,,,,,,,,,,,,,33421.000000,1692875642.561537,0.000000,0.000000,0.000000,0.000000,0.000000,0.000000
1692875642.588263,,,,,,,,,,,,,,,,,,,,,,,,,,,,,,,,,,,,,,,,,,,33423.000000,1692875642.581506,0.000000,0.000000,0.000000,0.000000,0.000000,0.000000
1692875642.591708,1.002987,-0.025652,-0.000999,-45.112921,0.000942,0.000008,0.171120,0.001453,-0.000046,0.000000,-2.880301,0.000653,-0.005394,3.094168,0.002830,-0.375360,-1.874400,0.002450,-0.897000,0.133772,0.007000,0.001225,0.505227,0.002954,-0.560000,0.196773,-0.004999,0.108560,-0.000015,0.000138,-1.261714,-0.000003,0.000038,17144.000000,1692875642.579066,0.620343,-1.570003,-0.000048,-0.042057,0.000153,0.000048,,,,,,,,,
1692875642.598849,,,,,,,,,,,,,,,,,,,,,,,,,,,,,,,,,,,,,,,,,,0.000000,,,,,,,,
1692875642.606138,,,,,,,,,,,,,,,,,,,,,,,,,,,,,,,,,,,,,,,,,,,33424.000000,1692875642.591551,0.000000,0.000000,0.000000,0.000000,0.000000,0.000000
1692875642.610892,1.261822,-0.025652,-0.000018,-45.403973,0.000942,0.000008,0.198720,0.001453,-0.000046,-0.013485,-2.880301,0.000653,0.000000,3.094148,-0.000732,-0.187680,-1.874410,-0.005445,-0.898000,0.133181,-0.008000,0.000817,0.505818,0.002954,-0.560000,0.195181,0.000000,0.134320,-0.000015,0.000138,-1.268286,-0.000003,0.000038,17145.000000,1692875642.599061,0.741257,-1.570003,-0.000048,-0.042057,0.000153,0.000048,,,,,,,,,
1692875642.613579,,,,,,,,,,,,,,,,,,,,,,,,,,,,,,,,,,,,,,,,,,,33425.000000,1692875642.601417,0.000000,0.000000,0.000000,0.000000,0.000000,0.000000
1692875642.625850,,,,,,,,,,,,,,,,,,,,,,,,,,,,,,,,,,,,,,,,,,,33426.000000,1692875642.612788,0.000000,0.000000,0.000000,0.000000,0.000000,0.000000
1692875642.630957,,,,,,,,,,,,,,,,,,,,,,,,,,,,,,,,,,,,,,,,,,,33427.000000,1692875642.621445,0.000000,0.000000,0.000000,0.000000,0.000000,0.000000
1692875642.633607,1.925087,-0.025652,-0.000018,-45.695024,0.000942,0.000008,0.071760,0.001453,-0.000046,-0.005394,-2.880301,0.000653,-0.016182,3.094148,-0.001761,-0.187680,-1.874389,0.006251,-0.897000,0.135363,-0.008000,0.002454,0.504636,-0.000590,-0.560000,0.195363,-0.009999,0.051520,-0.000015,0.000138,-1.288000,-0.000003,0.000038,17146.000000,1692875642.619066,0.678171,-1.570003,-0.000048,-0.036800,0.000153,0.000048,,,,,,,,,
1692875642.645012,,,,,,,,,,,,,,,,,,,,,,,,,,,,,,,,,,,,,,,,,,,33428.000000,1692875642.631513,0.000000,0.000000,0.000000,0.000000,0.000000,0.000000
1692875642.649521,0.388253,-0.025652,-0.001074,-45.695024,0.000942,0.000008,0.027600,0.001453,-0.000046,-0.005394,-2.880301,0.000653,-0.010788,3.094168,0.002098,-0.055200,-1.874400,0.000324,-0.902000,0.131363,-0.017000,-0.000817,0.504636,-0.000590,-0.554000,0.200363,0.001000,0.180320,-0.000015,0.000138,-1.110571,-0.000003,0.000038,17147.000000,1692875642.639059,0.678171,-1.570003,-0.000048,0.015771,0.000153,0.000048,,,,,,,,,
1692875642.656711,,,,,,,,,,,,,,,,,,,,,,,,,,,,,,,,,,,,,,,,,,,33429.000000,1692875642.641775,0.000000,0.000000,0.000000,0.000000,0.000000,0.000000
1692875642.660357,,,,,,,,,,,,,,,,,,,,,,,,,,,,,,,,,,,,,,,,,,,33430.000000,1692875642.651557,0.000000,0.000000,0.000000,0.000000,0.000000,0.000000
1692875642.667725,,,,,,,,,,,,,,,,,,,,,,,,,,,,,,,,,,,,,,,,,,,33431.000000,1692875642.661280,0.000000,0.000000,0.000000,0.000000,0.000000,0.000000
1692875642.667736,1.957442,-0.025652,0.000080,-46.568177,0.000942,0.000008,0.082800,0.001453,-0.000046,0.002697,-2.880301,0.000653,-0.002697,3.094168,0.003186,-0.022080,-1.874389,0.005916,-0.903000,0.131363,-0.024000,0.003683,0.504636,-0.000590,-0.549000,0.202364,0.024000,0.193200,-0.000015,0.000138,-1.288000,-0.000003,0.000038,17148.000000,1692875642.659060,0.809600,-1.570003,-0.000048,-0.026286,0.000153,0.000048,,,,,,,,,
1692875642.677781,1.229467,-0.025652,0.000018,-46.277126,0.000942,0.000008,0.044160,0.001453,-0.000046,0.002697,-2.880301,0.000653,-0.013485,3.094148,-0.000653,-0.143520,-1.874410,-0.009068,-0.906000,0.130363,-0.017999,0.002454,0.504636,-0.000590,-0.546000,0.203364,0.017999,0.075440,-0.000015,0.000138,-1.353714,-0.000003,0.000038,17149.000000,1692875642.669082,0.772800,-1.570003,-0.000048,0.015771,0.000153,0.000048,,,,,,,,,
1692875642.678530,,,,,,,,,,,,,,,,,,,,,,,,,,,,,,,,,,,,,,,,,,,33432.000000,1692875642.674893,0.000000,0.000000,0.000000,0.000000,0.000000,0.000000
1692875642.689463,,,,,,,,,,,,,,,,,,,,,,,,,,,,,,,,,,,,,,,,,,,33433.000000,1692875642.681565,0.000000,0.000000,0.000000,0.000000,0.000000,0.000000
1692875642.698098,,,,,,,,,,,,,,,,,,,,,,,,,,,,,,,,,,,,,,,,,,,33434.000000,1692875642.691688,0.000000,0.000000,0.000000,0.000000,0.000000,0.000000
1692875642.704957,,,,,,,,,,,,,,,,,,,,,,,,,,,,,,,,,,,,,,,,,,0.000000,,,,,,,,
1692875642.708038,,,,,,,,,,,,,,,,,,,,,,,,,,,,,,,,,,,,,,,,,,,33435.000000,1692875642.701426,0.000000,0.000000,0.000000,0.000000,0.000000,0.000000
1692875642.708050,1.245645,-0.025268,0.000228,-46.277126,0.000942,0.000008,-0.005520,0.001453,-0.000046,0.000000,-2.880301,0.000653,-0.008091,3.094148,-0.000653,-0.176640,-1.874400,0.002628,-0.906000,0.131545,-0.028999,0.005732,0.503454,-0.000590,-0.542000,0.205545,0.028999,0.149040,-0.000015,0.000138,-1.274857,-0.000003,0.000038,17150.000000,1692875642.699060,0.778057,-1.570003,-0.000048,-0.005257,0.000153,0.000048,,,,,,,,,
1692875642.732096,,,,,,,,,,,,,,,,,,,,,,,,,,,,,,,,,,,,,,,,,,,33436.000000,1692875642.711438,0.000000,0.000000,0.000000,0.000000,0.000000,0.000000
1692875642.734494,-0.016177,-0.025268,-0.000254,-46.568177,0.000942,0.000008,0.093840,0.001453,-0.000046,-0.002697,-2.880301,0.000653,-0.008091,3.094168,0.002870,-0.110400,-1.874410,-0.002335,-0.907000,0.131773,-0.017999,0.000817,0.505227,-0.005909,-0.541000,0.203772,0.021999,0.117760,-0.000015,0.000138,-1.380000,-0.000003,0.000038,17151.000000,1692875642.719067,0.699200,-1.570003,-0.000048,-0.015771,0.000153,0.000048,,,,,,,,,
1692875642.738204,,,,,,,,,,,,,,,,,,,,,,,,,,,,,,,,,,,,,,,,,,,33438.000000,1692875642.731558,0.000000,0.000000,0.000000,0.000000,0.000000,0.000000
1692875642.746280,,,,,,,,,,,,,,,,,,,,,,,,,,,,,,,,,,,,,,,,,,,33439.000000,1692875642.741354,0.000000,0.000000,0.000000,0.000000,0.000000,0.000000
1692875642.754168,1.294176,-0.025652,0.000018,-46.568177,0.000942,0.000008,0.215280,0.001453,-0.000046,0.002697,-2.880301,0.000653,-0.005394,3.094148,-0.000653,-0.077280,-1.874400,0.001193,-0.902000,0.134363,-0.003000,-0.000408,0.504636,0.002954,-0.544000,0.201363,0.004999,0.150880,-0.000015,0.000138,-1.163143,-0.000003,0.000038,17152.000000,1692875642.739065,0.667657,-1.570003,-0.000048,0.026286,0.000153,0.000048,,,,,,,,,
1692875642.760811,,,,,,,,,,,,,,,,,,,,,,,,,,,,,,,,,,,,,,,,,,,33440.000000,1692875642.751484,0.000000,0.000000,0.000000,0.000000,0.000000,0.000000
1692875642.771520,0.113240,-0.025268,0.000018,-46.859228,0.000942,0.000008,0.143520,0.001453,-0.000046,0.000000,-2.880301,0.000653,-0.018879,3.094148,-0.001860,-0.309120,-1.874400,0.002775,-0.898000,0.136545,0.002000,-0.000817,0.503454,0.000000,-0.542000,0.201545,0.004999,0.149040,-0.000015,0.000138,-1.268286,-0.000003,0.000038,17153.000000,1692875642.759065,0.714971,-1.570003,-0.000048,-0.089371,0.000153,0.000048,,,,,,,,,
1692875642.772385,,,,,,,,,,,,,,,,,,,,,,,,,,,,,,,,,,,,,,,,,,,33441.000000,1692875642.765270,0.000000,0.000000,0.000000,0.000000,0.000000,0.000000
1692875642.782154,,,,,,,,,,,,,,,,,,,,,,,,,,,,,,,,,,,,,,,,,,,33442.000000,1692875642.771677,0.000000,0.000000,0.000000,0.000000,0.000000,0.000000
1692875642.791675,0.711797,-0.026036,0.000018,-46.859228,0.000942,0.000008,0.115920,0.001453,-0.000046,-0.002697,-2.880301,0.000653,-0.016182,3.094168,0.002157,-0.044160,-1.874400,0.001277,-0.898000,0.137545,0.006000,0.002866,0.503454,-0.005318,-0.541000,0.202545,0.004000,0.121440,-0.000015,0.000138,-1.182857,-0.000007,-0.001632,17154.000000,1692875642.779078,0.830629,-1.570003,-0.000048,0.021029,0.000153,0.000048,,,,,,,,,
1692875642.793929,,,,,,,,,,,,,,,,,,,,,,,,,,,,,,,,,,,,,,,,,,,33443.000000,1692875642.781457,0.000000,0.000000,0.000000,0.000000,0.000000,0.000000
1692875642.807870,,,,,,,,,,,,,,,,,,,,,,,,,,,,,,,,,,,,,,,,,,,33444.000000,1692875642.798715,0.000000,0.000000,0.000000,0.000000,0.000000,0.000000
1692875642.810347,1.439771,-0.026036,-0.000018,-46.277126,0.000941,-0.000008,0.077280,0.001453,-0.000046,0.000000,-2.880301,0.000653,-0.008091,3.094148,-0.001128,0.132480,-1.874400,0.002293,-0.898000,0.136954,0.009999,-0.001637,0.504045,-0.005318,-0.542000,0.200954,-0.001000,0.152720,-0.000015,0.000138,-1.320857,-0.000007,-0.000038,17155.000000,1692875642.799065,0.730743,-1.570003,-0.000048,-0.099886,0.000153,0.000048,,,,,,,,,
1692875642.817952,,,,,,,,,,,,,,,,,,,,,,,,,,,,,,,,,,,,,,,,,,0.000000,,,,,,,,
1692875642.819885,,,,,,,,,,,,,,,,,,,,,,,,,,,,,,,,,,,,,,,,,,,33446.000000,1692875642.811584,0.000000,0.000000,0.000000,0.000000,0.000000,0.000000
1692875642.828127,1.391239,-0.025652,-0.001747,-45.112921,0.000941,-0.000008,0.099360,0.001453,-0.000046,-0.005394,-2.880301,0.000653,-0.008091,3.094148,-0.000653,0.000000,-1.874400,0.006921,-0.897000,0.135954,0.000000,0.003683,0.504045,-0.002363,-0.544000,0.198955,-0.004999,0.121440,-0.000015,0.000138,-1.235429,-0.000007,-0.000038,17156.000000,1692875642.819079,0.741257,-1.570003,-0.000048,0.005257,0.000153,0.000048,,,,,,,,,
1692875642.828395,,,,,,,,,,,,,,,,,,,,,,,,,,,,,,,,,,,,,,,,,,,33447.000000,1692875642.821413,0.000000,0.000000,0.000000,0.000000,0.000000,0.000000
1692875642.839711,,,,,,,,,,,,,,,,,,,,,,,,,,,,,,,,,,,,,,,,,,,33448.000000,1692875642.831755,0.000000,0.000000,0.000000,0.000000,0.000000,0.000000
1692875642.851974,1.067695,-0.025652,-0.000018,-45.695024,0.000941,-0.000008,0.055200,0.001453,-0.000046,-0.002697,-2.880301,0.000653,-0.024273,3.094148,-0.002573,-0.474720,-1.874400,-0.003036,-0.893000,0.137955,0.004000,0.000817,0.504045,-0.002363,-0.546000,0.196954,-0.008999,0.160080,-0.000015,0.000138,-1.288000,-0.000007,-0.000038,17157.000000,1692875642.839063,0.657143,-1.570003,-0.000048,0.036800,0.000153,0.000048,,,,,,,,,
1692875642.859404,,,,,,,,,,,,,,,,,,,,,,,,,,,,,,,,,,,,,,,,,,,33449.000000,1692875642.841569,0.000000,0.000000,0.000000,0.000000,0.000000,0.000000
1692875642.866179,,,,,,,,,,,,,,,,,,,,,,,,,,,,,,,,,,,,,,,,,,,33450.000000,1692875642.853256,0.000000,0.000000,0.000000,0.000000,0.000000,0.000000
1692875642.867803,1.844201,-0.025652,0.001369,-44.530819,0.000941,-0.000008,0.027600,0.001453,-0.000046,-0.002697,-2.880301,0.000653,-0.016182,3.094148,-0.002394,-0.033120,-1.874410,-0.001026,-0.896000,0.136363,0.003000,-0.002046,0.504636,-0.002363,-0.546000,0.197364,-0.013000,0.132480,-0.000015,0.000138,-1.248571,-0.000003,0.000038,17158.000000,1692875642.859063,0.751771,-1.570003,-0.000048,0.057829,0.000153,0.000048,,,,,,,,,
1692875642.870059,,,,,,,,,,,,,,,,,,,,,,,,,,,,,,,,,,,,,,,,,,,33451.000000,1692875642.862583,0.000000,0.000000,0.000000,0.000000,0.000000,0.000000
1692875642.882297,,,,,,,,,,,,,,,,,,,,,,,,,,,,,,,,,,,,,,,,,,,33452.000000,1692875642.871559,0.000000,0.000000,0.000000,0.000000,0.000000,0.000000
1692875642.890988,0.614734,-0.025652,0.000018,-44.530819,0.000941,-0.000008,0.149040,0.001453,-0.000046,0.000000,-2.880301,0.000653,0.002697,3.094148,-0.001741,-0.518880,-1.874400,-0.001769,-0.896000,0.135772,0.007000,0.000000,0.505227,-0.002363,-0.546000,0.197773,-0.013000,0.138000,-0.000015,0.000138,-1.202571,-0.000003,0.000038,17159.000000,1692875642.879061,0.825371,-1.570003,-0.000048,0.015771,0.000153,0.000048,,,,,,,,,
1692875642.893148,,,,,,,,,,,,,,,,,,,,,,,,,,,,,,,,,,,,,,,,,,,33453.000000,1692875642.882560,0.000000,0.000000,0.000000,0.000000,0.000000,0.000000
1692875642.901205,,,,,,,,,,,,,,,,,,,,,,,,,,,,,,,,,,,,,,,,,,,33454.000000,1692875642.891519,0.000000,0.000000,0.000000,0.000000,0.000000,0.000000
1692875642.908796,,,,,,,,,,,,,,,,,,,,,,,,,,,,,,,,,,,,,,,,,,,33455.000000,1692875642.901386,0.000000,0.000000,0.000000,0.000000,0.000000,0.000000
1692875642.908810,0.663265,-0.025268,-0.001050,-43.948717,0.000941,-0.000008,0.104880,0.001453,-0.000046,0.005394,-2.880301,0.000653,-0.018879,3.094148,-0.002751,-0.121440,-1.874400,0.000848,-0.897000,0.134772,-0.003000,0.002454,0.505227,0.003545,-0.541000,0.200772,-0.003000,0.058880,-0.000015,0.000138,-1.248571,-0.000003,0.000038,17160.000000,1692875642.899060,0.751771,-1.570003,-0.000048,-0.052571,0.000153,0.000048,,,,,,,,,
1692875642.924937,,,,,,,,,,,,,,,,,,,,,,,,,,,,,,,,,,,,,,,,,,,33456.000000,1692875642.911517,0.000000,0.000000,0.000000,0.000000,0.000000,0.000000
1692875642.924954,,,,,,,,,,,,,,,,,,,,,,,,,,,,,,,,,,,,,,,,,,0.000000,,,,,,,,
1692875642.927272,,,,,,,,,,,,,,,,,,,,,,,,,,,,,,,,,,,,,,,,,,,33457.000000,1692875642.921467,0.000000,0.000000,0.000000,0.000000,0.000000,0.000000
1692875642.927317,2.248631,-0.025652,-0.000712,-44.821870,0.000942,0.000008,0.160080,0.001453,-0.000046,0.000000,-2.880301,0.000653,-0.008091,3.094148,-0.000653,-0.077280,-1.874410,-0.001528,-0.894000,0.136773,0.002000,0.001637,0.505227,0.000590,-0.541000,0.199772,-0.008000,0.073600,-0.000015,0.000138,-1.255143,-0.000003,0.000038,17161.000000,1692875642.919070,0.720229,-1.570003,-0.000048,0.047314,0.000153,0.000048,,,,,,,,,
1692875642.937897,,,,,,,,,,,,,,,,,,,,,,,,,,,,,,,,,,,,,,,,,,,33458.000000,1692875642.931516,0.000000,0.000000,0.000000,0.000000,0.000000,0.000000
1692875642.947640,,,,,,,,,,,,,,,,,,,,,,,,,,,,,,,,,,,,,,,,,,,33459.000000,1692875642.941550,0.000000,0.000000,0.000000,0.000000,0.000000,0.000000
1692875642.947653,0.744151,-0.025652,-0.000018,-44.530819,0.000942,0.000008,0.027600,0.001453,-0.000046,-0.005394,-2.880301,0.000653,-0.010788,3.094148,-0.000653,-0.132480,-1.874400,0.004136,-0.893000,0.138181,0.019999,0.004912,0.505818,0.005318,-0.546000,0.197182,-0.008000,0.126960,-0.000015,0.000138,-1.268286,-0.000003,0.000038,17162.000000,1692875642.939060,0.667657,-1.570003,-0.000048,0.031543,0.000153,0.000048,,,,,,,,,
1692875642.957345,,,,,,,,,,,,,,,,,,,,,,,,,,,,,,,,,,,,,,,,,,,33460.000000,1692875642.951697,0.000000,0.000000,0.000000,0.000000,0.000000,0.000000
1692875642.967532,1.051518,-0.025652,-0.000018,-44.821870,0.000942,0.000008,0.126960,0.001453,-0.000046,0.000000,-2.880301,0.000653,-0.010788,3.094148,-0.000653,-0.143520,-1.874410,-0.006806,-0.897000,0.134772,-0.006000,0.000408,0.505227,0.002363,-0.545000,0.198772,-0.003000,0.092000,-0.000015,0.000138,-1.235429,-0.000003,0.000038,17163.000000,1692875642.959060,0.720229,-1.570003,-0.000048,0.099886,0.000153,0.000048,,,,,,,,,
1692875642.968486,,,,,,,,,,,,,,,,,,,,,,,,,,,,,,,,,,,,,,,,,,,33461.000000,1692875642.962782,0.000000,0.000000,0.000000,0.000000,0.000000,0.000000
1692875642.980498,,,,,,,,,,,,,,,,,,,,,,,,,,,,,,,,,,,,,,,,,,,33462.000000,1692875642.972013,0.000000,0.000000,0.000000,0.000000,0.000000,0.000000
1692875642.986732,1.245645,-0.025652,-0.000018,-45.695024,0.000941,-0.000231,0.093840,0.001453,-0.000046,-0.008091,-2.880301,0.000653,-0.018879,3.094148,-0.002296,-0.022080,-1.874400,0.000628,-0.894000,0.136773,-0.001000,-0.000408,0.505227,0.002363,-0.547000,0.196773,-0.007000,0.086480,-0.000015,0.000138,-1.274857,-0.000003,0.000038,17164.000000,1692875642.979065,0.725486,-1.570003,-0.000048,-0.052571,0.000153,0.000048,,,,,,,,,
1692875642.992230,,,,,,,,,,,,,,,,,,,,,,,,,,,,,,,,,,,,,,,,,,,33463.000000,1692875642.981355,0.000000,0.000000,0.000000,0.000000,0.000000,0.000000
1692875643.000314,,,,,,,,,,,,,,,,,,,,,,,,,,,,,,,,,,,,,,,,,,,33464.000000,1692875642.991731,0.000000,0.000000,0.000000,0.000000,0.000000,0.000000
1692875643.007482,-0.016177,-0.025652,-0.000686,-45.112921,0.000942,0.000393,0.093840,0.001453,-0.000046,-0.005394,-2.880301,0.000653,-0.008091,3.094148,-0.000653,-0.132480,-1.874400,-0.000094,-0.897000,0.135181,0.008999,0.000817,0.505818,0.004727,-0.552000,0.194181,-0.014999,0.034960,-0.000015,0.000138,-1.084286,-0.000003,0.000038,17165.000000,1692875642.999061,0.704457,-1.570003,-0.000048,0.063086,0.000153,0.000048,,,,,,,,,
1692875643.010104,,,,,,,,,,,,,,,,,,,,,,,,,,,,,,,,,,,,,,,,,,,33465.000000,1692875643.001434,0.000000,0.000000,0.000000,0.000000,0.000000,0.000000
1692875643.022319,,,,,,,,,,,,,,,,,,,,,,,,,,,,,,,,,,,,,,,,,,,33466.000000,1692875643.011595,0.000000,0.000000,0.000000,0.000000,0.000000,0.000000
1692875643.028083,,,,,,,,,,,,,,,,,,,,,,,,,,,,,,,,,,,,,,,,,,0.000000,,,,,,,,
1692875643.032052,0.436784,-0.025652,0.000018,-45.695024,0.000942,0.000008,0.093840,0.001453,-0.000046,0.000000,-2.880301,0.000653,-0.024273,3.094168,0.002394,-0.088320,-1.874400,-0.000094,-0.899000,0.133181,0.008000,0.000817,0.505818,0.004727,-0.552000,0.195181,-0.014000,0.143520,-0.000015,0.000138,-1.347143,-0.000003,0.000038,17166.000000,1692875643.019091,0.678171,-1.570003,-0.000048,0.047314,0.000153,0.000048,,,,,,,,,
1692875643.041021,,,,,,,,,,,,,,,,,,,,,,,,,,,,,,,,,,,,,,,,,,,33467.000000,1692875643.028565,0.000000,0.000000,0.000000,0.000000,0.000000,0.000000
1692875643.048460,,,,,,,,,,,,,,,,,,,,,,,,,,,,,,,,,,,,,,,,,,,33468.000000,1692875643.032238,0.000000,0.000000,0.000000,0.000000,0.000000,0.000000
1692875643.051460,0.485316,-0.025268,0.000018,-46.277126,0.000942,0.000008,0.082800,0.001453,-0.000046,0.000000,-2.880301,0.000653,-0.008091,3.094148,-0.000653,0.066240,-1.874400,-0.000094,-0.897000,0.135363,-0.007000,0.003275,0.504636,0.004727,-0.554000,0.196363,-0.014000,0.185840,-0.000015,0.000138,-1.248571,-0.000003,0.000038,17167.000000,1692875643.039062,0.688686,-1.570003,-0.000048,0.005257,0.000153,0.000048,,,,,,,,,
1692875643.054513,,,,,,,,,,,,,,,,,,,,,,,,,,,,,,,,,,,,,,,,,,,33469.000000,1692875643.041667,0.000000,0.000000,0.000000,0.000000,0.000000,0.000000
1692875643.060313,,,,,,,,,,,,,,,,,,,,,,,,,,,,,,,,,,,,,,,,,,,33470.000000,1692875643.052670,0.000000,0.000000,0.000000,0.000000,0.000000,0.000000
1692875643.069468,2.766302,-0.025268,-0.000967,-45.986075,0.000942,0.000008,0.016560,0.001453,-0.000046,0.008091,-2.880301,0.000653,0.005394,3.094148,-0.002216,-0.264960,-1.874389,0.003686,-0.893000,0.137364,0.008000,0.008598,0.504636,0.001772,-0.554000,0.197364,-0.017999,0.082800,-0.000015,0.000138,-1.353714,-0.000003,0.000038,17168.000000,1692875643.059064,0.615086,-1.570003,-0.000048,-0.073600,0.000153,0.000048,,,,,,,,,
1692875643.069485,,,,,,,,,,,,,,,,,,,,,,,,,,,,,,,,,,,,,,,,,,,33471.000000,1692875643.061399,0.000000,0.000000,0.000000,0.000000,0.000000,0.000000
1692875643.085378,,,,,,,,,,,,,,,,,,,,,,,,,,,,,,,,,,,,,,,,,,,33472.000000,1692875643.071433,0.000000,0.000000,0.000000,0.000000,0.000000,0.000000
1692875643.089015,,,,,,,,,,,,,,,,,,,,,,,,,,,,,,,,,,,,,,,,,,,33473.000000,1692875643.081535,0.000000,0.000000,0.000000,0.000000,0.000000,0.000000
1692875643.096125,0.566202,-0.025652,-0.000078,-45.403973,0.000941,-0.000401,0.198720,0.001453,-0.000046,-0.005394,-2.880301,0.000653,-0.005394,3.094168,0.002098,0.143520,-1.874400,0.004429,-0.893000,0.137364,0.008000,0.002046,0.504636,-0.001181,-0.555000,0.197364,-0.008000,0.132480,-0.000015,0.000138,-1.314286,-0.000003,0.000038,17169.000000,1692875643.079063,0.651886,-1.570003,-0.000048,0.021029,0.000153,0.000048,,,,,,,,,
1692875643.096143,,,,,,,,,,,,,,,,,,,,,,,,,,,,,,,,,,,,,,,,,,,33474.000000,1692875643.091462,0.000000,0.000000,0.000000,0.000000,0.000000,0.000000
1692875643.109483,,,,,,,,,,,,,,,,,,,,,,,,,,,,,,,,,,,,,,,,,,,33475.000000,1692875643.101361,0.000000,0.000000,0.000000,0.000000,0.000000,0.000000
1692875643.111350,1.002987,-0.025652,-0.000018,-44.821870,0.000941,-0.000008,0.209760,0.001453,-0.000046,-0.010788,-2.880301,0.000653,-0.008091,3.094148,-0.001128,0.088320,-1.874400,0.004879,-0.894000,0.136954,0.008000,-0.000408,0.504045,-0.003545,-0.555000,0.197955,-0.008000,0.126960,-0.000015,0.000138,-1.288000,-0.000003,0.000038,17170.000000,1692875643.099064,0.835886,-1.570003,-0.000048,0.015771,0.000153,0.000048,,,,,,,,,
1692875643.121760,,,,,,,,,,,,,,,,,,,,,,,,,,,,,,,,,,,,,,,,,,,33476.000000,1692875643.111649,0.000000,0.000000,0.000000,0.000000,0.000000,0.000000
1692875643.128310,0.275012,-0.025652,0.000527,-44.821870,0.000941,-0.000008,0.160080,0.001453,-0.000046,0.000000,-2.880301,0.000653,-0.010788,3.094168,0.002810,0.011040,-1.874400,0.002241,-0.893000,0.137364,0.007000,0.000817,0.504636,-0.000590,-0.560000,0.196363,-0.012000,0.143520,-0.000015,0.000138,-1.150000,-0.000003,0.000038,17171.000000,1692875643.119062,0.709714,-1.570003,-0.000048,-0.042057,0.000153,0.000048,,,,,,,,,
1692875643.133306,,,,,,,,,,,,,,,,,,,,,,,,,,,,,,,,,,,,,,,,,,,33477.000000,1692875643.121390,0.000000,0.000000,0.000000,0.000000,0.000000,0.000000
1692875643.140680,,,,,,,,,,,,,,,,,,,,,,,,,,,,,,,,,,,,,,,,,,0.000000,,,,,,,,
1692875643.140868,,,,,,,,,,,,,,,,,,,,,,,,,,,,,,,,,,,,,,,,,,,33478.000000,1692875643.131645,0.000000,0.000000,0.000000,0.000000,0.000000,0.000000
1692875643.150173,,,,,,,,,,,,,,,,,,,,,,,,,,,,,,,,,,,,,,,,,,,33479.000000,1692875643.141351,0.000000,0.000000,0.000000,0.000000,0.000000,0.000000
1692875643.150506,0.420607,-0.025652,0.000018,-43.657666,0.000941,-0.000008,0.077280,0.001453,-0.000046,0.000000,-2.880301,0.000653,-0.018879,3.094148,-0.002236,-0.033120,-1.874400,0.000691,-0.889000,0.138955,0.010999,0.000817,0.504045,-0.002954,-0.559000,0.196954,-0.012000,0.154560,-0.000015,0.000138,-1.393143,-0.000003,0.000038,17172.000000,1692875643.139060,0.741257,-1.570003,-0.000048,0.042057,0.000153,0.000048,,,,,,,,,
1692875643.157393,,,,,,,,,,,,,,,,,,,,,,,,,,,,,,,,,,,,,,,,,,,33480.000000,1692875643.151522,0.000000,0.000000,0.000000,0.000000,0.000000,0.000000
1692875643.167390,,,,,,,,,,,,,,,,,,,,,,,,,,,,,,,,,,,,,,,,,,,33481.000000,1692875643.161427,0.000000,0.000000,0.000000,0.000000,0.000000,0.000000
1692875643.167401,0.275012,-0.025652,0.000018,-43.366615,0.000941,-0.000008,0.104880,0.001453,-0.000046,-0.005394,-2.880301,0.000653,-0.016182,3.094148,-0.002098,-0.033120,-1.874400,0.000272,-0.893000,0.136954,-0.008999,0.001637,0.504045,-0.005318,-0.554000,0.199954,-0.007000,0.073600,-0.000015,0.000138,-1.228857,-0.000003,0.000038,17173.000000,1692875643.159060,0.667657,-1.570003,-0.000048,0.021029,0.000153,0.000048,,,,,,,,,
1692875643.177395,,,,,,,,,,,,,,,,,,,,,,,,,,,,,,,,,,,,,,,,,,,33482.000000,1692875643.171538,0.000000,0.000000,0.000000,0.000000,0.000000,0.000000
1692875643.190100,-0.048532,-0.025652,-0.001335,-43.366615,0.000941,-0.000008,0.093840,0.001453,-0.000046,-0.002697,-2.880301,0.000653,-0.024273,3.094148,-0.002652,0.110400,-1.874400,0.003204,-0.893000,0.136954,0.001000,0.002866,0.504045,-0.002363,-0.554000,0.199954,0.003000,0.090160,-0.000015,0.000138,-1.320857,-0.000007,-0.000038,17174.000000,1692875643.179061,0.788571,-1.570003,-0.000048,-0.084114,0.000153,0.000048,,,,,,,,,
1692875643.190115,,,,,,,,,,,,,,,,,,,,,,,,,,,,,,,,,,,,,,,,,,,33483.000000,1692875643.181572,0.000000,0.000000,0.000000,0.000000,0.000000,0.000000
1692875643.198506,,,,,,,,,,,,,,,,,,,,,,,,,,,,,,,,,,,,,,,,,,,33484.000000,1692875643.191388,0.000000,0.000000,0.000000,0.000000,0.000000,0.000000
1692875643.206665,,,,,,,,,,,,,,,,,,,,,,,,,,,,,,,,,,,,,,,,,,,33485.000000,1692875643.201456,0.000000,0.000000,0.000000,0.000000,0.000000,0.000000
1692875643.206680,0.194126,-0.025652,-0.000026,-43.366615,0.000942,0.000008,0.115920,0.001453,-0.000046,-0.008091,-2.880301,0.000653,-0.010788,3.094148,-0.000653,-0.187680,-1.874400,-0.004712,-0.893000,0.136954,0.001000,0.003275,0.504045,-0.002363,-0.556000,0.197955,-0.007000,0.125120,-0.000015,0.000138,-1.334000,-0.000007,-0.000038,17175.000000,1692875643.199063,0.662400,-1.570003,-0.000048,0.005257,0.000540,0.000048,,,,,,,,,
1692875643.219179,,,,,,,,,,,,,,,,,,,,,,,,,,,,,,,,,,,,,,,,,,,33486.000000,1692875643.212546,0.000000,0.000000,0.000000,0.000000,0.000000,0.000000
1692875643.229088,,,,,,,,,,,,,,,,,,,,,,,,,,,,,,,,,,,,,,,,,,,33487.000000,1692875643.222680,0.000000,0.000000,0.000000,0.000000,0.000000,0.000000
1692875643.230955,0.469139,-0.025652,-0.000018,-43.657666,0.000942,0.000008,0.115920,0.001453,-0.000046,0.005394,-2.880301,0.000653,-0.008091,3.094148,-0.001444,0.066240,-1.874389,0.007162,-0.887000,0.140137,0.008999,0.002046,0.502863,-0.012999,-0.554000,0.199137,-0.007000,0.073600,-0.000015,0.000138,-1.228857,-0.000007,-0.000038,17176.000000,1692875643.219068,0.725486,-1.570003,-0.000048,-0.052571,0.000153,0.000048,,,,,,,,,
1692875643.238401,,,,,,,,,,,,,,,,,,,,,,,,,,,,,,,,,,,,,,,,,,,33488.000000,1692875643.231419,0.000000,0.000000,0.000000,0.000000,0.000000,0.000000
1692875643.246101,,,,,,,,,,,,,,,,,,,,,,,,,,,,,,,,,,,,,,,,,,0.000000,,,,,,,,
1692875643.254742,,,,,,,,,,,,,,,,,,,,,,,,,,,,,,,,,,,,,,,,,,,33489.000000,1692875643.242252,0.000000,0.000000,0.000000,0.000000,0.000000,0.000000
1692875643.254757,0.630911,-0.025268,-0.000018,-43.948717,0.000942,0.000008,0.115920,0.001453,-0.000046,0.000000,-2.880301,0.000653,-0.005394,3.094148,-0.001108,-0.066240,-1.874400,-0.000879,-0.885000,0.139954,0.008999,-0.000408,0.504045,-0.006499,-0.554000,0.198955,-0.007000,0.082800,-0.000015,0.000138,-1.307714,-0.000007,-0.000038,17177.000000,1692875643.239064,0.788571,-1.570003,-0.000048,0.089371,0.000153,0.000048,,,,,,,,,
1692875643.260576,,,,,,,,,,,,,,,,,,,,,,,,,,,,,,,,,,,,,,,,,,,33490.000000,1692875643.251598,0.000000,0.000000,0.000000,0.000000,0.000000,0.000000
1692875643.267567,0.501493,-0.025652,-0.000018,-44.239768,0.000942,0.000008,0.138000,0.001453,-0.000046,0.005394,-2.880301,0.000653,0.010788,3.094168,0.003087,-0.298080,-1.874389,0.004754,-0.884000,0.140363,0.021999,0.002454,0.504636,-0.000590,-0.554000,0.198364,-0.002000,0.139840,-0.000015,0.000138,-1.320857,-0.000007,-0.000038,17178.000000,1692875643.259169,0.662400,-1.570003,-0.000048,-0.052571,0.000153,0.000048,,,,,,,,,
1692875643.271016,,,,,,,,,,,,,,,,,,,,,,,,,,,,,,,,,,,,,,,,,,,33491.000000,1692875643.262079,0.000000,0.000000,0.000000,0.000000,0.000000,0.000000
1692875643.282305,,,,,,,,,,,,,,,,,,,,,,,,,,,,,,,,,,,,,,,,,,,33492.000000,1692875643.271426,0.000000,0.000000,0.000000,0.000000,0.000000,0.000000
1692875643.291435,,,,,,,,,,,,,,,,,,,,,,,,,,,,,,,,,,,,,,,,,,,33493.000000,1692875643.281657,0.000000,0.000000,0.000000,0.000000,0.000000,0.000000
1692875643.291452,0.355898,-0.025652,-0.000018,-45.403973,0.000942,0.000008,0.077280,0.001453,-0.000046,0.000000,-2.880301,0.000653,-0.008091,3.094148,-0.000653,0.022080,-1.874400,-0.000408,-0.885000,0.138955,0.016000,0.002046,0.504045,0.002363,-0.555000,0.197955,-0.006000,0.160080,-0.000015,0.000138,-1.274857,-0.000007,-0.000038,17179.000000,1692875643.279061,0.704457,-1.570003,-0.000048,0.105143,0.000153,0.000048,,,,,,,,,
1692875643.303072,,,,,,,,,,,,,,,,,,,,,,,,,,,,,,,,,,,,,,,,,,,33494.000000,1692875643.291436,0.000000,0.000000,0.000000,0.000000,0.000000,0.000000
1692875643.311470,0.097063,-0.025652,-0.000232,-45.403973,0.000942,0.000008,0.126960,0.001453,-0.000046,0.000000,-2.880301,0.000653,-0.018879,3.094148,-0.001484,-0.298080,-1.874389,0.004398,-0.887000,0.137955,-0.004000,0.002866,0.504045,-0.000590,-0.556000,0.196954,-0.006000,0.103040,-0.000015,0.000138,-1.163143,-0.000007,-0.000038,17180.000000,1692875643.299062,0.746514,-1.570003,-0.000048,0.141943,0.000153,0.000048,,,,,,,,,
1692875643.314764,,,,,,,,,,,,,,,,,,,,,,,,,,,,,,,,,,,,,,,,,,,33495.000000,1692875643.301347,0.000000,0.000000,0.000000,0.000000,0.000000,0.000000
1692875643.321508,,,,,,,,,,,,,,,,,,,,,,,,,,,,,,,,,,,,,,,,,,,33496.000000,1692875643.311520,0.000000,0.000000,0.000000,0.000000,0.000000,0.000000
1692875643.331494,0.275012,-0.025652,-0.000018,-45.112921,0.000942,0.000008,0.149040,0.001453,-0.000046,0.000000,-2.880301,0.000653,-0.008091,3.094148,-0.001623,-0.386400,-1.874400,-0.003811,-0.884000,0.139137,0.001000,0.000408,0.502863,-0.005909,-0.555000,0.199137,-0.004999,0.106720,-0.000015,0.000138,-1.281429,-0.000007,-0.000038,17181.000000,1692875643.319060,0.725486,-1.570003,-0.000048,0.052571,0.000540,0.000048,,,,,,,,,
1692875643.335254,,,,,,,,,,,,,,,,,,,,,,,,,,,,,,,,,,,,,,,,,,,33497.000000,1692875643.324559,0.000000,0.000000,0.000000,0.000000,0.000000,0.000000
1692875643.339782,,,,,,,,,,,,,,,,,,,,,,,,,,,,,,,,,,,,,,,,,,,33498.000000,1692875643.331505,0.000000,0.000000,0.000000,0.000000,0.000000,0.000000
1692875643.347204,0.258835,-0.025652,-0.000042,-45.695024,0.000942,0.000008,0.132480,0.001453,-0.000046,-0.008091,-2.880301,0.000653,-0.032364,3.094168,0.001919,-0.011040,-1.874400,0.005340,-0.887000,0.136954,-0.008999,-0.001225,0.504045,-0.005909,-0.555000,0.197955,-0.004999,0.143520,-0.000015,0.000138,-1.215714,-0.000003,0.000038,17182.000000,1692875643.339066,0.641371,-1.570003,-0.000048,-0.015771,0.000153,0.000048,,,,,,,,,
1692875643.348328,,,,,,,,,,,,,,,,,,,,,,,,,,,,,,,,,,,,,,,,,,,33499.000000,1692875643.341542,0.000000,0.000000,0.000000,0.000000,0.000000,0.000000
1692875643.359682,,,,,,,,,,,,,,,,,,,,,,,,,,,,,,,,,,,,,,,,,,0.000000,,,,,,,,
1692875643.369201,,,,,,,,,,,,,,,,,,,,,,,,,,,,,,,,,,,,,,,,,,,33500.000000,1692875643.351671,0.000000,0.000000,0.000000,0.000000,0.000000,0.000000
1692875643.369231,0.630911,-0.025652,-0.000018,-45.695024,0.000942,0.000008,0.060720,0.001453,-0.000046,-0.002697,-2.880301,0.000653,-0.016182,3.094148,-0.001880,-0.176640,-1.874400,0.000115,-0.887000,0.137318,-0.013000,0.005732,0.501681,0.000000,-0.550000,0.200319,-0.004999,0.154560,-0.000015,0.000138,-1.222286,-0.000003,0.000038,17183.000000,1692875643.359063,0.709714,-1.570003,-0.000048,0.005257,0.000153,0.000048,,,,,,,,,
1692875643.374738,,,,,,,,,,,,,,,,,,,,,,,,,,,,,,,,,,,,,,,,,,,33501.000000,1692875643.361440,0.000000,0.000000,0.000000,0.000000,0.000000,0.000000
1692875643.380998,,,,,,,,,,,,,,,,,,,,,,,,,,,,,,,,,,,,,,,,,,,33502.000000,1692875643.371424,0.000000,0.000000,0.000000,0.000000,0.000000,0.000000
1692875643.388742,,,,,,,,,,,,,,,,,,,,,,,,,,,,,,,,,,,,,,,,,,,33503.000000,1692875643.381355,0.000000,0.000000,0.000000,0.000000,0.000000,0.000000
1692875643.390374,0.436784,-0.025652,-0.000018,-45.986075,0.000942,0.000008,0.093840,0.001453,-0.000046,0.000000,-2.880301,0.000653,-0.008091,3.094148,-0.000653,-0.474720,-1.874400,-0.004586,-0.892000,0.134318,-0.027000,0.003275,0.501681,-0.011227,-0.550000,0.200319,-0.004999,0.082800,-0.000015,0.000138,-1.399714,-0.000003,0.000038,17184.000000,1692875643.379062,0.667657,-1.570003,-0.000048,0.120914,0.000153,0.000048,,,,,,,,,
1692875643.397412,,,,,,,,,,,,,,,,,,,,,,,,,,,,,,,,,,,,,,,,,,,33504.000000,1692875643.391659,0.000000,0.000000,0.000000,0.000000,0.000000,0.000000
1692875643.409794,,,,,,,,,,,,,,,,,,,,,,,,,,,,,,,,,,,,,,,,,,,33505.000000,1692875643.401439,0.000000,0.000000,0.000000,0.000000,0.000000,0.000000
1692875643.412736,0.145595,-0.025652,-0.000187,-45.986075,0.000942,0.000008,0.115920,0.001453,-0.000046,0.008091,-2.880301,0.000653,-0.008091,3.094148,-0.000969,0.298080,-1.874400,0.002617,-0.893000,0.133955,-0.014999,0.002866,0.504045,-0.005318,-0.550000,0.197955,-0.004999,0.130640,-0.000015,0.000138,-1.222286,-0.000003,0.000038,17185.000000,1692875643.399060,0.693943,-1.570003,-0.000048,-0.010514,0.000153,0.000048,,,,,,,,,
1692875643.416515,,,,,,,,,,,,,,,,,,,,,,,,,,,,,,,,,,,,,,,,,,,33506.000000,1692875643.411445,0.000000,0.000000,0.000000,0.000000,0.000000,0.000000
1692875643.432211,,,,,,,,,,,,,,,,,,,,,,,,,,,,,,,,,,,,,,,,,,,33507.000000,1692875643.421404,0.000000,0.000000,0.000000,0.000000,0.000000,0.000000
1692875643.435028,0.307367,-0.025652,-0.000018,-46.277126,0.000942,0.000008,0.220800,0.001453,-0.000046,0.002697,-2.880301,0.000653,-0.002697,3.094148,-0.001444,-0.342240,-1.874400,-0.005853,-0.890000,0.135545,-0.009999,0.002866,0.503454,0.000590,-0.554000,0.197545,-0.014000,0.163760,-0.000015,0.000138,-1.196000,-0.000003,0.000038,17186.000000,1692875643.419066,0.741257,-1.570003,-0.000048,-0.068343,0.000540,0.000048,,,,,,,,,
1692875643.443394,,,,,,,,,,,,,,,,,,,,,,,,,,,,,,,,,,,,,,,,,,,33508.000000,1692875643.431428,0.000000,0.000000,0.000000,0.000000,0.000000,0.000000
1692875643.453389,0.161772,-0.025652,0.000361,-46.568177,0.000942,0.000008,0.237360,0.001453,-0.000046,-0.002697,-2.880301,0.000653,-0.013485,3.094148,-0.000653,-0.397440,-1.874389,0.003078,-0.892000,0.134363,-0.009999,0.000408,0.504636,0.006499,-0.555000,0.196363,-0.008999,0.095680,-0.000015,0.000138,-1.255143,-0.000003,0.000038,17187.000000,1692875643.439058,0.667657,-1.570003,-0.000048,0.042057,0.000153,0.000048,,,,,,,,,
1692875643.459488,,,,,,,,,,,,,,,,,,,,,,,,,,,,,,,,,,,,,,,,,,,33509.000000,1692875643.441484,0.000000,0.000000,0.000000,0.000000,0.000000,0.000000
1692875643.461440,,,,,,,,,,,,,,,,,,,,,,,,,,,,,,,,,,,,,,,,,,0.000000,,,,,,,,
1692875643.466931,,,,,,,,,,,,,,,,,,,,,,,,,,,,,,,,,,,,,,,,,,,33510.000000,1692875643.451795,0.000000,0.000000,0.000000,0.000000,0.000000,0.000000
1692875643.466958,,,,,,,,,,,,,,,,,,,,,,,,,,,,,,,,,,,,,,,,,,,33511.000000,1692875643.461509,0.000000,0.000000,0.000000,0.000000,0.000000,0.000000
1692875643.466962,0.727974,-0.025652,-0.000030,-46.277126,0.000941,-0.000325,0.077280,0.001453,-0.000046,0.000000,-2.880301,0.000653,-0.016182,3.094148,-0.000653,-0.066240,-1.874400,0.000198,-0.893000,0.135363,-0.009999,0.002046,0.504636,0.003545,-0.555000,0.197364,-0.008999,0.068080,-0.000015,0.000138,-1.406286,-0.000003,0.000038,17188.000000,1692875643.459067,0.809600,-1.570003,-0.000048,0.026286,0.000153,0.000048,,,,,,,,,
1692875643.477360,,,,,,,,,,,,,,,,,,,,,,,,,,,,,,,,,,,,,,,,,,,33512.000000,1692875643.471642,0.000000,0.000000,0.000000,0.000000,0.000000,0.000000
1692875643.489449,,,,,,,,,,,,,,,,,,,,,,,,,,,,,,,,,,,,,,,,,,,33513.000000,1692875643.481529,0.000000,0.000000,0.000000,0.000000,0.000000,0.000000
1692875643.493125,0.711797,-0.025652,-0.000018,-45.112921,0.000941,-0.000008,0.099360,0.001453,-0.000046,0.000000,-2.880301,0.000653,-0.005394,3.094148,-0.001009,-0.099360,-1.874400,0.003225,-0.893000,0.134363,-0.004999,0.000000,0.504636,0.003545,-0.555000,0.197364,-0.004000,0.126960,-0.000015,0.000138,-1.301143,-0.000003,0.000038,17189.000000,1692875643.479085,0.657143,-1.570003,-0.000048,0.005257,0.000153,0.000048,,,,,,,,,
1692875643.503859,,,,,,,,,,,,,,,,,,,,,,,,,,,,,,,,,,,,,,,,,,,33514.000000,1692875643.491678,0.000000,0.000000,0.000000,0.000000,0.000000,0.000000
1692875643.515249,0.663265,-0.025652,-0.000018,-44.821870,0.000941,-0.000008,0.165600,0.001453,-0.000046,-0.002697,-2.880301,0.000653,-0.005394,3.094148,-0.001722,-0.165600,-1.874400,0.000094,-0.893000,0.134772,-0.017999,0.004912,0.505227,0.000590,-0.555000,0.196773,-0.004000,0.103040,-0.000015,0.000138,-1.360286,-0.000003,0.000038,17190.000000,1692875643.499062,0.604571,-1.570003,-0.000048,0.026286,0.000153,0.000048,,,,,,,,,
1692875643.518843,,,,,,,,,,,,,,,,,,,,,,,,,,,,,,,,,,,,,,,,,,,33515.000000,1692875643.501397,0.000000,0.000000,0.000000,0.000000,0.000000,0.000000
1692875643.524343,,,,,,,,,,,,,,,,,,,,,,,,,,,,,,,,,,,,,,,,,,,33516.000000,1692875643.513250,0.000000,0.000000,0.000000,0.000000,0.000000,0.000000
1692875643.534409,,,,,,,,,,,,,,,,,,,,,,,,,,,,,,,,,,,,,,,,,,,33517.000000,1692875643.521491,0.000000,0.000000,0.000000,0.000000,0.000000,0.000000
1692875643.534704,0.905923,-0.025652,-0.000018,-44.821870,0.000941,-0.000008,0.071760,0.001453,-0.000046,0.000000,-2.880301,0.000653,-0.008091,3.094148,-0.002573,-0.022080,-1.874400,0.006503,-0.888000,0.137955,0.002000,-0.000408,0.504045,-0.002954,-0.550000,0.198955,0.001000,0.036800,-0.000015,0.000138,-1.248571,-0.000003,0.000038,17191.000000,1692875643.519068,0.683429,-1.570003,-0.000048,0.026286,0.000153,0.000048,,,,,,,,,
1692875643.539724,,,,,,,,,,,,,,,,,,,,,,,,,,,,,,,,,,,,,,,,,,,33518.000000,1692875643.531563,0.000000,0.000000,0.000000,0.000000,0.000000,0.000000
1692875643.550024,,,,,,,,,,,,,,,,,,,,,,,,,,,,,,,,,,,,,,,,,,,33519.000000,1692875643.541240,0.000000,0.000000,0.000000,0.000000,0.000000,0.000000
1692875643.550032,0.582379,-0.026036,0.000852,-44.821870,0.000942,0.000029,0.165600,0.001453,-0.000046,-0.008091,-2.880301,0.000653,-0.008091,3.094148,-0.000989,-0.231840,-1.874400,0.002974,-0.892000,0.135363,-0.004000,0.003683,0.504636,0.002363,-0.552000,0.197364,-0.004000,0.064400,-0.000015,0.000138,-1.248571,-0.000003,0.000038,17192.000000,1692875643.539063,0.872686,-1.570003,-0.000048,0.105143,0.000153,-0.003822,,,,,,,,,
1692875643.559592,,,,,,,,,,,,,,,,,,,,,,,,,,,,,,,,,,,,,,,,,,,33520.000000,1692875643.552675,0.000000,0.000000,0.000000,0.000000,0.000000,0.000000
1692875643.567967,,,,,,,,,,,,,,,,,,,,,,,,,,,,,,,,,,,,,,,,,,0.000000,,,,,,,,
1692875643.567976,0.372076,-0.025652,-0.000163,-45.695024,0.000942,0.000008,0.132480,0.001453,-0.000046,-0.005394,-2.880301,0.000653,-0.024273,3.094148,-0.002177,-0.132480,-1.874400,0.002419,-0.892000,0.135363,0.001000,0.001637,0.504636,0.002363,-0.552000,0.197364,-0.004000,0.138000,-0.000015,0.000138,-1.248571,-0.000003,0.000038,17193.000000,1692875643.559069,0.846400,-1.570003,-0.000048,0.021029,0.000153,-0.000048,,,,,,,,,
1692875643.571113,,,,,,,,,,,,,,,,,,,,,,,,,,,,,,,,,,,,,,,,,,,33521.000000,1692875643.561956,0.000000,0.000000,0.000000,0.000000,0.000000,0.000000
1692875643.580177,,,,,,,,,,,,,,,,,,,,,,,,,,,,,,,,,,,,,,,,,,,33522.000000,1692875643.571409,0.000000,0.000000,0.000000,0.000000,0.000000,0.000000
1692875643.593866,,,,,,,,,,,,,,,,,,,,,,,,,,,,,,,,,,,,,,,,,,,33523.000000,1692875643.581348,0.000000,0.000000,0.000000,0.000000,0.000000,0.000000
1692875643.593883,0.970632,-0.025652,0.001076,-45.695024,0.000942,0.000008,0.104880,0.001453,-0.000046,-0.002697,-2.880301,0.000653,-0.005394,3.094148,-0.000910,-0.386400,-1.874400,-0.004911,-0.889000,0.136773,-0.004000,0.000000,0.505227,0.002363,-0.556000,0.195772,-0.004000,0.176640,-0.000015,0.000138,-1.393143,-0.000003,0.000038,17194.000000,1692875643.579064,0.699200,-1.570003,-0.000048,0.021029,0.000540,-0.000048,,,,,,,,,
1692875643.601658,,,,,,,,,,,,,,,,,,,,,,,,,,,,,,,,,,,,,,,,,,,33524.000000,1692875643.591800,0.000000,0.000000,0.000000,0.000000,0.000000,0.000000
1692875643.612749,,,,,,,,,,,,,,,,,,,,,,,,,,,,,,,,,,,,,,,,,,,33525.000000,1692875643.601538,0.000000,0.000000,0.000000,0.000000,0.000000,0.000000
1692875643.612781,0.776506,-0.025652,-0.000018,-45.986075,0.000942,0.000008,-0.016560,0.001453,-0.000046,0.000000,-2.880301,0.000653,-0.005394,3.094148,-0.000653,-0.022080,-1.874400,0.004565,-0.889000,0.136773,0.006000,0.000817,0.505227,0.004727,-0.560000,0.194772,-0.008000,0.090160,-0.000015,0.000138,-1.301143,-0.000003,0.000038,17195.000000,1692875643.599069,0.835886,-1.570003,-0.000048,0.042057,0.000153,-0.000048,,,,,,,,,
1692875643.620241,,,,,,,,,,,,,,,,,,,,,,,,,,,,,,,,,,,,,,,,,,,33526.000000,1692875643.611538,0.000000,0.000000,0.000000,0.000000,0.000000,0.000000
1692875643.629635,0.307367,-0.025652,-0.000018,-45.986075,0.000942,0.000008,0.165600,0.001453,-0.000046,-0.005394,-2.880301,0.000653,-0.008091,3.094148,-0.000653,0.055200,-1.874400,0.005675,-0.892000,0.135363,-0.004000,0.002454,0.504636,0.001772,-0.554000,0.199363,-0.007000,0.082800,-0.000015,0.000138,-1.163143,-0.000003,0.000038,17196.000000,1692875643.619068,0.720229,-1.570003,-0.000048,0.089371,0.000153,-0.000048,,,,,,,,,
1692875643.635321,,,,,,,,,,,,,,,,,,,,,,,,,,,,,,,,,,,,,,,,,,,33527.000000,1692875643.622666,0.000000,0.000000,0.000000,0.000000,0.000000,0.000000
1692875643.644589,,,,,,,,,,,,,,,,,,,,,,,,,,,,,,,,,,,,,,,,,,,33528.000000,1692875643.631676,0.000000,0.000000,0.000000,0.000000,0.000000,0.000000
1692875643.648636,1.811847,-0.026036,0.001032,-45.695024,0.000942,0.000008,0.143520,0.001453,-0.000046,0.008091,-2.880301,0.000653,-0.010788,3.094148,-0.000653,-0.088320,-1.874400,0.000094,-0.893000,0.134181,-0.008000,0.000408,0.505818,0.001772,-0.552000,0.199181,0.008000,0.038640,-0.000015,0.000138,-1.235429,-0.000003,0.000038,17197.000000,1692875643.639060,0.667657,-1.570003,-0.000048,-0.026286,0.000540,-0.000048,,,,,,,,,
1692875643.653873,,,,,,,,,,,,,,,,,,,,,,,,,,,,,,,,,,,,,,,,,,,33529.000000,1692875643.641390,0.000000,0.000000,0.000000,0.000000,0.000000,0.000000
1692875643.656455,,,,,,,,,,,,,,,,,,,,,,,,,,,,,,,,,,,,,,,,,,,33530.000000,1692875643.651517,0.000000,0.000000,0.000000,0.000000,0.000000,0.000000
1692875643.664316,,,,,,,,,,,,,,,,,,,,,,,,,,,,,,,,,,,,,,,,,,0.000000,,,,,,,,
1692875643.665462,,,,,,,,,,,,,,,,,,,,,,,,,,,,,,,,,,,,,,,,,,,33531.000000,1692875643.661360,0.000000,0.000000,0.000000,0.000000,0.000000,0.000000
1692875643.668638,1.407417,-0.025652,0.000018,-46.277126,0.000942,0.000008,0.187680,0.001453,-0.000046,0.008091,-2.880301,0.000653,-0.008091,3.094148,-0.000692,-0.209760,-1.874410,-0.006042,-0.897000,0.133181,-0.017000,0.001637,0.505818,0.004136,-0.549000,0.201182,0.012000,0.147200,-0.000015,0.000138,-1.130286,-0.000003,0.000038,17198.000000,1692875643.659069,0.720229,-1.570003,-0.000048,0.015771,0.000153,-0.000048,,,,,,,,,
1692875643.679945,,,,,,,,,,,,,,,,,,,,,,,,,,,,,,,,,,,,,,,,,,,33532.000000,1692875643.671507,0.000000,0.000000,0.000000,0.000000,0.000000,0.000000
1692875643.689109,0.922101,-0.025652,0.000018,-46.568177,0.000942,0.000008,0.077280,0.001453,-0.000046,0.005394,-2.880301,0.000653,-0.008091,3.094148,-0.000653,0.088320,-1.874389,0.008618,-0.896000,0.133772,-0.002000,0.006141,0.505227,0.003545,-0.544000,0.202773,0.024000,0.114080,-0.000015,0.000138,-1.248571,-0.000003,0.000038,17199.000000,1692875643.679060,0.746514,-1.570003,-0.000048,0.036800,0.000153,-0.000048,,,,,,,,,
1692875643.691145,,,,,,,,,,,,,,,,,,,,,,,,,,,,,,,,,,,,,,,,,,,33533.000000,1692875643.681512,0.000000,0.000000,0.000000,0.000000,0.000000,0.000000
1692875643.700949,,,,,,,,,,,,,,,,,,,,,,,,,,,,,,,,,,,,,,,,,,,33534.000000,1692875643.692248,0.000000,0.000000,0.000000,0.000000,0.000000,0.000000
1692875643.705797,2.733947,-0.025652,0.000878,-46.568177,0.000942,0.000008,0.193200,0.001453,-0.000046,-0.010788,-2.880301,0.000653,-0.010788,3.094148,-0.000653,-0.209760,-1.874400,0.000094,-0.893000,0.135363,-0.001000,0.001225,0.504636,0.000590,-0.546000,0.199363,0.007000,0.101200,-0.000015,0.000138,-1.340571,-0.000003,0.000038,17200.000000,1692875643.699070,0.820114,-1.570003,-0.000048,0.068343,0.000153,-0.000048,,,,,,,,,
1692875643.711167,,,,,,,,,,,,,,,,,,,,,,,,,,,,,,,,,,,,,,,,,,,33535.000000,1692875643.701716,0.000000,0.000000,0.000000,0.000000,0.000000,0.000000
1692875643.722239,,,,,,,,,,,,,,,,,,,,,,,,,,,,,,,,,,,,,,,,,,,33536.000000,1692875643.711387,0.000000,0.000000,0.000000,0.000000,0.000000,0.000000
1692875643.726463,,,,,,,,,,,,,,,,,,,,,,,,,,,,,,,,,,,,,,,,,,,33537.000000,1692875643.721591,0.000000,0.000000,0.000000,0.000000,0.000000,0.000000
1692875643.727456,0.647088,-0.025652,-0.000018,-46.859228,0.000942,0.000008,0.132480,0.001453,-0.000046,-0.008091,-2.880301,0.000653,-0.010788,3.094148,-0.001741,0.000000,-1.874410,-0.005508,-0.892000,0.136954,-0.001000,0.001637,0.504045,0.000590,-0.547000,0.197955,-0.003000,0.071760,-0.000015,0.000138,-1.334000,-0.000003,0.000038,17201.000000,1692875643.719066,0.720229,-1.570003,-0.000048,-0.089371,0.000153,-0.000048,,,,,,,,,
1692875643.743344,,,,,,,,,,,,,,,,,,,,,,,,,,,,,,,,,,,,,,,,,,,33538.000000,1692875643.731526,0.000000,0.000000,0.000000,0.000000,0.000000,0.000000
1692875643.749232,0.695620,-0.025652,0.000018,-46.277126,0.000942,0.000008,0.253920,0.001453,-0.000046,-0.005394,-2.880301,0.000653,0.000000,3.094148,-0.002236,-0.264960,-1.874389,0.002586,-0.889000,0.138136,0.008000,0.006141,0.502863,-0.002363,-0.549000,0.198136,-0.010999,0.152720,-0.000015,0.000138,-1.110571,-0.000007,-0.000038,17202.000000,1692875643.739062,0.662400,-1.570003,-0.000048,0.047314,0.000153,-0.000048,,,,,,,,,
1692875643.753423,,,,,,,,,,,,,,,,,,,,,,,,,,,,,,,,,,,,,,,,,,,33539.000000,1692875643.741475,0.000000,0.000000,0.000000,0.000000,0.000000,0.000000
1692875643.764102,,,,,,,,,,,,,,,,,,,,,,,,,,,,,,,,,,,,,,,,,,,33540.000000,1692875643.751454,0.000000,0.000000,0.000000,0.000000,0.000000,0.000000
1692875643.766654,,,,,,,,,,,,,,,,,,,,,,,,,,,,,,,,,,,,,,,,,,,33541.000000,1692875643.761502,0.000000,0.000000,0.000000,0.000000,0.000000,0.000000
1692875643.766799,1.375062,-0.025652,0.000018,-45.695024,0.000941,-0.000008,0.077280,0.001453,-0.000046,0.000000,-2.880301,0.000653,-0.016182,3.094148,-0.001801,-0.220800,-1.874400,-0.002984,-0.893000,0.135137,-0.012000,0.002046,0.502863,-0.007681,-0.547000,0.198136,-0.010999,0.101200,-0.000015,0.000138,-1.169714,-0.000007,-0.000038,17203.000000,1692875643.759061,0.751771,-1.570003,-0.000048,-0.021029,0.000153,-0.000048,,,,,,,,,
1692875643.778365,,,,,,,,,,,,,,,,,,,,,,,,,,,,,,,,,,,,,,,,,,,33542.000000,1692875643.771627,0.000000,0.000000,0.000000,0.000000,0.000000,0.000000
1692875643.784229,,,,,,,,,,,,,,,,,,,,,,,,,,,,,,,,,,,,,,,,,,0.000000,,,,,,,,
1692875643.787606,,,,,,,,,,,,,,,,,,,,,,,,,,,,,,,,,,,,,,,,,,,33543.000000,1692875643.781343,0.000000,0.000000,0.000000,0.000000,0.000000,0.000000
1692875643.796372,1.229467,-0.025652,0.000040,-45.695024,0.000941,-0.000008,0.292560,0.001453,-0.000046,0.000000,-2.880301,0.000653,-0.005394,3.094148,-0.000653,-0.220800,-1.874389,0.003926,-0.892000,0.136363,0.003000,0.001637,0.504636,-0.001772,-0.546000,0.199363,0.004000,0.092000,-0.000015,0.000138,-1.189429,-0.000007,-0.000038,17204.000000,1692875643.779060,0.783314,-1.570003,-0.000048,-0.068343,0.000153,-0.000048,,,,,,,,,
1692875643.798812,,,,,,,,,,,,,,,,,,,,,,,,,,,,,,,,,,,,,,,,,,,33544.000000,1692875643.791665,0.000000,0.000000,0.000000,0.000000,0.000000,0.000000
1692875643.806542,1.245645,-0.025652,-0.000018,-45.986075,0.000942,0.000402,0.204240,0.001453,-0.000046,-0.005394,-2.880301,0.000653,-0.008091,3.094148,-0.000653,-0.220800,-1.874400,-0.002136,-0.901000,0.130772,0.003000,0.000817,0.505227,0.003545,-0.546000,0.199772,-0.001000,0.123280,-0.000015,0.000138,-1.334000,-0.000007,-0.000038,17205.000000,1692875643.799066,0.709714,-1.570003,-0.000048,0.057829,0.000153,-0.000048,,,,,,,,,
1692875643.807810,,,,,,,,,,,,,,,,,,,,,,,,,,,,,,,,,,,,,,,,,,,33545.000000,1692875643.801422,0.000000,0.000000,0.000000,0.000000,0.000000,0.000000
1692875643.819064,,,,,,,,,,,,,,,,,,,,,,,,,,,,,,,,,,,,,,,,,,,33546.000000,1692875643.811503,0.000000,0.000000,0.000000,0.000000,0.000000,0.000000
1692875643.826337,,,,,,,,,,,,,,,,,,,,,,,,,,,,,,,,,,,,,,,,,,,33547.000000,1692875643.821627,0.000000,0.000000,0.000000,0.000000,0.000000,0.000000
1692875643.832262,-0.048532,-0.025268,-0.000381,-44.530819,0.000941,-0.000008,0.099360,0.001453,-0.000046,0.000000,-2.880301,0.000653,-0.016182,3.094148,-0.001385,0.309120,-1.874389,0.009822,-0.901000,0.132773,-0.020999,0.003683,0.505227,0.003545,-0.546000,0.199772,0.008999,0.138000,-0.000015,0.000138,-1.228857,-0.000007,-0.000038,17206.000000,1692875643.819068,0.730743,-1.570003,-0.000048,0.005257,0.000153,-0.000048,,,,,,,,,
1692875643.835784,,,,,,,,,,,,,,,,,,,,,,,,,,,,,,,,,,,,,,,,,,,33548.000000,1692875643.831417,0.000000,0.000000,0.000000,0.000000,0.000000,0.000000
1692875643.850296,,,,,,,,,,,,,,,,,,,,,,,,,,,,,,,,,,,,,,,,,,,33549.000000,1692875643.841558,0.000000,0.000000,0.000000,0.000000,0.000000,0.000000
1692875643.850314,0.501493,-0.025652,0.000018,-44.821870,0.000941,-0.000008,0.126960,0.001453,-0.000046,0.000000,-2.880301,0.000653,-0.005394,3.094148,-0.001088,-0.264960,-1.874410,-0.010922,-0.902000,0.132000,-0.009999,-0.003683,0.506999,0.003545,-0.547000,0.199000,0.008999,0.114080,-0.000015,0.000138,-1.314286,-0.000007,-0.000038,17207.000000,1692875643.839064,0.683429,-1.570003,-0.000048,0.031543,0.000153,-0.000048,,,,,,,,,
1692875643.866299,,,,,,,,,,,,,,,,,,,,,,,,,,,,,,,,,,,,,,,,,,,33550.000000,1692875643.856417,0.000000,0.000000,0.000000,0.000000,0.000000,0.000000
1692875643.868790,2.054505,-0.025652,0.001076,-44.239768,0.000941,-0.000008,0.138000,0.001458,0.000414,0.000000,-2.880301,0.000653,-0.008091,3.094148,-0.001365,-0.231840,-1.874389,0.004806,-0.906000,0.130591,-0.008999,0.001225,0.506409,0.005909,-0.546000,0.199590,0.013000,0.068080,-0.000015,0.000138,-1.176286,-0.000007,-0.000038,17208.000000,1692875643.859066,0.746514,-1.570003,-0.000048,-0.021029,0.000153,-0.000048,,,,,,,,,
1692875643.875501,,,,,,,,,,,,,,,,,,,,,,,,,,,,,,,,,,,,,,,,,,,33551.000000,1692875643.861640,0.000000,0.000000,0.000000,0.000000,0.000000,0.000000
1692875643.884073,,,,,,,,,,,,,,,,,,,,,,,,,,,,,,,,,,,,,,,,,,,33552.000000,1692875643.871509,0.000000,0.000000,0.000000,0.000000,0.000000,0.000000
1692875643.889171,0.485316,-0.025652,-0.000018,-43.657666,0.000941,-0.000008,0.121440,0.001458,0.000046,-0.005394,-2.880301,0.000653,-0.008091,3.094148,-0.000653,-0.320160,-1.874400,0.001623,-0.904000,0.131591,-0.017000,0.000408,0.506409,0.008272,-0.546000,0.198590,0.008000,0.182160,-0.000015,0.000138,-1.163143,-0.000007,-0.000038,17209.000000,1692875643.879065,0.778057,-1.570003,-0.000048,0.068343,0.000153,-0.000048,,,,,,,,,
1692875643.889377,,,,,,,,,,,,,,,,,,,,,,,,,,,,,,,,,,,,,,,,,,,33553.000000,1692875643.881517,0.000000,0.000000,0.000000,0.000000,0.000000,0.000000
1692875643.902788,,,,,,,,,,,,,,,,,,,,,,,,,,,,,,,,,,,,,,,,,,,33554.000000,1692875643.891548,0.000000,0.000000,0.000000,0.000000,0.000000,0.000000
1692875643.902798,,,,,,,,,,,,,,,,,,,,,,,,,,,,,,,,,,,,,,,,,,0.000000,,,,,,,,
1692875643.909578,0.436784,-0.025652,-0.000811,-43.948717,0.000942,0.000062,0.088320,0.001458,0.000046,-0.008091,-2.880301,0.000653,-0.008091,3.094148,-0.000653,-0.099360,-1.874410,-0.001319,-0.904000,0.132773,-0.007000,0.000408,0.505227,0.005318,-0.546000,0.199772,0.008000,0.123280,-0.000015,0.000138,-1.274857,-0.000003,0.000038,17210.000000,1692875643.899063,0.672914,-1.570003,-0.000048,0.057829,0.000153,-0.000048,,,,,,,,,
1692875643.911761,,,,,,,,,,,,,,,,,,,,,,,,,,,,,,,,,,,,,,,,,,,33555.000000,1692875643.901417,0.000000,0.000000,0.000000,0.000000,0.000000,0.000000
1692875643.923461,,,,,,,,,,,,,,,,,,,,,,,,,,,,,,,,,,,,,,,,,,,33556.000000,1692875643.913538,0.000000,0.000000,0.000000,0.000000,0.000000,0.000000
1692875643.924913,,,,,,,,,,,,,,,,,,,,,,,,,,,,,,,,,,,,,,,,,,,33557.000000,1692875643.921411,0.000000,0.000000,0.000000,0.000000,0.000000,0.000000
1692875643.924924,0.954455,-0.025652,-0.000583,-44.530819,0.000942,0.000008,0.149040,0.001458,0.000046,-0.002697,-2.880301,0.000653,-0.010788,3.094148,-0.000969,-0.231840,-1.874400,0.004754,-0.903000,0.133772,-0.002000,0.001637,0.505227,0.002363,-0.546000,0.199772,0.012000,0.114080,-0.000015,0.000138,-1.288000,-0.000003,0.000038,17211.000000,1692875643.919096,0.657143,-1.570003,-0.000048,0.015771,0.000153,-0.000048,,,,,,,,,
1692875643.945359,,,,,,,,,,,,,,,,,,,,,,,,,,,,,,,,,,,,,,,,,,,33558.000000,1692875643.931552,0.000000,0.000000,0.000000,0.000000,0.000000,0.000000
1692875643.950196,0.242658,-0.025652,0.000018,-44.530819,0.000942,0.000008,0.071760,0.001458,0.000046,-0.002697,-2.880301,0.000653,-0.008091,3.094148,-0.001820,-0.022080,-1.874400,0.006450,-0.904000,0.134363,-0.002000,0.003275,0.504636,-0.000590,-0.544000,0.202364,0.007000,0.073600,-0.000015,0.000138,-1.156571,-0.000003,0.000038,17212.000000,1692875643.939088,0.741257,-1.570003,-0.000048,0.084114,0.000153,-0.000048,,,,,,,,,
1692875643.955282,,,,,,,,,,,,,,,,,,,,,,,,,,,,,,,,,,,,,,,,,,,33559.000000,1692875643.941653,0.000000,0.000000,0.000000,0.000000,0.000000,0.000000
1692875643.965449,,,,,,,,,,,,,,,,,,,,,,,,,,,,,,,,,,,,,,,,,,,33560.000000,1692875643.951506,0.000000,0.000000,0.000000,0.000000,0.000000,0.000000
1692875643.968113,,,,,,,,,,,,,,,,,,,,,,,,,,,,,,,,,,,,,,,,,,,33561.000000,1692875643.961506,0.000000,0.000000,0.000000,0.000000,0.000000,0.000000
1692875643.968140,1.423594,-0.025652,-0.000040,-45.112921,0.000942,0.000008,0.143520,0.001458,0.000046,-0.005394,-2.880301,0.000653,-0.013485,3.094168,0.002157,-0.375360,-1.874410,-0.004911,-0.904000,0.135363,0.003000,0.000408,0.504636,0.002363,-0.541000,0.204363,0.025000,0.097520,-0.000015,0.000138,-1.274857,-0.000003,0.000038,17213.000000,1692875643.959065,0.709714,-1.570003,-0.000048,0.026286,0.000153,-0.000048,,,,,,,,,
