__time,/kms40_driver/wrench/header/seq,/kms40_driver/wrench/header/stamp,/kms40_driver/wrench/wrench/force/x,/kms40_driver/wrench/wrench/force/y,/kms40_driver/wrench/wrench/force/z,/kms40_driver/wrench/wrench/torque/x,/kms40_driver/wrench/wrench/torque/y,/kms40_driver/wrench/wrench/torque/z,/wrench/header/seq,/wrench/header/stamp,/wrench/wrench/force/x,/wrench/wrench/force/y,/wrench/wrench/force/z,/wrench/wrench/torque/x,/wrench/wrench/torque/y,/wrench/wrench/torque/z
1696593959.024010,507646.000000000,1696593959.024272919,-0.004000000,0.007000000,-0.077000000,0.000000000,0.000000000,0.001000000,,,,,,,,
1696593959.024433,,,,,,,,,158611.000000000,1696593959.024690151,30.046310145,-5.738930024,0.714732674,-2.211847394,-6.279087064,1.746619530
1696593959.026041,507647.000000000,1696593959.026311398,-0.004000000,0.008000000,-0.080000000,0.000000000,0.000000000,0.001000000,,,,,,,,
1696593959.028046,507648.000000000,1696593959.028295279,-0.004000000,0.008000000,-0.084000000,0.000000000,0.000000000,0.001000000,,,,,,,,
1696593959.030049,507649.000000000,1696593959.030313015,-0.004000000,0.009000000,-0.086000000,0.000000000,0.000000000,0.002000000,,,,,,,,
1696593959.032043,507650.000000000,1696593959.032289982,-0.003000000,0.010000000,-0.088000000,0.000000000,0.000000000,0.002000000,,,,,,,,
1696593959.032996,,,,,,,,,158612.000000000,1696593959.032723904,30.890071576,-6.546615386,0.680892586,-2.573682511,-6.619903772,1.716957642
1696593959.034086,507651.000000000,1696593959.034343004,-0.002000000,0.010000000,-0.090000000,0.000000000,0.000000000,0.002000000,,,,,,,,
1696593959.036067,507652.000000000,1696593959.036328077,-0.002000000,0.011000000,-0.092000000,0.000000000,0.000000000,0.002000000,,,,,,,,
1696593959.038083,507653.000000000,1696593959.038316488,-0.001000000,0.011000000,-0.093000000,0.000000000,0.000000000,0.002000000,,,,,,,,
1696593959.040120,507654.000000000,1696593959.040330648,-0.001000000,0.012000000,-0.094000000,0.000000000,0.000000000,0.002000000,,,,,,,,
1696593959.040683,,,,,,,,,158613.000000000,1696593959.040688753,30.803582554,-5.751467860,-1.213463886,-2.259920617,-6.394586609,1.833137724
1696593959.042090,507655.000000000,1696593959.042312384,-0.002000000,0.011000000,-0.096000000,0.000000000,0.000000000,0.002000000,,,,,,,,
1696593959.044084,507656.000000000,1696593959.044291258,-0.003000000,0.012000000,-0.097000000,0.000000000,0.000000000,0.002000000,,,,,,,,
1696593959.046091,507657.000000000,1696593959.046317339,-0.003000000,0.012000000,-0.096000000,0.000000000,0.000000000,0.002000000,,,,,,,,
1696593959.048078,507658.000000000,1696593959.048300982,-0.003000000,0.012000000,-0.097000000,0.000000000,0.000000000,0.002000000,,,,,,,,
1696593959.048484,,,,,,,,,158614.000000000,1696593959.048735619,30.946454007,-4.287252819,-0.045186972,-1.735347649,-6.380382922,1.669616428
1696593959.050062,507659.000000000,1696593959.050314665,-0.003000000,0.012000000,-0.095000000,0.000000000,0.000000000,0.002000000,,,,,,,,
1696593959.052088,507660.000000000,1696593959.052299976,-0.003000000,0.012000000,-0.093000000,0.000000000,0.000000000,0.002000000,,,,,,,,
1696593959.054018,507661.000000000,1696593959.054318666,-0.002000000,0.012000000,-0.091000000,0.000000000,0.000000000,0.002000000,,,,,,,,
1696593959.056085,507662.000000000,1696593959.056357622,-0.002000000,0.011000000,-0.089000000,0.000000000,0.000000000,0.002000000,,,,,,,,
1696593959.057123,,,,,,,,,158615.000000000,1696593959.056785583,31.078891393,-5.295155613,-0.199725647,-2.100967449,-6.570142179,1.610556679
1696593959.058031,507663.000000000,1696593959.058312178,-0.001000000,0.011000000,-0.086000000,0.000000000,0.000000000,0.002000000,,,,,,,,
1696593959.060099,507664.000000000,1696593959.060288191,-0.001000000,0.011000000,-0.083000000,0.000000000,0.000000000,0.002000000,,,,,,,,
1696593959.062051,507665.000000000,1696593959.062310457,-0.001000000,0.011000000,-0.079000000,0.000000000,0.000000000,0.001000000,,,,,,,,
1696593959.064028,507666.000000000,1696593959.064288139,-0.001000000,0.010000000,-0.077000000,0.000000000,0.000000000,0.001000000,,,,,,,,
1696593959.065367,,,,,,,,,158616.000000000,1696593959.064777613,30.305166050,-5.897513675,0.687222116,-2.338323226,-6.388386492,1.804361435
1696593959.066082,507667.000000000,1696593959.066299438,-0.002000000,0.009000000,-0.074000000,0.000000000,0.000000000,0.001000000,,,,,,,,
1696593959.068032,507668.000000000,1696593959.068290234,-0.002000000,0.009000000,-0.069000000,0.000000000,0.000000000,0.001000000,,,,,,,,
1696593959.070729,507669.000000000,1696593959.070313692,-0.003000000,0.008000000,-0.066000000,0.000000000,0.000000000,0.001000000,,,,,,,,
1696593959.072080,507670.000000000,1696593959.072299957,-0.004000000,0.007000000,-0.061000000,0.000000000,0.000000000,0.001000000,,,,,,,,
1696593959.072728,,,,,,,,,158617.000000000,1696593959.072694302,31.028571069,-5.885060941,0.611376999,-2.345642250,-6.487994588,1.780510434
1696593959.074108,507671.000000000,1696593959.074310064,-0.003000000,0.007000000,-0.056000000,0.000000000,0.000000000,0.001000000,,,,,,,,
1696593959.076046,507672.000000000,1696593959.076289654,-0.003000000,0.006000000,-0.051000000,0.000000000,0.000000000,0.001000000,,,,,,,,
1696593959.078097,507673.000000000,1696593959.078327894,-0.003000000,0.005000000,-0.045000000,0.000000000,0.000000000,0.001000000,,,,,,,,
1696593959.080094,507674.000000000,1696593959.080285788,-0.002000000,0.004000000,-0.041000000,0.000000000,0.000000000,0.001000000,,,,,,,,
1696593959.080958,,,,,,,,,158618.000000000,1696593959.080727339,30.851091577,-5.766753905,-0.203802198,-2.257383624,-6.447475681,1.696056978
1696593959.082085,507675.000000000,1696593959.082308769,-0.002000000,0.004000000,-0.036000000,0.000000000,0.000000000,0.000000000,,,,,,,,
1696593959.084146,507676.000000000,1696593959.084291935,-0.002000000,0.003000000,-0.032000000,0.000000000,0.000000000,0.000000000,,,,,,,,
1696593959.086059,507677.000000000,1696593959.086292744,-0.002000000,0.002000000,-0.026000000,0.000000000,0.000000000,0.000000000,,,,,,,,
1696593959.088048,507678.000000000,1696593959.088289738,-0.004000000,0.002000000,-0.022000000,0.000000000,0.000000000,0.000000000,,,,,,,,
1696593959.089450,,,,,,,,,158619.000000000,1696593959.088658094,30.776306348,-6.493686278,0.720218190,-2.581434228,-6.532547446,1.592178535
1696593959.090071,507679.000000000,1696593959.090311527,-0.005000000,0.001000000,-0.019000000,0.000000000,0.000000000,0.000000000,,,,,,,,
1696593959.092056,507680.000000000,1696593959.092294216,-0.005000000,0.000000000,-0.015000000,0.000000000,0.000000000,0.000000000,,,,,,,,
1696593959.094120,507681.000000000,1696593959.094311714,-0.006000000,0.000000000,-0.011000000,0.000000000,0.000000000,0.000000000,,,,,,,,
1696593959.096051,507682.000000000,1696593959.096290827,-0.006000000,-0.001000000,-0.007000000,0.000000000,0.000000000,0.000000000,,,,,,,,
1696593959.097613,,,,,,,,,158620.000000000,1696593959.096839905,30.504982348,-5.425157739,0.112500323,-2.190060961,-6.269901951,1.704962705
1696593959.098118,507683.000000000,1696593959.098317385,-0.006000000,-0.001000000,-0.002000000,0.000000000,0.000000000,0.000000000,,,,,,,,
1696593959.100145,507684.000000000,1696593959.100351572,-0.006000000,-0.002000000,0.001000000,0.000000000,0.000000000,0.000000000,,,,,,,,
1696593959.102374,507685.000000000,1696593959.102297783,-0.006000000,-0.002000000,0.005000000,0.000000000,0.000000000,0.000000000,,,,,,,,
1696593959.104130,507686.000000000,1696593959.104289293,-0.005000000,-0.003000000,0.007000000,0.000000000,0.000000000,0.000000000,,,,,,,,
1696593959.105074,,,,,,,,,158621.000000000,1696593959.104685545,31.021659521,-5.789212460,-0.537739732,-2.345692753,-6.446936724,1.683395788
1696593959.106087,507687.000000000,1696593959.106306314,-0.005000000,-0.003000000,0.011000000,0.000000000,0.000000000,0.000000000,,,,,,,,
1696593959.108331,507688.000000000,1696593959.108297586,-0.005000000,-0.004000000,0.012000000,0.000000000,0.000000000,0.000000000,,,,,,,,
1696593959.110151,507689.000000000,1696593959.110297203,-0.006000000,-0.004000000,0.014000000,0.000000000,0.000000000,0.000000000,,,,,,,,
1696593959.112127,507690.000000000,1696593959.112338543,-0.007000000,-0.005000000,0.016000000,0.000000000,0.000000000,0.000000000,,,,,,,,
1696593959.112760,,,,,,,,,158622.000000000,1696593959.112725258,30.875048846,-4.633803547,0.238715208,-1.850453339,-6.543112615,1.699827945
1696593959.114099,507691.000000000,1696593959.114306211,-0.008000000,-0.005000000,0.017000000,0.000000000,0.000000000,0.000000000,,,,,,,,
1696593959.116096,507692.000000000,1696593959.116336823,-0.009000000,-0.005000000,0.017000000,0.000000000,0.000000000,0.000000000,,,,,,,,
1696593959.118032,507693.000000000,1696593959.118297577,-0.009000000,-0.006000000,0.019000000,0.000000000,0.000000000,0.000000000,,,,,,,,
1696593959.120227,507694.000000000,1696593959.120333672,-0.008000000,-0.006000000,0.021000000,0.000000000,0.000000000,0.000000000,,,,,,,,
1696593959.121683,,,,,,,,,158623.000000000,1696593959.120784283,30.350963643,-5.424519746,-0.289472898,-2.131373959,-6.113539324,1.731650774
1696593959.122240,507695.000000000,1696593959.122363806,-0.008000000,-0.006000000,0.022000000,0.000000000,0.000000000,0.000000000,,,,,,,,
1696593959.124099,507696.000000000,1696593959.124335766,-0.007000000,-0.006000000,0.024000000,0.000000000,0.000000000,0.000000000,,,,,,,,
1696593959.126099,507697.000000000,1696593959.126295805,-0.006000000,-0.006000000,0.025000000,0.000000000,0.000000000,0.000000000,,,,,,,,
1696593959.128082,507698.000000000,1696593959.128330946,-0.006000000,-0.006000000,0.025000000,0.000000000,0.000000000,0.000000000,,,,,,,,
1696593959.129307,,,,,,,,,158624.000000000,1696593959.128836870,30.970455716,-5.364524203,-0.269916575,-2.138925844,-6.493203913,1.596866167
1696593959.130157,507699.000000000,1696593959.130311489,-0.006000000,-0.006000000,0.025000000,0.000000000,0.000000000,0.000000000,,,,,,,,
1696593959.132140,507700.000000000,1696593959.132332325,-0.006000000,-0.006000000,0.025000000,0.000000000,0.000000000,0.000000000,,,,,,,,
1696593959.134129,507701.000000000,1696593959.134294510,-0.006000000,-0.006000000,0.025000000,0.000000000,0.000000000,0.000000000,,,,,,,,
1696593959.136123,507702.000000000,1696593959.136336565,-0.007000000,-0.006000000,0.024000000,0.000000000,0.000000000,0.000000000,,,,,,,,
1696593959.136957,,,,,,,,,158625.000000000,1696593959.136693478,30.582773547,-5.515402516,-0.001270451,-2.167702211,-6.368767277,1.719917119
1696593959.138203,507703.000000000,1696593959.138309479,-0.007000000,-0.006000000,0.024000000,0.000000000,0.000000000,0.000000000,,,,,,,,
1696593959.140124,507704.000000000,1696593959.140334606,-0.007000000,-0.006000000,0.024000000,0.000000000,0.000000000,0.000000000,,,,,,,,
1696593959.142057,507705.000000000,1696593959.142314196,-0.007000000,-0.006000000,0.024000000,0.000000000,0.000000000,0.000000000,,,,,,,,
1696593959.144096,507706.000000000,1696593959.144392967,-0.007000000,-0.006000000,0.024000000,0.000000000,0.000000000,0.000000000,,,,,,,,
1696593959.145163,,,,,,,,,158626.000000000,1696593959.144747972,30.815780549,-4.812468331,-0.010242231,-1.982069842,-6.467014190,1.728605939
1696593959.146028,507707.000000000,1696593959.146309853,-0.005000000,-0.006000000,0.024000000,0.000000000,0.000000000,0.000000000,,,,,,,,
1696593959.148085,507708.000000000,1696593959.148285627,-0.005000000,-0.005000000,0.024000000,0.000000000,0.000000000,0.000000000,,,,,,,,
1696593959.150104,507709.000000000,1696593959.150305271,-0.004000000,-0.005000000,0.025000000,0.000000000,0.000000000,0.000000000,,,,,,,,
1696593959.152008,507710.000000000,1696593959.152284384,-0.004000000,-0.005000000,0.025000000,0.000000000,0.000000000,0.000000000,,,,,,,,
1696593959.152599,,,,,,,,,158627.000000000,1696593959.152688265,29.909691474,-7.313411135,0.841284533,-2.918994707,-6.075556154,1.773692757
1696593959.154057,507711.000000000,1696593959.154293537,-0.003000000,-0.005000000,0.023000000,0.000000000,0.000000000,0.000000000,,,,,,,,
1696593959.156051,507712.000000000,1696593959.156289577,-0.004000000,-0.004000000,0.024000000,0.000000000,0.000000000,0.000000000,,,,,,,,
1696593959.158040,507713.000000000,1696593959.158314943,-0.004000000,-0.004000000,0.023000000,0.000000000,0.000000000,0.000000000,,,,,,,,
1696593959.160072,507714.000000000,1696593959.160328150,-0.005000000,-0.004000000,0.023000000,0.000000000,0.000000000,0.000000000,,,,,,,,
1696593959.160679,,,,,,,,,158628.000000000,1696593959.160734653,30.751579806,-5.327178583,0.964812710,-2.077402683,-6.460318683,1.705368526
1696593959.162029,507715.000000000,1696593959.162313461,-0.006000000,-0.004000000,0.023000000,0.000000000,0.000000000,0.000000000,,,,,,,,
1696593959.164039,507716.000000000,1696593959.164326429,-0.006000000,-0.004000000,0.023000000,0.000000000,0.000000000,0.000000000,,,,,,,,
1696593959.166045,507717.000000000,1696593959.166336060,-0.005000000,-0.004000000,0.024000000,0.000000000,0.000000000,0.000000000,,,,,,,,
1696593959.168131,507718.000000000,1696593959.168342113,-0.005000000,-0.004000000,0.024000000,0.000000000,0.000000000,0.000000000,,,,,,,,
1696593959.169576,,,,,,,,,158629.000000000,1696593959.168713808,30.697476189,-5.348872745,-1.004616542,-2.140402923,-6.130816577,1.732773998
1696593959.170197,507719.000000000,1696593959.170306444,-0.004000000,-0.004000000,0.025000000,0.000000000,0.000000000,0.000000000,,,,,,,,
1696593959.172033,507720.000000000,1696593959.172291517,-0.004000000,-0.004000000,0.026000000,0.000000000,0.000000000,0.000000000,,,,,,,,
1696593959.174554,507721.000000000,1696593959.174324512,-0.003000000,-0.004000000,0.025000000,0.000000000,0.000000000,0.000000000,,,,,,,,
1696593959.176027,507722.000000000,1696593959.176291227,-0.004000000,-0.004000000,0.026000000,0.000000000,0.000000000,0.000000000,,,,,,,,
1696593959.176806,,,,,,,,,158630.000000000,1696593959.176734447,30.339331829,-5.489986995,0.353709778,-2.187145314,-6.221655816,1.608456942
1696593959.178069,507723.000000000,1696593959.178324938,-0.004000000,-0.004000000,0.026000000,0.000000000,0.000000000,0.000000000,,,,,,,,
1696593959.180073,507724.000000000,1696593959.180288792,-0.005000000,-0.004000000,0.026000000,0.000000000,0.000000000,0.000000000,,,,,,,,
1696593959.182430,507725.000000000,1696593959.182307959,-0.006000000,-0.004000000,0.025000000,0.000000000,0.000000000,0.000000000,,,,,,,,
1696593959.184041,507726.000000000,1696593959.184329510,-0.007000000,-0.004000000,0.025000000,0.000000000,0.000000000,0.000000000,,,,,,,,
1696593959.184687,,,,,,,,,158631.000000000,1696593959.184695244,30.403602998,-5.934046794,1.028803523,-2.379514313,-6.295048909,1.763958642
1696593959.186106,507727.000000000,1696593959.186315536,-0.006000000,-0.005000000,0.025000000,0.000000000,0.000000000,0.000000000,,,,,,,,
1696593959.188170,507728.000000000,1696593959.188354969,-0.006000000,-0.005000000,0.026000000,0.000000000,0.000000000,0.000000000,,,,,,,,
1696593959.190075,507729.000000000,1696593959.190311193,-0.006000000,-0.005000000,0.027000000,0.000000000,0.000000000,0.000000000,,,,,,,,
1696593959.192066,507730.000000000,1696593959.192292690,-0.006000000,-0.005000000,0.027000000,0.000000000,0.000000000,0.000000000,,,,,,,,
1696593959.192564,,,,,,,,,158632.000000000,1696593959.192715645,31.122988424,-6.395376846,0.009721656,-2.486324634,-6.587657985,1.620593362
1696593959.194079,507731.000000000,1696593959.194344521,-0.005000000,-0.005000000,0.028000000,0.000000000,0.000000000,0.000000000,,,,,,,,
1696593959.196110,507732.000000000,1696593959.196295261,-0.005000000,-0.005000000,0.027000000,0.000000000,0.000000000,0.000000000,,,,,,,,
1696593959.198094,507733.000000000,1696593959.198309422,-0.004000000,-0.005000000,0.028000000,0.000000000,0.000000000,0.000000000,,,,,,,,
1696593959.200092,507734.000000000,1696593959.200297117,-0.005000000,-0.005000000,0.026000000,0.000000000,0.000000000,0.000000000,,,,,,,,
1696593959.200475,,,,,,,,,158633.000000000,1696593959.200692892,31.052806836,-5.351216732,-0.355024680,-2.147752469,-6.537155846,1.734638217
1696593959.202127,507735.000000000,1696593959.202323914,-0.005000000,-0.005000000,0.025000000,0.000000000,0.000000000,0.000000000,,,,,,,,
1696593959.204096,507736.000000000,1696593959.204346180,-0.006000000,-0.006000000,0.025000000,0.000000000,0.000000000,0.000000000,,,,,,,,
1696593959.206131,507737.000000000,1696593959.206336737,-0.006000000,-0.006000000,0.023000000,0.000000000,0.000000000,0.000000000,,,,,,,,
1696593959.208110,507738.000000000,1696593959.208291769,-0.006000000,-0.006000000,0.023000000,0.000000000,0.000000000,0.000000000,,,,,,,,
1696593959.209347,,,,,,,,,158634.000000000,1696593959.208782434,30.513156188,-5.198301916,-0.637167573,-2.063249943,-6.336216609,1.757968164
1696593959.210665,507739.000000000,1696593959.210444212,-0.006000000,-0.006000000,0.022000000,0.000000000,0.000000000,0.000000000,,,,,,,,
1696593959.212112,507740.000000000,1696593959.212356567,-0.006000000,-0.006000000,0.022000000,0.000000000,0.000000000,0.000000000,,,,,,,,
1696593959.214079,507741.000000000,1696593959.214335442,-0.005000000,-0.006000000,0.021000000,0.000000000,0.000000000,0.000000000,,,,,,,,
1696593959.216076,507742.000000000,1696593959.216338873,-0.004000000,-0.006000000,0.021000000,0.000000000,0.000000000,0.000000000,,,,,,,,
1696593959.217017,,,,,,,,,158635.000000000,1696593959.216711998,31.124200428,-6.483937664,1.008417305,-2.513037030,-6.871959807,1.800091586
1696593959.218176,507743.000000000,1696593959.218323946,-0.003000000,-0.006000000,0.019000000,0.000000000,0.000000000,0.000000000,,,,,,,,
1696593959.220125,507744.000000000,1696593959.220346689,-0.002000000,-0.006000000,0.018000000,0.000000000,0.000000000,0.000000000,,,,,,,,
1696593959.222063,507745.000000000,1696593959.222341537,-0.002000000,-0.006000000,0.016000000,0.000000000,0.000000000,0.000000000,,,,,,,,
1696593959.224047,507746.000000000,1696593959.224329948,-0.002000000,-0.006000000,0.015000000,0.000000000,0.000000000,0.000000000,,,,,,,,
1696593959.225207,,,,,,,,,158636.000000000,1696593959.224817991,31.246145105,-6.055885129,-0.659200606,-2.400921062,-6.595195573,1.728176578
1696593959.226091,507747.000000000,1696593959.226331234,-0.003000000,-0.006000000,0.013000000,0.000000000,0.000000000,0.000000000,,,,,,,,
1696593959.228582,507748.000000000,1696593959.228344917,-0.003000000,-0.007000000,0.010000000,0.000000000,0.000000000,0.000000000,,,,,,,,
1696593959.230096,507749.000000000,1696593959.230327129,-0.003000000,-0.007000000,0.009000000,0.000000000,0.000000000,0.000000000,,,,,,,,
1696593959.232123,507750.000000000,1696593959.232370853,-0.002000000,-0.007000000,0.007000000,0.000000000,0.000000000,0.000000000,,,,,,,,
1696593959.232793,,,,,,,,,158637.000000000,1696593959.232690096,31.031571340,-5.150983419,-0.592144524,-2.046750190,-6.556060399,1.760235689
1696593959.234124,507751.000000000,1696593959.234352350,-0.002000000,-0.007000000,0.005000000,0.000000000,0.000000000,0.000000000,,,,,,,,
1696593959.236189,507752.000000000,1696593959.236413240,-0.001000000,-0.007000000,0.004000000,0.000000000,0.000000000,0.000000000,,,,,,,,
1696593959.238106,507753.000000000,1696593959.238331556,0.000000000,-0.007000000,0.003000000,0.000000000,0.000000000,0.000000000,,,,,,,,
1696593959.240142,507754.000000000,1696593959.240338087,0.001000000,-0.006000000,0.002000000,0.000000000,0.000000000,0.000000000,,,,,,,,
1696593959.241131,,,,,,,,,158638.000000000,1696593959.240753651,30.400166860,-5.324413866,0.164445919,-2.015412887,-6.187060082,1.799745365
1696593959.242116,507755.000000000,1696593959.242320299,0.002000000,-0.006000000,0.000000000,0.000000000,0.000000000,0.000000000,,,,,,,,
1696593959.244066,507756.000000000,1696593959.244301558,0.002000000,-0.006000000,-0.001000000,0.000000000,0.000000000,0.000000000,,,,,,,,
1696593959.246069,507757.000000000,1696593959.246331692,0.002000000,-0.006000000,-0.002000000,0.000000000,0.000000000,0.000000000,,,,,,,,
1696593959.248141,507758.000000000,1696593959.248324156,0.002000000,-0.006000000,-0.004000000,0.000000000,0.000000000,0.000000000,,,,,,,,
1696593959.248965,,,,,,,,,158639.000000000,1696593959.248755932,31.012460651,-5.578091301,0.181116773,-2.233005238,-6.581844573,1.653973279
1696593959.250196,507759.000000000,1696593959.250303030,0.002000000,-0.007000000,-0.007000000,0.000000000,0.000000000,0.000000000,,,,,,,,
1696593959.252104,507760.000000000,1696593959.252372742,0.001000000,-0.006000000,-0.008000000,0.000000000,0.000000000,0.000000000,,,,,,,,
1696593959.254139,507761.000000000,1696593959.254372835,0.001000000,-0.006000000,-0.008000000,0.000000000,0.000000000,0.000000000,,,,,,,,
1696593959.256177,507762.000000000,1696593959.256299734,0.002000000,-0.006000000,-0.010000000,0.000000000,0.000000000,0.000000000,,,,,,,,
1696593959.257072,,,,,,,,,158640.000000000,1696593959.256728411,31.365041196,-5.715777703,-0.081062456,-2.335794514,-6.630572809,1.712015105
1696593959.258446,507763.000000000,1696593959.258322001,0.002000000,-0.006000000,-0.011000000,0.000000000,0.000000000,0.000000000,,,,,,,,
1696593959.260270,507764.000000000,1696593959.260394335,0.003000000,-0.006000000,-0.012000000,0.000000000,0.000000000,0.000000000,,,,,,,,
1696593959.262213,507765.000000000,1696593959.262372494,0.004000000,-0.006000000,-0.013000000,0.000000000,0.000000000,0.000000000,,,,,,,,
1696593959.264103,507766.000000000,1696593959.264300346,0.004000000,-0.005000000,-0.013000000,0.000000000,0.000000000,0.000000000,,,,,,,,
1696593959.265867,,,,,,,,,158641.000000000,1696593959.264688969,31.153172832,-5.833401336,0.298776414,-2.256932292,-6.613027969,1.684471952
1696593959.266330,507767.000000000,1696593959.266352892,0.004000000,-0.005000000,-0.014000000,0.000000000,0.000000000,0.000000000,,,,,,,,
1696593959.268218,507768.000000000,1696593959.268341303,0.004000000,-0.004000000,-0.015000000,0.000000000,0.000000000,0.000000000,,,,,,,,
1696593959.270446,507769.000000000,1696593959.270370722,0.003000000,-0.004000000,-0.017000000,0.000000000,0.000000000,0.000000000,,,,,,,,
1696593959.272219,507770.000000000,1696593959.272351503,0.003000000,-0.004000000,-0.019000000,0.000000000,0.000000000,0.000000000,,,,,,,,
1696593959.272662,,,,,,,,,158642.000000000,1696593959.272737503,31.084597879,-4.718084651,-0.706501324,-1.916274684,-6.498896694,1.660427344
1696593959.274709,507771.000000000,1696593959.274337053,0.002000000,-0.003000000,-0.021000000,0.000000000,0.000000000,0.000000000,,,,,,,,
1696593959.276146,507772.000000000,1696593959.276372671,0.001000000,-0.003000000,-0.022000000,0.000000000,0.000000000,0.000000000,,,,,,,,
1696593959.278105,507773.000000000,1696593959.278341055,0.001000000,-0.002000000,-0.023000000,0.000000000,0.000000000,0.000000000,,,,,,,,
1696593959.280292,507774.000000000,1696593959.280353546,0.001000000,-0.002000000,-0.025000000,0.000000000,0.000000000,0.000000000,,,,,,,,
1696593959.280735,,,,,,,,,158643.000000000,1696593959.280663490,31.169559727,-5.303420172,0.656170319,-2.096180610,-6.761665593,1.707325057
1696593959.282119,507775.000000000,1696593959.282346010,0.001000000,-0.001000000,-0.026000000,0.000000000,0.000000000,0.000000000,,,,,,,,
1696593959.284156,507776.000000000,1696593959.284385443,0.001000000,0.000000000,-0.027000000,0.000000000,0.000000000,0.000000000,,,,,,,,
1696593959.286088,507777.000000000,1696593959.286317348,0.001000000,0.000000000,-0.028000000,0.000000000,0.000000000,0.000000000,,,,,,,,
1696593959.289051,507778.000000000,1696593959.288917542,0.001000000,0.001000000,-0.030000000,0.000000000,0.000000000,0.000000000,,,,,,,,
1696593959.289203,,,,,,,,,158644.000000000,1696593959.288697004,30.812762422,-5.509419360,0.386750909,-2.223565380,-6.551230827,1.693564131
1696593959.290536,507779.000000000,1696593959.290751457,0.001000000,0.003000000,-0.031000000,0.000000000,0.000000000,0.000000000,,,,,,,,
1696593959.292096,507780.000000000,1696593959.292297363,0.000000000,0.003000000,-0.035000000,0.000000000,0.000000000,0.000000000,,,,,,,,
1696593959.294067,507781.000000000,1696593959.294345617,0.000000000,0.005000000,-0.037000000,0.000000000,0.000000000,0.000000000,,,,,,,,
1696593959.296050,507782.000000000,1696593959.296334028,-0.001000000,0.005000000,-0.039000000,0.000000000,0.000000000,0.001000000,,,,,,,,
1696593959.297007,,,,,,,,,158645.000000000,1696593959.296703815,30.519378025,-5.574361888,0.513709463,-2.245689405,-6.250310753,1.747606588
1696593959.298583,507783.000000000,1696593959.298398256,-0.002000000,0.007000000,-0.042000000,0.000000000,0.000000000,0.001000000,,,,,,,,
1696593959.300044,507784.000000000,1696593959.300329208,-0.003000000,0.008000000,-0.044000000,0.000000000,0.000000000,0.001000000,,,,,,,,
1696593959.302060,507785.000000000,1696593959.302334547,-0.004000000,0.009000000,-0.047000000,0.000000000,0.000000000,0.001000000,,,,,,,,
1696593959.304032,507786.000000000,1696593959.304296970,-0.004000000,0.010000000,-0.047000000,0.000000000,0.000000000,0.001000000,,,,,,,,
1696593959.304918,,,,,,,,,158646.000000000,1696593959.304769516,31.091000053,-4.932907729,-0.914408612,-2.006687203,-6.536527859,1.731107333
1696593959.306060,507787.000000000,1696593959.306327820,-0.003000000,0.011000000,-0.050000000,0.000000000,0.000000000,0.001000000,,,,,,,,
1696593959.308166,507788.000000000,1696593959.308300734,-0.003000000,0.012000000,-0.051000000,0.000000000,0.000000000,0.001000000,,,,,,,,
1696593959.310170,507789.000000000,1696593959.310370445,-0.003000000,0.013000000,-0.054000000,0.000000000,0.000000000,0.001000000,,,,,,,,
1696593959.312070,507790.000000000,1696593959.312347174,-0.003000000,0.014000000,-0.057000000,0.000000000,0.000000000,0.001000000,,,,,,,,
1696593959.312813,,,,,,,,,158647.000000000,1696593959.312678099,30.747980041,-5.767045983,0.262164774,-2.301289557,-6.427498480,1.723017425
1696593959.314047,507791.000000000,1696593959.314317942,-0.004000000,0.015000000,-0.057000000,0.000000000,0.000000000,0.001000000,,,,,,,,
1696593959.316098,507792.000000000,1696593959.316301584,-0.005000000,0.016000000,-0.059000000,0.000000000,0.000000000,0.001000000,,,,,,,,
1696593959.318108,507793.000000000,1696593959.318324804,-0.006000000,0.017000000,-0.062000000,0.000000000,0.000000000,0.001000000,,,,,,,,
1696593959.320109,507794.000000000,1696593959.320353746,-0.007000000,0.017000000,-0.064000000,0.000000000,0.000000000,0.001000000,,,,,,,,
1696593959.321245,,,,,,,,,158648.000000000,1696593959.320746422,30.761907231,-5.353289439,-0.364023547,-2.065093408,-6.358088061,1.733147615
1696593959.322192,507795.000000000,1696593959.322374821,-0.007000000,0.018000000,-0.066000000,0.000000000,0.000000000,0.001000000,,,,,,,,
1696593959.324137,507796.000000000,1696593959.324285746,-0.008000000,0.018000000,-0.066000000,0.000000000,0.000000000,0.001000000,,,,,,,,
1696593959.326132,507797.000000000,1696593959.326321602,-0.008000000,0.019000000,-0.067000000,0.000000000,0.000000000,0.001000000,,,,,,,,
1696593959.328074,507798.000000000,1696593959.328301668,-0.007000000,0.019000000,-0.067000000,0.000000000,0.000000000,0.001000000,,,,,,,,
1696593959.329003,,,,,,,,,158649.000000000,1696593959.328820229,30.417268578,-5.642855506,-0.877532451,-2.221112239,-6.136919992,1.678955732
1696593959.330302,507799.000000000,1696593959.330317974,-0.007000000,0.019000000,-0.067000000,0.000000000,0.000000000,0.001000000,,,,,,,,
1696593959.332110,507800.000000000,1696593959.332352400,-0.006000000,0.019000000,-0.067000000,0.000000000,0.000000000,0.001000000,,,,,,,,
1696593959.334090,507801.000000000,1696593959.334329605,-0.006000000,0.019000000,-0.067000000,0.000000000,0.000000000,0.001000000,,,,,,,,
1696593959.336069,507802.000000000,1696593959.336335659,-0.006000000,0.019000000,-0.067000000,0.000000000,0.000000000,0.001000000,,,,,,,,
1696593959.336787,,,,,,,,,158650.000000000,1696593959.336716890,30.303646368,-5.273504690,-0.166072370,-2.105506203,-6.158389065,1.716312712
1696593959.338051,507803.000000000,1696593959.338328600,-0.007000000,0.018000000,-0.066000000,0.000000000,0.000000000,0.001000000,,,,,,,,
1696593959.340117,507804.000000000,1696593959.340325356,-0.007000000,0.018000000,-0.065000000,0.000000000,0.000000000,0.001000000,,,,,,,,
1696593959.342102,507805.000000000,1696593959.342370987,-0.008000000,0.017000000,-0.064000000,0.000000000,0.000000000,0.001000000,,,,,,,,
1696593959.344051,507806.000000000,1696593959.344300985,-0.009000000,0.016000000,-0.063000000,0.000000000,0.000000000,0.001000000,,,,,,,,
1696593959.344641,,,,,,,,,158651.000000000,1696593959.344749689,30.785790107,-6.612865604,-0.635921224,-2.616852656,-6.459371579,1.730753630
1696593959.346078,507807.000000000,1696593959.346335173,-0.009000000,0.015000000,-0.060000000,0.000000000,0.000000000,0.001000000,,,,,,,,
1696593959.348176,507808.000000000,1696593959.348423243,-0.009000000,0.014000000,-0.058000000,0.000000000,0.000000000,0.001000000,,,,,,,,
1696593959.350085,507809.000000000,1696593959.350324154,-0.008000000,0.013000000,-0.055000000,0.000000000,0.000000000,0.001000000,,,,,,,,
1696593959.352186,507810.000000000,1696593959.352422476,-0.008000000,0.012000000,-0.051000000,0.000000000,0.000000000,0.001000000,,,,,,,,
1696593959.352565,,,,,,,,,158652.000000000,1696593959.352737188,30.372847240,-6.379099592,0.256254993,-2.508750890,-6.232778751,1.836498253
1696593959.354062,507811.000000000,1696593959.354324818,-0.007000000,0.012000000,-0.048000000,0.000000000,0.000000000,0.001000000,,,,,,,,
1696593959.356104,507812.000000000,1696593959.356340647,-0.007000000,0.010000000,-0.043000000,0.000000000,0.000000000,0.000000000,,,,,,,,
1696593959.358096,507813.000000000,1696593959.358323574,-0.007000000,0.010000000,-0.041000000,0.000000000,0.000000000,0.000000000,,,,,,,,
1696593959.360184,507814.000000000,1696593959.360370874,-0.007000000,0.008000000,-0.037000000,0.000000000,0.000000000,0.000000000,,,,,,,,
1696593959.361152,,,,,,,,,158653.000000000,1696593959.360702515,31.466413981,-5.274965733,-0.501131595,-2.092576501,-6.761636134,1.626133260
1696593959.362087,507815.000000000,1696593959.362331629,-0.008000000,0.007000000,-0.034000000,0.000000000,0.000000000,0.000000000,,,,,,,,
1696593959.364160,507816.000000000,1696593959.364410639,-0.009000000,0.006000000,-0.030000000,0.000000000,0.000000000,0.000000000,,,,,,,,
1696593959.366231,507817.000000000,1696593959.366320848,-0.009000000,0.004000000,-0.026000000,0.000000000,0.000000000,0.000000000,,,,,,,,
1696593959.368067,507818.000000000,1696593959.368335009,-0.010000000,0.003000000,-0.023000000,0.000000000,0.000000000,0.000000000,,,,,,,,
1696593959.368942,,,,,,,,,158654.000000000,1696593959.368726969,31.056859196,-5.604258470,-0.420690145,-2.238431029,-6.487595458,1.764407595
1696593959.370201,507819.000000000,1696593959.370345354,-0.010000000,0.001000000,-0.018000000,0.000000000,0.000000000,0.000000000,,,,,,,,
1696593959.372121,507820.000000000,1696593959.372297049,-0.010000000,0.000000000,-0.014000000,0.000000000,0.000000000,0.000000000,,,,,,,,
1696593959.374103,507821.000000000,1696593959.374339581,-0.010000000,0.000000000,-0.009000000,0.000000000,0.000000000,0.000000000,,,,,,,,
1696593959.376016,507822.000000000,1696593959.376294136,-0.009000000,0.000000000,-0.005000000,0.000000000,0.000000000,0.000000000,,,,,,,,
1696593959.377041,,,,,,,,,158655.000000000,1696593959.376688719,31.074389986,-5.427531409,-0.084708012,-2.176343543,-6.514726310,1.694191368
1696593959.378142,507823.000000000,1696593959.378362179,-0.008000000,-0.001000000,-0.001000000,0.000000000,0.000000000,0.000000000,,,,,,,,
1696593959.380111,507824.000000000,1696593959.380354166,-0.009000000,-0.002000000,0.003000000,0.000000000,0.000000000,0.000000000,,,,,,,,
1696593959.382130,507825.000000000,1696593959.382346153,-0.009000000,-0.003000000,0.005000000,0.000000000,0.000000000,0.000000000,,,,,,,,
1696593959.384045,507826.000000000,1696593959.384330511,-0.010000000,-0.004000000,0.009000000,0.000000000,0.000000000,0.000000000,,,,,,,,
1696593959.385159,,,,,,,,,158656.000000000,1696593959.384730816,30.945583356,-6.025961529,-0.000397008,-2.353010646,-6.542622158,1.781335983
1696593959.386157,507827.000000000,1696593959.386357546,-0.010000000,-0.005000000,0.012000000,0.000000000,0.000000000,0.000000000,,,,,,,,
1696593959.388514,507828.000000000,1696593959.388338327,-0.011000000,-0.006000000,0.015000000,0.000000000,0.000000000,0.000000000,,,,,,,,
1696593959.390128,507829.000000000,1696593959.390331030,-0.012000000,-0.006000000,0.018000000,0.000000000,0.000000000,0.000000000,,,,,,,,
1696593959.392168,507830.000000000,1696593959.392410517,-0.012000000,-0.006000000,0.021000000,0.000000000,0.000000000,0.000000000,,,,,,,,
1696593959.393205,,,,,,,,,158657.000000000,1696593959.392719269,31.038304164,-4.792751142,-0.644704088,-1.930478005,-6.552350980,1.674599178
1696593959.394377,507831.000000000,1696593959.394338608,-0.012000000,-0.007000000,0.024000000,0.000000000,0.000000000,0.000000000,,,,,,,,
1696593959.396106,507832.000000000,1696593959.396361828,-0.012000000,-0.007000000,0.026000000,0.000000000,0.000000000,0.000000000,,,,,,,,
1696593959.398106,507833.000000000,1696593959.398313046,-0.011000000,-0.007000000,0.029000000,0.000000000,0.000000000,0.000000000,,,,,,,,
1696593959.400097,507834.000000000,1696593959.400357962,-0.011000000,-0.007000000,0.031000000,0.000000000,0.000000000,0.000000000,,,,,,,,
1696593959.400777,,,,,,,,,158658.000000000,1696593959.400741100,30.679425280,-5.869778609,0.174784170,-2.282619086,-6.372553692,1.682338610
1696593959.402504,507835.000000000,1696593959.402303219,-0.011000000,-0.008000000,0.034000000,0.000000000,0.000000000,0.000000000,,,,,,,,
1696593959.404121,507836.000000000,1696593959.404350758,-0.011000000,-0.007000000,0.036000000,0.000000000,0.000000000,0.000000000,,,,,,,,
1696593959.406080,507837.000000000,1696593959.406267405,-0.011000000,-0.008000000,0.036000000,0.000000000,0.000000000,0.000000000,,,,,,,,
1696593959.408145,507838.000000000,1696593959.408366680,-0.012000000,-0.008000000,0.038000000,0.000000000,0.000000000,0.000000000,,,,,,,,
1696593959.410145,,,,,,,,,158659.000000000,1696593959.408641100,31.154119371,-6.171962531,0.136249880,-2.434275187,-6.644513750,1.660002218
1696593959.410508,507839.000000000,1696593959.410308123,-0.013000000,-0.008000000,0.039000000,0.000000000,0.000000000,0.000000000,,,,,,,,
1696593959.412246,507840.000000000,1696593959.412327051,-0.013000000,-0.008000000,0.039000000,0.000000000,0.000000000,0.000000000,,,,,,,,
1696593959.414302,507841.000000000,1696593959.414309263,-0.014000000,-0.008000000,0.041000000,0.000000000,0.000000000,-0.001000000,,,,,,,,
1696593959.416150,507842.000000000,1696593959.416343212,-0.014000000,-0.008000000,0.042000000,0.000000000,0.000000000,-0.001000000,,,,,,,,
1696593959.416524,,,,,,,,,158660.000000000,1696593959.416744471,30.739411855,-6.253472421,0.865974267,-2.426515531,-6.507649027,1.741055600
1696593959.418065,507843.000000000,1696593959.418340921,-0.013000000,-0.008000000,0.042000000,0.000000000,0.000000000,-0.001000000,,,,,,,,
1696593959.420116,507844.000000000,1696593959.420301676,-0.012000000,-0.007000000,0.043000000,0.000000000,0.000000000,-0.001000000,,,,,,,,
1696593959.422170,507845.000000000,1696593959.422401190,-0.012000000,-0.007000000,0.045000000,0.000000000,0.000000000,-0.001000000,,,,,,,,
1696593959.424075,507846.000000000,1696593959.424341679,-0.011000000,-0.007000000,0.046000000,0.000000000,0.000000000,-0.001000000,,,,,,,,
1696593959.425113,,,,,,,,,158661.000000000,1696593959.424777746,30.702574405,-6.496276138,0.075056589,-2.606755974,-6.509279764,1.701789853
1696593959.426128,507847.000000000,1696593959.426343203,-0.011000000,-0.006000000,0.045000000,0.000000000,0.000000000,-0.001000000,,,,,,,,
1696593959.428178,507848.000000000,1696593959.428336859,-0.011000000,-0.007000000,0.045000000,0.000000000,0.000000000,-0.001000000,,,,,,,,
1696593959.430163,507849.000000000,1696593959.430347204,-0.011000000,-0.006000000,0.046000000,0.000000000,0.000000000,-0.001000000,,,,,,,,
1696593959.432082,507850.000000000,1696593959.432338715,-0.012000000,-0.006000000,0.045000000,0.000000000,0.000000000,-0.001000000,,,,,,,,
1696593959.433089,,,,,,,,,158662.000000000,1696593959.432700396,31.075660210,-5.453596660,0.344118042,-2.162142798,-6.671393410,1.639444953
1696593959.434077,507851.000000000,1696593959.434340239,-0.012000000,-0.006000000,0.045000000,0.000000000,0.000000000,-0.001000000,,,,,,,,
1696593959.436197,507852.000000000,1696593959.436432838,-0.013000000,-0.006000000,0.045000000,0.000000000,0.000000000,-0.001000000,,,,,,,,
1696593959.438048,507853.000000000,1696593959.438329697,-0.013000000,-0.006000000,0.044000000,0.000000000,0.000000000,-0.001000000,,,,,,,,
1696593959.440136,507854.000000000,1696593959.440345049,-0.013000000,-0.006000000,0.046000000,0.000000000,0.000000000,-0.001000000,,,,,,,,
1696593959.440754,,,,,,,,,158663.000000000,1696593959.440666914,31.279343571,-6.303611218,-0.147060195,-2.508087484,-6.705381254,1.689318166
1696593959.442071,507855.000000000,1696593959.442335129,-0.012000000,-0.006000000,0.046000000,0.000000000,0.000000000,-0.001000000,,,,,,,,
1696593959.444083,507856.000000000,1696593959.444355488,-0.011000000,-0.005000000,0.045000000,0.000000000,0.000000000,-0.001000000,,,,,,,,
1696593959.446101,507857.000000000,1696593959.446318626,-0.011000000,-0.005000000,0.046000000,0.000000000,0.000000000,-0.001000000,,,,,,,,
1696593959.448380,507858.000000000,1696593959.448367119,-0.010000000,-0.005000000,0.046000000,0.000000000,0.000000000,-0.001000000,,,,,,,,
1696593959.448864,,,,,,,,,158664.000000000,1696593959.448742151,30.758214968,-5.436593301,-0.898089354,-2.242794069,-6.233650642,1.775110062
1696593959.450161,507859.000000000,1696593959.450347662,-0.010000000,-0.005000000,0.046000000,0.000000000,0.000000000,-0.001000000,,,,,,,,
1696593959.452094,507860.000000000,1696593959.452377319,-0.011000000,-0.004000000,0.045000000,0.000000000,0.000000000,0.000000000,,,,,,,,
1696593959.454068,507861.000000000,1696593959.454315662,-0.011000000,-0.005000000,0.044000000,0.000000000,0.000000000,0.000000000,,,,,,,,
1696593959.456101,507862.000000000,1696593959.456335306,-0.012000000,-0.005000000,0.043000000,0.000000000,0.000000000,0.000000000,,,,,,,,
1696593959.456528,,,,,,,,,158665.000000000,1696593959.456679583,30.413676446,-4.920748993,-0.023520058,-1.951128883,-6.216519639,1.768724228
1696593959.458295,507863.000000000,1696593959.458317518,-0.013000000,-0.005000000,0.042000000,0.000000000,0.000000000,0.000000000,,,,,,,,
1696593959.460178,507864.000000000,1696593959.460414648,-0.014000000,-0.005000000,0.042000000,0.000000000,0.000000000,0.000000000,,,,,,,,
1696593959.462144,507865.000000000,1696593959.462330580,-0.013000000,-0.005000000,0.042000000,0.000000000,0.000000000,0.000000000,,,,,,,,
1696593959.464088,507866.000000000,1696593959.464343548,-0.013000000,-0.004000000,0.042000000,0.000000000,0.000000000,0.000000000,,,,,,,,
1696593959.465232,,,,,,,,,158666.000000000,1696593959.464727640,31.098894362,-6.947539919,-0.351535005,-2.753663501,-6.583314862,1.707868606
1696593959.466163,507867.000000000,1696593959.466331720,-0.013000000,-0.004000000,0.042000000,0.000000000,0.000000000,0.000000000,,,,,,,,
1696593959.468065,507868.000000000,1696593959.468339443,-0.012000000,-0.004000000,0.041000000,0.000000000,0.000000000,0.000000000,,,,,,,,
1696593959.470347,507869.000000000,1696593959.470619917,-0.012000000,-0.004000000,0.041000000,0.000000000,0.000000000,0.000000000,,,,,,,,
1696593959.472090,507870.000000000,1696593959.472351074,-0.012000000,-0.004000000,0.041000000,0.000000000,0.000000000,0.000000000,,,,,,,,
1696593959.473130,,,,,,,,,158667.000000000,1696593959.472670555,31.046751672,-5.354552217,-0.281577847,-2.163534181,-6.567072853,1.775875528
1696593959.474141,507871.000000000,1696593959.474394083,-0.012000000,-0.004000000,0.039000000,0.000000000,0.000000000,0.000000000,,,,,,,,
1696593959.476094,507872.000000000,1696593959.476367950,-0.013000000,-0.004000000,0.038000000,0.000000000,0.000000000,0.000000000,,,,,,,,
1696593959.478098,507873.000000000,1696593959.478337049,-0.014000000,-0.004000000,0.037000000,0.000000000,0.000000000,0.000000000,,,,,,,,
1696593959.480047,507874.000000000,1696593959.480300188,-0.015000000,-0.004000000,0.037000000,0.000000000,0.000000000,0.000000000,,,,,,,,
1696593959.480976,,,,,,,,,158668.000000000,1696593959.480691910,30.999944917,-5.694844995,-0.140373221,-2.217997279,-6.508720433,1.764919878
1696593959.482175,507875.000000000,1696593959.482353926,-0.015000000,-0.004000000,0.034000000,0.000000000,0.000000000,0.000000000,,,,,,,,
1696593959.484073,507876.000000000,1696593959.484338999,-0.015000000,-0.004000000,0.034000000,0.000000000,0.000000000,0.000000000,,,,,,,,
1696593959.486052,507877.000000000,1696593959.486337423,-0.015000000,-0.004000000,0.033000000,0.000000000,0.000000000,0.000000000,,,,,,,,
1696593959.488198,507878.000000000,1696593959.488404512,-0.015000000,-0.004000000,0.034000000,0.000000000,0.000000000,0.000000000,,,,,,,,
1696593959.489246,,,,,,,,,158669.000000000,1696593959.488706827,31.112954010,-5.742386533,-0.179667313,-2.262143267,-6.521290085,1.724690948
1696593959.490195,507879.000000000,1696593959.490334988,-0.014000000,-0.004000000,0.033000000,0.000000000,0.000000000,0.000000000,,,,,,,,
1696593959.492212,507880.000000000,1696593959.492363930,-0.013000000,-0.004000000,0.032000000,0.000000000,0.000000000,0.000000000,,,,,,,,
1696593959.494192,507881.000000000,1696593959.494324684,-0.013000000,-0.004000000,0.031000000,0.000000000,0.000000000,0.000000000,,,,,,,,
1696593959.496232,507882.000000000,1696593959.496400595,-0.013000000,-0.004000000,0.030000000,0.000000000,0.000000000,0.000000000,,,,,,,,
1696593959.497653,,,,,,,,,158670.000000000,1696593959.496688604,29.744754244,-5.579272797,0.900028595,-2.195136032,-6.052162431,1.647407420
1696593959.498619,507883.000000000,1696593959.498329639,-0.014000000,-0.004000000,0.029000000,0.000000000,0.000000000,0.000000000,,,,,,,,
1696593959.500361,507884.000000000,1696593959.500367165,-0.014000000,-0.004000000,0.028000000,0.000000000,0.000000000,0.000000000,,,,,,,,
1696593959.502168,507885.000000000,1696593959.502335310,-0.015000000,-0.004000000,0.027000000,0.000000000,0.000000000,0.000000000,,,,,,,,
1696593959.504095,507886.000000000,1696593959.504343271,-0.015000000,-0.004000000,0.026000000,0.000000000,0.000000000,0.000000000,,,,,,,,
1696593959.505212,,,,,,,,,158671.000000000,1696593959.504731894,30.772195673,-5.613220438,0.442430042,-2.261372178,-6.529057211,1.749264517
1696593959.506094,507887.000000000,1696593959.506327391,-0.015000000,-0.004000000,0.025000000,0.000000000,0.000000000,0.000000000,,,,,,,,
1696593959.508488,507888.000000000,1696593959.508335114,-0.015000000,-0.005000000,0.025000000,0.000000000,0.000000000,0.000000000,,,,,,,,
1696593959.510223,507889.000000000,1696593959.510413408,-0.014000000,-0.005000000,0.025000000,0.000000000,0.000000000,0.000000000,,,,,,,,
1696593959.512116,507890.000000000,1696593959.512357235,-0.013000000,-0.005000000,0.025000000,0.000000000,0.000000000,0.000000000,,,,,,,,
1696593959.513376,,,,,,,,,158672.000000000,1696593959.512700796,30.819068834,-5.257306122,-0.207134325,-2.073458672,-6.482057102,1.636364020
1696593959.514081,507891.000000000,1696593959.514347315,-0.012000000,-0.005000000,0.024000000,0.000000000,0.000000000,0.000000000,,,,,,,,
1696593959.516057,507892.000000000,1696593959.516342878,-0.012000000,-0.004000000,0.025000000,0.000000000,0.000000000,0.000000000,,,,,,,,
1696593959.518123,507893.000000000,1696593959.518371820,-0.011000000,-0.004000000,0.024000000,0.000000000,0.000000000,0.000000000,,,,,,,,
1696593959.520130,507894.000000000,1696593959.520401716,-0.012000000,-0.004000000,0.023000000,0.000000000,0.000000000,0.000000000,,,,,,,,
1696593959.520914,,,,,,,,,158673.000000000,1696593959.520654917,30.400843184,-6.064028830,0.481647558,-2.423042530,-6.209783080,1.723864062
1696593959.522437,507895.000000000,1696593959.522392988,-0.012000000,-0.005000000,0.023000000,0.000000000,0.000000000,0.000000000,,,,,,,,
1696593959.524095,507896.000000000,1696593959.524342775,-0.012000000,-0.005000000,0.023000000,0.000000000,0.000000000,0.000000000,,,,,,,,
1696593959.526080,507897.000000000,1696593959.526332140,-0.013000000,-0.005000000,0.022000000,0.000000000,0.000000000,0.000000000,,,,,,,,
1696593959.528125,507898.000000000,1696593959.528355598,-0.013000000,-0.005000000,0.023000000,0.000000000,0.000000000,0.000000000,,,,,,,,
1696593959.528521,,,,,,,,,158674.000000000,1696593959.528783798,30.890043033,-4.721511093,0.655509056,-1.856564623,-6.523909505,1.741926721
1696593959.530131,507899.000000000,1696593959.530313730,-0.013000000,-0.005000000,0.023000000,0.000000000,0.000000000,0.000000000,,,,,,,,
1696593959.532136,507900.000000000,1696593959.532356977,-0.012000000,-0.005000000,0.023000000,0.000000000,0.000000000,0.000000000,,,,,,,,
1696593959.534152,507901.000000000,1696593959.534331799,-0.011000000,-0.005000000,0.025000000,0.000000000,0.000000000,0.000000000,,,,,,,,
1696593959.536324,507902.000000000,1696593959.536484241,-0.011000000,-0.005000000,0.025000000,0.000000000,0.000000000,0.000000000,,,,,,,,
1696593959.537139,,,,,,,,,158675.000000000,1696593959.536756516,30.787697834,-6.605493405,-0.118828406,-2.645149467,-6.522501891,1.689458819
1696593959.538162,507903.000000000,1696593959.538350105,-0.010000000,-0.005000000,0.026000000,0.000000000,0.000000000,0.000000000,,,,,,,,
1696593959.540226,507904.000000000,1696593959.540379763,-0.009000000,-0.004000000,0.027000000,0.000000000,0.000000000,0.000000000,,,,,,,,
1696593959.542193,507905.000000000,1696593959.542327642,-0.010000000,-0.004000000,0.028000000,0.000000000,0.000000000,0.000000000,,,,,,,,
1696593959.544168,507906.000000000,1696593959.544352531,-0.010000000,-0.004000000,0.028000000,0.000000000,0.000000000,0.000000000,,,,,,,,
1696593959.545003,,,,,,,,,158676.000000000,1696593959.544706345,30.739732118,-5.048721353,-1.742938730,-2.042735559,-6.230370906,1.702824758
1696593959.546165,507907.000000000,1696593959.546391964,-0.011000000,-0.004000000,0.029000000,0.000000000,0.000000000,0.000000000,,,,,,,,
1696593959.548369,507908.000000000,1696593959.548365116,-0.012000000,-0.005000000,0.029000000,0.000000000,0.000000000,0.000000000,,,,,,,,
1696593959.550119,507909.000000000,1696593959.550341368,-0.012000000,-0.005000000,0.028000000,0.000000000,0.000000000,0.000000000,,,,,,,,
1696593959.552165,507910.000000000,1696593959.552362204,-0.013000000,-0.004000000,0.029000000,0.000000000,0.000000000,0.000000000,,,,,,,,
1696593959.553316,,,,,,,,,158677.000000000,1696593959.552700043,30.680114469,-5.926418724,-0.500744406,-2.327191952,-6.360480570,1.627861607
1696593959.554924,507911.000000000,1696593959.554356575,-0.012000000,-0.004000000,0.029000000,0.000000000,0.000000000,0.000000000,,,,,,,,
1696593959.556135,507912.000000000,1696593959.556376219,-0.012000000,-0.004000000,0.031000000,0.000000000,0.000000000,0.000000000,,,,,,,,
1696593959.558131,507913.000000000,1696593959.558365107,-0.012000000,-0.003000000,0.031000000,0.000000000,0.000000000,0.000000000,,,,,,,,
1696593959.560198,507914.000000000,1696593959.560415983,-0.012000000,-0.003000000,0.032000000,0.000000000,0.000000000,0.000000000,,,,,,,,
1696593959.560556,,,,,,,,,158678.000000000,1696593959.560697079,30.577942599,-5.896058528,-0.027703423,-2.346456153,-6.362821518,1.737031790
1696593959.562144,507915.000000000,1696593959.562346220,-0.012000000,-0.002000000,0.031000000,0.000000000,0.000000000,0.000000000,,,,,,,,
1696593959.564086,507916.000000000,1696593959.564340830,-0.012000000,-0.001000000,0.031000000,0.000000000,0.000000000,0.000000000,,,,,,,,
1696593959.566128,507917.000000000,1696593959.566327810,-0.013000000,-0.001000000,0.031000000,0.000000000,0.000000000,0.000000000,,,,,,,,
1696593959.568127,507918.000000000,1696593959.568344355,-0.014000000,0.000000000,0.029000000,0.000000000,0.000000000,0.000000000,,,,,,,,
1696593959.569072,,,,,,,,,158679.000000000,1696593959.568678617,30.957533136,-5.190524153,0.000028694,-2.063590964,-6.510976844,1.663979742
1696593959.570133,507919.000000000,1696593959.570363760,-0.015000000,0.000000000,0.027000000,0.000000000,0.000000000,0.000000000,,,,,,,,
1696593959.572099,507920.000000000,1696593959.572367191,-0.016000000,0.000000000,0.026000000,0.000000000,0.000000000,0.000000000,,,,,,,,
1696593959.574082,507921.000000000,1696593959.574328423,-0.017000000,0.001000000,0.023000000,0.000000000,0.000000000,0.000000000,,,,,,,,
1696593959.576124,507922.000000000,1696593959.576327324,-0.017000000,0.002000000,0.022000000,0.000000000,0.000000000,0.000000000,,,,,,,,
1696593959.576913,,,,,,,,,158680.000000000,1696593959.576709270,30.448561682,-5.696012211,0.347544575,-2.316691233,-6.232070991,1.597113824
1696593959.578268,507923.000000000,1696593959.578360081,-0.017000000,0.003000000,0.020000000,0.000000000,0.000000000,0.000000000,,,,,,,,
1696593959.580834,507924.000000000,1696593959.581036329,-0.017000000,0.004000000,0.018000000,0.000000000,0.000000000,0.000000000,,,,,,,,
1696593959.582042,507925.000000000,1696593959.582315207,-0.016000000,0.005000000,0.014000000,0.000000000,0.000000000,0.000000000,,,,,,,,
1696593959.584067,507926.000000000,1696593959.584354877,-0.017000000,0.006000000,0.013000000,0.000000000,0.000000000,0.000000000,,,,,,,,
1696593959.584662,,,,,,,,,158681.000000000,1696593959.584657907,30.854750537,-5.543684575,0.369757337,-2.166082421,-6.496410568,1.597863056
1696593959.586041,507927.000000000,1696593959.586323500,-0.017000000,0.007000000,0.010000000,0.000000000,0.000000000,0.000000000,,,,,,,,
1696593959.588123,507928.000000000,1696593959.588323832,-0.017000000,0.008000000,0.006000000,0.000000000,0.000000000,0.000000000,,,,,,,,
1696593959.590079,507929.000000000,1696593959.590331078,-0.018000000,0.010000000,0.001000000,0.000000000,0.000000000,0.000000000,,,,,,,,
1696593959.592103,507930.000000000,1696593959.592336893,-0.019000000,0.010000000,-0.001000000,0.000000000,0.000000000,0.000000000,,,,,,,,
1696593959.592950,,,,,,,,,158682.000000000,1696593959.592812061,31.125840048,-6.166912684,0.071415729,-2.472740883,-6.568716294,1.769781224
1696593959.594197,507931.000000000,1696593959.594304323,-0.020000000,0.012000000,-0.006000000,0.000000000,0.000000000,0.000000000,,,,,,,,
1696593959.596222,507932.000000000,1696593959.596423864,-0.020000000,0.013000000,-0.010000000,0.000000000,0.000000000,0.000000000,,,,,,,,
1696593959.598376,507933.000000000,1696593959.598315239,-0.021000000,0.014000000,-0.014000000,0.000000000,0.000000000,0.000000000,,,,,,,,
1696593959.600131,507934.000000000,1696593959.600366831,-0.020000000,0.015000000,-0.018000000,0.000000000,0.000000000,0.000000000,,,,,,,,
1696593959.600859,,,,,,,,,158683.000000000,1696593959.600692987,30.648820788,-6.713719743,-0.038965464,-2.709778127,-6.229872608,1.799673885
1696593959.602186,507935.000000000,1696593959.602327824,-0.020000000,0.016000000,-0.022000000,0.000000000,0.000000000,0.000000000,,,,,,,,
1696593959.604086,507936.000000000,1696593959.604366541,-0.020000000,0.018000000,-0.024000000,0.000000000,0.000000000,0.000000000,,,,,,,,
1696593959.606144,507937.000000000,1696593959.606353998,-0.019000000,0.019000000,-0.028000000,0.000000000,0.000000000,0.000000000,,,,,,,,
1696593959.608104,507938.000000000,1696593959.608368158,-0.018000000,0.020000000,-0.032000000,0.000000000,0.000000000,0.000000000,,,,,,,,
1696593959.609123,,,,,,,,,158684.000000000,1696593959.608756542,30.656453224,-6.209711602,-0.127610239,-2.404097479,-6.361576105,1.740235135
1696593959.610404,507939.000000000,1696593959.610353708,-0.018000000,0.021000000,-0.035000000,0.000000000,0.000000000,0.000000000,,,,,,,,
1696593959.612091,507940.000000000,1696593959.612360716,-0.018000000,0.022000000,-0.038000000,0.000000000,0.000000000,0.000000000,,,,,,,,
1696593959.614937,507941.000000000,1696593959.614316702,-0.019000000,0.022000000,-0.042000000,0.000000000,0.000000000,0.000000000,,,,,,,,
1696593959.616071,507942.000000000,1696593959.616350412,-0.019000000,0.023000000,-0.046000000,0.000000000,0.000000000,0.000000000,,,,,,,,
1696593959.616855,,,,,,,,,158685.000000000,1696593959.616666794,30.894298416,-5.942059647,-0.329997286,-2.388617205,-6.422748822,1.684097642
1696593959.618091,507943.000000000,1696593959.618341208,-0.019000000,0.023000000,-0.048000000,0.000000000,0.000000000,0.000000000,,,,,,,,
1696593959.620152,507944.000000000,1696593959.620351791,-0.019000000,0.024000000,-0.050000000,0.000000000,0.000000000,0.001000000,,,,,,,,
1696593959.622189,507945.000000000,1696593959.622362137,-0.019000000,0.024000000,-0.051000000,0.000000000,0.000000000,0.001000000,,,,,,,,
1696593959.624126,507946.000000000,1696593959.624363184,-0.018000000,0.025000000,-0.051000000,0.000000000,0.000000000,0.001000000,,,,,,,,
1696593959.625165,,,,,,,,,158686.000000000,1696593959.624706268,30.932596232,-6.671835244,0.639755385,-2.590187702,-6.557501285,1.704548143
1696593959.626124,507947.000000000,1696593959.626344919,-0.017000000,0.025000000,-0.052000000,0.000000000,0.000000000,0.001000000,,,,,,,,
1696593959.628265,507948.000000000,1696593959.628426075,-0.016000000,0.025000000,-0.052000000,0.000000000,0.000000000,0.001000000,,,,,,,,
1696593959.630214,507949.000000000,1696593959.630356312,-0.015000000,0.025000000,-0.051000000,0.000000000,0.000000000,0.001000000,,,,,,,,
1696593959.632127,507950.000000000,1696593959.632335901,-0.014000000,0.025000000,-0.052000000,0.000000000,0.000000000,0.001000000,,,,,,,,
1696593959.633116,,,,,,,,,158687.000000000,1696593959.632692814,30.997644917,-5.596442387,-0.114940246,-2.196635929,-6.526037825,1.722791748
1696593959.634118,507951.000000000,1696593959.634348631,-0.015000000,0.025000000,-0.050000000,0.000000000,0.000000000,0.001000000,,,,,,,,
1696593959.636270,507952.000000000,1696593959.636386871,-0.015000000,0.024000000,-0.049000000,0.000000000,0.000000000,0.001000000,,,,,,,,
1696593959.638234,507953.000000000,1696593959.638348579,-0.015000000,0.023000000,-0.048000000,0.000000000,0.000000000,0.001000000,,,,,,,,
1696593959.640142,507954.000000000,1696593959.640338182,-0.016000000,0.023000000,-0.045000000,0.000000000,0.000000000,0.001000000,,,,,,,,
1696593959.640707,,,,,,,,,158688.000000000,1696593959.640707731,30.785262442,-6.178702890,0.217063498,-2.421676467,-6.359292335,1.616909824
1696593959.642143,507955.000000000,1696593959.642361641,-0.016000000,0.022000000,-0.042000000,0.000000000,0.000000000,0.000000000,,,,,,,,
1696593959.644103,507956.000000000,1696593959.644344807,-0.015000000,0.021000000,-0.039000000,0.000000000,0.000000000,0.000000000,,,,,,,,
1696593959.646977,507957.000000000,1696593959.646596670,-0.015000000,0.020000000,-0.036000000,0.000000000,0.000000000,0.000000000,,,,,,,,
1696593959.648188,507958.000000000,1696593959.648379087,-0.014000000,0.019000000,-0.032000000,0.000000000,0.000000000,0.000000000,,,,,,,,
1696593959.648893,,,,,,,,,158689.000000000,1696593959.648686171,31.107267226,-5.517558182,-0.195404641,-2.209998929,-6.689311392,1.777642577
1696593959.650400,507959.000000000,1696593959.650390863,-0.013000000,0.019000000,-0.027000000,0.000000000,0.000000000,0.000000000,,,,,,,,
1696593959.652261,507960.000000000,1696593959.652362347,-0.013000000,0.017000000,-0.023000000,0.000000000,0.000000000,0.000000000,,,,,,,,
1696593959.654251,507961.000000000,1696593959.654344559,-0.012000000,0.017000000,-0.018000000,0.000000000,0.000000000,0.000000000,,,,,,,,
1696593959.656159,507962.000000000,1696593959.656363010,-0.012000000,0.016000000,-0.014000000,0.000000000,0.000000000,0.000000000,,,,,,,,
1696593959.657001,,,,,,,,,158690.000000000,1696593959.656707048,30.778978281,-6.054868559,-0.261980804,-2.402286218,-6.367761479,1.711997653
1696593959.658068,507963.000000000,1696593959.658268452,-0.013000000,0.014000000,-0.010000000,0.000000000,0.000000000,0.000000000,,,,,,,,
1696593959.660377,507964.000000000,1696593959.660403967,-0.014000000,0.013000000,-0.005000000,0.000000000,0.000000000,0.000000000,,,,,,,,
1696593959.662138,507965.000000000,1696593959.662279606,-0.014000000,0.012000000,-0.002000000,0.000000000,0.000000000,0.000000000,,,,,,,,
1696593959.664142,507966.000000000,1696593959.664353609,-0.015000000,0.010000000,0.002000000,0.000000000,0.000000000,0.000000000,,,,,,,,
1696593959.664832,,,,,,,,,158691.000000000,1696593959.664662123,30.089941312,-6.672326953,1.043615820,-2.619799706,-6.209418712,1.686434904
1696593959.666229,507967.000000000,1696593959.666318655,-0.015000000,0.009000000,0.005000000,0.000000000,0.000000000,0.000000000,,,,,,,,
1696593959.668538,507968.000000000,1696593959.668362141,-0.015000000,0.008000000,0.011000000,0.000000000,0.000000000,0.000000000,,,,,,,,
1696593959.670234,507969.000000000,1696593959.670328379,-0.015000000,0.006000000,0.015000000,0.000000000,0.000000000,0.000000000,,,,,,,,
1696593959.672271,507970.000000000,1696593959.672379494,-0.014000000,0.005000000,0.019000000,0.000000000,0.000000000,0.000000000,,,,,,,,
1696593959.672632,,,,,,,,,158692.000000000,1696593959.672719479,31.022673696,-6.010947195,-0.236406027,-2.333859707,-6.716520554,1.685377704
1696593959.674188,507971.000000000,1696593959.674329758,-0.013000000,0.004000000,0.022000000,0.000000000,0.000000000,0.000000000,,,,,,,,
1696593959.676154,507972.000000000,1696593959.676348686,-0.013000000,0.003000000,0.026000000,0.000000000,0.000000000,0.000000000,,,,,,,,
1696593959.678185,507973.000000000,1696593959.678334713,-0.013000000,0.002000000,0.030000000,0.000000000,0.000000000,0.000000000,,,,,,,,
1696593959.680104,507974.000000000,1696593959.680324078,-0.014000000,0.001000000,0.031000000,0.000000000,0.000000000,0.000000000,,,,,,,,
1696593959.680467,,,,,,,,,158693.000000000,1696593959.680670261,30.571847640,-5.874768951,0.123949725,-2.297726824,-6.307025291,1.709317638
1696593959.682213,507975.000000000,1696593959.682351828,-0.015000000,0.000000000,0.034000000,0.000000000,0.000000000,0.000000000,,,,,,,,
1696593959.684357,507976.000000000,1696593959.684343815,-0.016000000,0.000000000,0.036000000,0.000000000,0.000000000,0.000000000,,,,,,,,
1696593959.686133,507977.000000000,1696593959.686355829,-0.016000000,-0.001000000,0.036000000,0.000000000,0.000000000,0.000000000,,,,,,,,
1696593959.688131,507978.000000000,1696593959.688359737,-0.017000000,-0.002000000,0.038000000,0.000000000,0.000000000,0.000000000,,,,,,,,
1696593959.689067,,,,,,,,,158694.000000000,1696593959.688697338,30.302905923,-6.126062528,-0.396256129,-2.426931531,-6.174531463,1.778894361
1696593959.690170,507979.000000000,1696593959.690336943,-0.017000000,-0.003000000,0.039000000,0.000000000,0.000000000,0.000000000,,,,,,,,
1696593959.692188,507980.000000000,1696593959.692359924,-0.017000000,-0.004000000,0.040000000,0.000000000,0.000000000,0.000000000,,,,,,,,
1696593959.694180,507981.000000000,1696593959.694350958,-0.017000000,-0.005000000,0.042000000,0.000000000,0.000000000,0.000000000,,,,,,,,
1696593959.696272,507982.000000000,1696593959.696418524,-0.015000000,-0.005000000,0.041000000,0.000000000,0.000000000,0.000000000,,,,,,,,
1696593959.696949,,,,,,,,,158695.000000000,1696593959.696685553,30.529898534,-5.977718524,0.257360991,-2.376546266,-6.238836732,1.737510514
1696593959.698142,507983.000000000,1696593959.698328257,-0.015000000,-0.005000000,0.042000000,0.000000000,0.000000000,0.000000000,,,,,,,,
1696593959.700173,507984.000000000,1696593959.700400591,-0.015000000,-0.006000000,0.041000000,0.000000000,0.000000000,0.000000000,,,,,,,,
1696593959.703143,507985.000000000,1696593959.702331305,-0.015000000,-0.007000000,0.041000000,0.000000000,0.000000000,0.000000000,,,,,,,,
1696593959.704392,507986.000000000,1696593959.704364538,-0.016000000,-0.007000000,0.040000000,0.000000000,0.000000000,0.000000000,,,,,,,,
1696593959.704983,,,,,,,,,158696.000000000,1696593959.704697132,31.043748183,-5.078056991,-0.644188020,-2.059499307,-6.402193756,1.690917019
1696593959.706114,507987.000000000,1696593959.706341982,-0.017000000,-0.008000000,0.039000000,0.000000000,0.000000000,0.000000000,,,,,,,,
1696593959.708175,507988.000000000,1696593959.708361149,-0.017000000,-0.009000000,0.036000000,0.000000000,0.000000000,0.000000000,,,,,,,,
