__time,/hsrb/joint_states/arm_flex_joint/effort,/hsrb/joint_states/arm_flex_joint/position,/hsrb/joint_states/arm_flex_joint/velocity,/hsrb/joint_states/arm_lift_joint/effort,/hsrb/joint_states/arm_lift_joint/position,/hsrb/joint_states/arm_lift_joint/velocity,/hsrb/joint_states/arm_roll_joint/effort,/hsrb/joint_states/arm_roll_joint/position,/hsrb/joint_states/arm_roll_joint/velocity,/hsrb/joint_states/base_l_drive_wheel_joint/effort,/hsrb/joint_states/base_l_drive_wheel_joint/position,/hsrb/joint_states/base_l_drive_wheel_joint/velocity,/hsrb/joint_states/base_r_drive_wheel_joint/effort,/hsrb/joint_states/base_r_drive_wheel_joint/position,/hsrb/joint_states/base_r_drive_wheel_joint/velocity,/hsrb/joint_states/base_roll_joint/effort,/hsrb/joint_states/base_roll_joint/position,/hsrb/joint_states/base_roll_joint/velocity,/hsrb/joint_states/hand_l_spring_proximal_joint/effort,/hsrb/joint_states/hand_l_spring_proximal_joint/position,/hsrb/joint_states/hand_l_spring_proximal_joint/velocity,/hsrb/joint_states/hand_motor_joint/effort,/hsrb/joint_states/hand_motor_joint/position,/hsrb/joint_states/hand_motor_joint/velocity,/hsrb/joint_states/hand_r_spring_proximal_joint/effort,/hsrb/joint_states/hand_r_spring_proximal_joint/position,/hsrb/joint_states/hand_r_spring_proximal_joint/velocity,/hsrb/joint_states/head_pan_joint/effort,/hsrb/joint_states/head_pan_joint/position,/hsrb/joint_states/head_pan_joint/velocity,/hsrb/joint_states/head_tilt_joint/effort,/hsrb/joint_states/head_tilt_joint/position,/hsrb/joint_states/head_tilt_joint/velocity,/hsrb/joint_states/header/seq,/hsrb/joint_states/header/stamp,/hsrb/joint_states/wrist_flex_joint/effort,/hsrb/joint_states/wrist_flex_joint/position,/hsrb/joint_states/wrist_flex_joint/velocity,/hsrb/joint_states/wrist_roll_joint/effort,/hsrb/joint_states/wrist_roll_joint/position,/hsrb/joint_states/wrist_roll_joint/velocity,/hsrb/pressure_sensor/data,/hsrb/wrist_wrench/compensated/header/seq,/hsrb/wrist_wrench/compensated/header/stamp,/hsrb/wrist_wrench/compensated/wrench/force/x,/hsrb/wrist_wrench/compensated/wrench/force/y,/hsrb/wrist_wrench/compensated/wrench/force/z,/hsrb/wrist_wrench/compensated/wrench/torque/x,/hsrb/wrist_wrench/compensated/wrench/torque/y,/hsrb/wrist_wrench/compensated/wrench/torque/z
1692616182.977319,,,,,,,,,,,,,,,,,,,,,,,,,,,,,,,,,,,,,,,,,,,70875.000000,1692616182.965592,0.000000,0.000000,0.000000,0.000000,0.000000,0.000000
1692616182.982668,1.132404,-0.518443,-0.000034,68.979112,0.201825,-0.000408,-0.099360,-0.023137,-0.000046,-0.016182,21.263942,0.001900,-0.024273,13.348206,0.000653,0.088320,-1.232300,-0.001570,-1.881000,-0.045363,0.020999,0.023337,1.224363,-0.004727,-1.595000,0.009636,0.007000,0.040480,-0.000015,0.000138,-1.209143,0.000010,0.000038,35948.000000,1692616182.964814,0.667657,-1.052282,0.000048,-0.205029,0.011278,0.000048,,,,,,,,,
1692616182.986543,,,,,,,,,,,,,,,,,,,,,,,,,,,,,,,,,,,,,,,,,,,70876.000000,1692616182.975666,0.000000,0.000000,0.000000,0.000000,0.000000,0.000000
1692616182.990674,1.957442,-0.518826,0.000034,69.852265,0.201826,0.000008,0.038640,-0.023137,-0.000046,0.000000,21.263982,0.003681,-0.021576,13.348206,0.000653,0.099360,-1.232289,0.000429,-1.881000,-0.045363,0.000000,0.022517,1.224363,-0.004727,-1.595000,0.009636,0.010999,0.068080,-0.000015,0.000138,-1.281429,0.000010,0.000038,35949.000000,1692616182.974829,0.620343,-1.052282,0.000048,-0.157714,0.011278,0.000048,,,,,,,,,
1692616182.995545,,,,,,,,,,,,,,,,,,,,,,,,,,,,,,,,,,,,,,,,,,,70877.000000,1692616182.985630,0.000000,0.000000,0.000000,0.000000,0.000000,0.000000
1692616183.010244,,,,,,,,,,,,,,,,,,,,,,,,,,,,,,,,,,,,,,,,,,,70878.000000,1692616182.995887,0.000000,0.000000,0.000000,0.000000,0.000000,0.000000
1692616183.021037,,,,,,,,,,,,,,,,,,,,,,,,,,,,,,,,,,,,,,,,,,,70879.000000,1692616183.005610,0.000000,0.000000,0.000000,0.000000,0.000000,0.000000
1692616183.021207,1.650075,-0.518826,0.001666,69.561214,0.201826,0.000008,0.093840,-0.023137,-0.000046,0.048546,21.263922,-0.000593,-0.008091,13.348206,0.000653,0.132480,-1.232289,0.000094,-1.876000,-0.041955,0.017999,0.027432,1.224954,-0.001772,-1.600000,0.005046,0.001000,0.106720,-0.000015,0.000138,-1.169714,0.000010,0.000038,35950.000000,1692616183.004822,0.678171,-1.052282,0.000048,-0.126171,0.011278,0.000048,,,,,,,,,
1692616183.036682,,,,,,,,,,,,,,,,,,,,,,,,,,,,,,,,,,,,,,,,,,,70880.000000,1692616183.015750,0.000000,0.000000,0.000000,0.000000,0.000000,0.000000
1692616183.039311,,,,,,,,,,,,,,,,,,,,,,,,,,,,,,,,,,,,,,,,,,,70881.000000,1692616183.025608,0.000000,0.000000,0.000000,0.000000,0.000000,0.000000
1692616183.042328,3.397213,-0.518826,0.000254,68.979112,0.201826,0.000008,0.204240,-0.023137,-0.000046,0.051243,21.263942,-0.007145,-0.018879,13.348206,0.000653,0.022080,-1.232300,-0.000094,-1.879000,-0.045363,0.013000,0.029478,1.224363,-0.004136,-1.603000,0.004636,-0.008999,0.020240,-0.000015,0.000138,-1.347143,0.000010,0.000038,35951.000000,1692616183.024818,0.573029,-1.052282,0.000048,-0.210286,0.011278,0.000048,,,,,,,,,
1692616183.050454,,,,,,,,,,,,,,,,,,,,,,,,,,,,,,,,,,,,,,,,,,,70882.000000,1692616183.036438,0.000000,0.000000,0.000000,0.000000,0.000000,0.000000
1692616183.060963,,,,,,,,,,,,,,,,,,,,,,,,,,,,,,,,,,,,,,,,,,,70883.000000,1692616183.045692,0.000000,0.000000,0.000000,0.000000,0.000000,0.000000
1692616183.060983,2.345694,-0.518826,0.001593,68.688061,0.201826,0.000008,0.033120,-0.023137,-0.000046,0.002697,21.263982,0.001642,-0.016182,13.348206,0.000653,0.044160,-1.232289,0.001560,-1.876000,-0.042363,-0.002000,0.025383,1.224363,-0.004136,-1.605000,0.004636,-0.013000,0.046000,-0.000015,0.000138,-1.419429,0.000006,-0.000085,35952.000000,1692616183.044819,0.746514,-1.052282,0.000048,-0.057829,0.011278,0.000048,,,,,,,,,
1692616183.071629,,,,,,,,,,,,,,,,,,,,,,,,,,,,,,,,,,,,,,,,,,,70884.000000,1692616183.055622,0.000000,0.000000,0.000000,0.000000,0.000000,0.000000
1692616183.076244,,,,,,,,,,,,,,,,,,,,,,,,,,,,,,,,,,,,,,,,,,,70885.000000,1692616183.065576,0.000000,0.000000,0.000000,0.000000,0.000000,0.000000
1692616183.084564,2.410403,-0.518826,0.000884,68.688061,0.201826,0.000008,0.000000,-0.023137,-0.000046,-0.024273,21.263962,0.002850,-0.021576,13.348206,0.000653,0.099360,-1.232289,0.000596,-1.879000,-0.046728,0.008000,0.023746,1.226727,0.007090,-1.610000,0.002272,-0.017000,0.055200,-0.000015,0.000138,-1.366857,0.000006,-0.000038,35953.000000,1692616183.064814,0.636114,-1.052282,0.000048,-0.210286,0.011278,0.000048,,,,,,,,,
1692616183.086240,,,,,,,,,,,,,,,,,,,,,,,,,,,,,,,,,,,,,,,,,,,70886.000000,1692616183.075595,0.000000,0.000000,0.000000,0.000000,0.000000,0.000000
1692616183.096169,1.423594,-0.518443,0.000046,68.397010,0.201826,0.000008,0.220800,-0.023137,-0.000046,0.021576,21.263962,-0.003206,-0.018879,13.348206,0.000653,0.154560,-1.232289,0.000094,-1.878000,-0.045728,0.003000,0.022929,1.226727,0.007090,-1.610000,0.001273,-0.012000,0.020240,-0.000015,0.000138,-1.406286,0.000006,-0.000038,35954.000000,1692616183.074822,0.709714,-1.052282,0.000048,-0.247086,0.011278,0.000048,,,,,,,,,
1692616183.101259,,,,,,,,,,,,,,,,,,,,,,,,,,,,,,,,,,,,,,,,,,,70887.000000,1692616183.085846,0.000000,0.000000,0.000000,0.000000,0.000000,0.000000
1692616183.101271,,,,,,,,,,,,,,,,,,,,,,,,,,,,,,,,,,,,,,,,,,0.000000,,,,,,,,
1692616183.111638,,,,,,,,,,,,,,,,,,,,,,,,,,,,,,,,,,,,,,,,,,,70888.000000,1692616183.095491,0.000000,0.000000,0.000000,0.000000,0.000000,0.000000
1692616183.119459,3.413390,-0.518826,0.000371,68.688061,0.201826,0.000008,0.071760,-0.023132,0.000046,0.056637,21.263904,-0.007640,-0.016182,13.348206,0.000653,0.176640,-1.232289,0.000094,-1.886000,-0.049136,-0.013000,0.027841,1.226136,0.004136,-1.623000,-0.004136,-0.043000,0.114080,-0.000015,0.000138,-1.432571,0.000006,-0.000038,35955.000000,1692616183.104818,0.636114,-1.052282,0.000048,-0.199771,0.011278,0.000048,,,,,,,,,
1692616183.122697,,,,,,,,,,,,,,,,,,,,,,,,,,,,,,,,,,,,,,,,,,,70889.000000,1692616183.105508,0.000000,0.000000,0.000000,0.000000,0.000000,0.000000
1692616183.134037,,,,,,,,,,,,,,,,,,,,,,,,,,,,,,,,,,,,,,,,,,,70890.000000,1692616183.115677,0.000000,0.000000,0.000000,0.000000,0.000000,0.000000
1692616183.140857,3.008960,-0.518443,-0.000046,68.397010,0.201826,0.000008,0.071760,-0.023132,0.000046,0.035061,21.263982,0.002810,-0.018879,13.348206,0.000653,0.044160,-1.232289,0.005277,-1.889000,-0.050137,-0.013000,0.027020,1.226136,0.004136,-1.623000,-0.001136,-0.028999,0.110400,-0.000015,0.000138,-1.301143,0.000006,-0.000038,35956.000000,1692616183.124816,0.615086,-1.052282,0.000048,-0.110400,0.011278,0.000048,,,,,,,,,
1692616183.143070,,,,,,,,,,,,,,,,,,,,,,,,,,,,,,,,,,,,,,,,,,,70891.000000,1692616183.125644,0.000000,0.000000,0.000000,0.000000,0.000000,0.000000
1692616183.152052,,,,,,,,,,,,,,,,,,,,,,,,,,,,,,,,,,,,,,,,,,,70892.000000,1692616183.135845,0.000000,0.000000,0.000000,0.000000,0.000000,0.000000
1692616183.162986,3.801643,-0.518826,-0.000018,68.397010,0.201826,0.000008,0.099360,-0.023132,0.000046,-0.021576,21.263982,0.003127,-0.016182,13.348206,0.000653,0.121440,-1.232289,0.000094,-1.891000,-0.050137,-0.020999,0.026204,1.226136,0.001181,-1.621000,-0.000137,-0.017000,0.119600,-0.000015,0.000138,-1.202571,0.000006,-0.000038,35957.000000,1692616183.144820,0.746514,-1.052282,0.000048,-0.141943,0.011278,0.000048,,,,,,,,,
1692616183.165191,,,,,,,,,,,,,,,,,,,,,,,,,,,,,,,,,,,,,,,,,,,70893.000000,1692616183.145583,0.000000,0.000000,0.000000,0.000000,0.000000,0.000000
1692616183.172236,,,,,,,,,,,,,,,,,,,,,,,,,,,,,,,,,,,,,,,,,,,70894.000000,1692616183.155831,0.000000,0.000000,0.000000,0.000000,0.000000,0.000000
1692616183.180500,3.995769,-0.518826,-0.000109,68.688061,0.201826,0.000008,-0.027600,-0.023132,0.000046,-0.037758,21.263962,0.004552,-0.018879,13.348206,0.000653,-0.055200,-1.232300,-0.000366,-1.891000,-0.049727,-0.004999,0.024566,1.226727,0.003545,-1.618000,0.003273,0.003000,0.099360,-0.000015,0.000138,-1.314286,0.000006,-0.000038,35958.000000,1692616183.164814,0.688686,-1.052282,0.000048,-0.184000,0.011278,0.000048,,,,,,,,,
1692616183.182850,,,,,,,,,,,,,,,,,,,,,,,,,,,,,,,,,,,,,,,,,,,70895.000000,1692616183.165583,0.000000,0.000000,0.000000,0.000000,0.000000,0.000000
1692616183.190637,1.035341,-0.518443,0.000646,68.688061,0.201826,0.000008,0.016560,-0.023132,0.000046,-0.032364,21.263982,0.001504,-0.013485,13.348206,0.000653,0.121440,-1.232289,0.000094,-1.893000,-0.051137,-0.008999,0.025383,1.226136,0.005909,-1.618000,0.003864,0.003000,0.077280,-0.000015,0.000138,-1.406286,0.000006,-0.000038,35959.000000,1692616183.174821,0.672914,-1.052282,0.000048,-0.226057,0.011278,0.000048,,,,,,,,,
1692616183.198920,,,,,,,,,,,,,,,,,,,,,,,,,,,,,,,,,,,,,,,,,,,70896.000000,1692616183.175639,0.000000,0.000000,0.000000,0.000000,0.000000,0.000000
1692616183.214025,,,,,,,,,,,,,,,,,,,,,,,,,,,,,,,,,,,,,,,,,,0.000000,,,,,,,,
1692616183.214042,,,,,,,,,,,,,,,,,,,,,,,,,,,,,,,,,,,,,,,,,,,70897.000000,1692616183.185491,0.000000,0.000000,0.000000,0.000000,0.000000,0.000000
1692616183.218576,,,,,,,,,,,,,,,,,,,,,,,,,,,,,,,,,,,,,,,,,,,70898.000000,1692616183.195606,0.000000,0.000000,0.000000,0.000000,0.000000,0.000000
1692616183.225986,2.491289,-0.518826,0.000991,68.688061,0.201826,0.000008,0.044160,-0.023132,0.000046,0.086304,21.263922,-0.008986,-0.013485,13.348206,0.000653,-0.154560,-1.232300,-0.001319,-1.894000,-0.050546,-0.017999,0.029070,1.225545,0.002954,-1.616000,0.005454,0.003000,0.082800,-0.000015,0.000138,-1.255143,0.000006,-0.000038,35960.000000,1692616183.204818,0.646629,-1.052282,0.000048,-0.157714,0.011278,0.000048,,,,,,,,,
1692616183.229561,,,,,,,,,,,,,,,,,,,,,,,,,,,,,,,,,,,,,,,,,,,70899.000000,1692616183.205624,0.000000,0.000000,0.000000,0.000000,0.000000,0.000000
1692616183.233402,,,,,,,,,,,,,,,,,,,,,,,,,,,,,,,,,,,,,,,,,,,70900.000000,1692616183.216746,0.000000,0.000000,0.000000,0.000000,0.000000,0.000000
1692616183.242209,,,,,,,,,,,,,,,,,,,,,,,,,,,,,,,,,,,,,,,,,,,70901.000000,1692616183.225757,0.000000,0.000000,0.000000,0.000000,0.000000,0.000000
1692616183.242218,3.445744,-0.518826,0.000325,69.270163,0.201826,0.000008,0.044160,-0.023132,0.000046,0.035061,21.263982,0.003166,-0.013485,13.348206,0.000653,0.088320,-1.232289,0.005319,-1.894000,-0.048728,-0.003000,0.022517,1.226727,0.005909,-1.615000,0.005272,-0.003000,0.038640,-0.000015,0.000138,-1.281429,0.000006,-0.000038,35961.000000,1692616183.224814,0.636114,-1.052282,0.000048,-0.184000,0.011278,0.000048,,,,,,,,,
1692616183.257712,,,,,,,,,,,,,,,,,,,,,,,,,,,,,,,,,,,,,,,,,,,70902.000000,1692616183.235511,0.000000,0.000000,0.000000,0.000000,0.000000,0.000000
1692616183.262586,2.685416,-0.518443,0.000018,68.688061,0.201826,0.000008,0.110400,-0.023132,0.000046,-0.018879,21.263982,0.004829,-0.010788,13.348206,0.000653,0.088320,-1.232300,-0.006042,-1.884000,-0.039955,-0.003000,0.024566,1.224954,-0.002954,-1.613000,0.006045,0.012000,0.064400,-0.000015,0.000138,-1.143429,0.000006,-0.000038,35962.000000,1692616183.244813,0.646629,-1.052282,0.000048,-0.094629,0.011278,0.000048,,,,,,,,,
1692616183.266144,,,,,,,,,,,,,,,,,,,,,,,,,,,,,,,,,,,,,,,,,,,70903.000000,1692616183.245578,0.000000,0.000000,0.000000,0.000000,0.000000,0.000000
1692616183.266866,,,,,,,,,,,,,,,,,,,,,,,,,,,,,,,,,,,,,,,,,,,70904.000000,1692616183.255995,0.000000,0.000000,0.000000,0.000000,0.000000,0.000000
1692616183.272537,2.960428,-0.518443,-0.000056,68.105959,0.201826,0.000008,-0.011040,-0.023132,0.000046,0.064728,21.263904,-0.008986,-0.016182,13.348206,0.000653,0.033120,-1.232289,0.008283,-1.884000,-0.039955,-0.003000,0.027020,1.224954,-0.002954,-1.610000,0.008046,0.012000,0.090160,-0.000015,0.000138,-1.261714,0.000006,-0.000038,35963.000000,1692616183.254826,0.641371,-1.052282,0.000048,-0.231314,0.011278,0.000048,,,,,,,,,
1692616183.276989,,,,,,,,,,,,,,,,,,,,,,,,,,,,,,,,,,,,,,,,,,,70905.000000,1692616183.265605,0.000000,0.000000,0.000000,0.000000,0.000000,0.000000
1692616183.287099,,,,,,,,,,,,,,,,,,,,,,,,,,,,,,,,,,,,,,,,,,,70906.000000,1692616183.275700,0.000000,0.000000,0.000000,0.000000,0.000000,0.000000
1692616183.290618,2.847188,-0.518443,-0.000018,68.688061,0.201826,0.000008,0.121440,-0.023132,0.000046,0.035061,21.264002,0.007818,-0.016182,13.348206,0.000653,0.154560,-1.232289,0.000094,-1.886000,-0.042546,0.029999,0.025795,1.225545,-0.002954,-1.606000,0.009455,0.010999,0.046000,-0.000015,0.000138,-1.353714,0.000006,-0.000038,35964.000000,1692616183.274824,0.625600,-1.052282,0.000048,-0.162971,0.011278,0.000048,,,,,,,,,
1692616183.297374,,,,,,,,,,,,,,,,,,,,,,,,,,,,,,,,,,,,,,,,,,,70907.000000,1692616183.285622,0.000000,0.000000,0.000000,0.000000,0.000000,0.000000
1692616183.308014,,,,,,,,,,,,,,,,,,,,,,,,,,,,,,,,,,,,,,,,,,,70908.000000,1692616183.295706,0.000000,0.000000,0.000000,0.000000,0.000000,0.000000
1692616183.308432,,,,,,,,,,,,,,,,,,,,,,,,,,,,,,,,,,,,,,,,,,0.000000,,,,,,,,
1692616183.328164,,,,,,,,,,,,,,,,,,,,,,,,,,,,,,,,,,,,,,,,,,,70909.000000,1692616183.305847,0.000000,0.000000,0.000000,0.000000,0.000000,0.000000
1692616183.328657,3.397213,-0.518826,0.000018,68.979112,0.201826,0.000008,-0.088320,-0.023132,0.000046,0.118668,21.263922,-0.007937,-0.016182,13.348206,0.000653,0.154560,-1.232289,0.000094,-1.881000,-0.039136,0.018999,0.022929,1.226136,0.002954,-1.605000,0.008864,0.018999,0.057040,-0.000015,0.000138,-1.176286,0.000006,-0.000038,35965.000000,1692616183.304815,0.651886,-1.052282,0.000048,-0.126171,0.011278,0.000048,,,,,,,,,
1692616183.339332,,,,,,,,,,,,,,,,,,,,,,,,,,,,,,,,,,,,,,,,,,,70911.000000,1692616183.327221,0.000000,0.000000,0.000000,0.000000,0.000000,0.000000
1692616183.343412,1.180936,-0.518443,-0.000046,67.523857,0.201826,0.000008,-0.099360,-0.023132,0.000046,-0.008091,21.263962,-0.001524,-0.008091,13.348206,0.000653,0.044160,-1.232300,-0.004900,-1.881000,-0.039546,0.037000,0.023746,1.225545,0.002954,-1.605000,0.008454,0.021999,0.042320,-0.000015,0.000138,-1.189429,0.000006,-0.000038,35966.000000,1692616183.324818,0.630857,-1.052282,0.000048,-0.184000,0.011278,0.000048,,,,,,,,,
1692616183.354690,,,,,,,,,,,,,,,,,,,,,,,,,,,,,,,,,,,,,,,,,,,70912.000000,1692616183.337598,0.000000,0.000000,0.000000,0.000000,0.000000,0.000000
1692616183.356766,1.148581,-0.518443,-0.000018,67.523857,0.201826,0.000008,0.038640,-0.023132,0.000046,-0.056637,21.263962,0.005502,-0.016182,13.348206,0.000653,0.121440,-1.232289,0.000094,-1.881000,-0.039546,0.030999,0.027020,1.225545,0.000000,-1.608000,0.005454,0.016000,0.071760,-0.000015,0.000138,-1.150000,0.000006,-0.000038,35967.000000,1692616183.334824,0.704457,-1.052282,0.000048,-0.162971,0.011278,0.000048,,,,,,,,,
1692616183.359207,,,,,,,,,,,,,,,,,,,,,,,,,,,,,,,,,,,,,,,,,,,70913.000000,1692616183.345541,0.000000,0.000000,0.000000,0.000000,0.000000,0.000000
1692616183.372007,,,,,,,,,,,,,,,,,,,,,,,,,,,,,,,,,,,,,,,,,,,70914.000000,1692616183.355620,0.000000,0.000000,0.000000,0.000000,0.000000,0.000000
1692616183.379235,0.905923,-0.518443,-0.000290,67.523857,0.201826,0.000008,-0.077280,-0.023132,0.000046,-0.024273,21.263962,0.003463,-0.018879,13.348206,0.000653,0.121440,-1.232289,0.000094,-1.876000,-0.039546,0.017999,0.024975,1.225545,0.000000,-1.608000,0.005454,0.004999,0.057040,-0.000015,0.000138,-1.261714,0.000006,-0.000038,35968.000000,1692616183.364815,0.646629,-1.052282,0.000048,-0.141943,0.011278,0.000048,,,,,,,,,
1692616183.380903,,,,,,,,,,,,,,,,,,,,,,,,,,,,,,,,,,,,,,,,,,,70915.000000,1692616183.366495,0.000000,0.000000,0.000000,0.000000,0.000000,0.000000
1692616183.389743,,,,,,,,,,,,,,,,,,,,,,,,,,,,,,,,,,,,,,,,,,,70916.000000,1692616183.375604,0.000000,0.000000,0.000000,0.000000,0.000000,0.000000
1692616183.404360,,,,,,,,,,,,,,,,,,,,,,,,,,,,,,,,,,,,,,,,,,,70917.000000,1692616183.385536,0.000000,0.000000,0.000000,0.000000,0.000000,0.000000
1692616183.404387,2.394226,-0.518826,0.000208,67.814908,0.201826,0.000008,-0.071760,-0.023132,0.000046,-0.026970,21.263942,0.001464,-0.016182,13.348206,0.000653,0.132480,-1.232289,0.000094,-1.883000,-0.044499,0.016000,0.029887,1.228499,0.014772,-1.613000,0.002500,0.000000,0.126960,-0.000015,0.000138,-1.189429,0.000006,-0.000038,35969.000000,1692616183.384817,0.583543,-1.052282,0.000048,-0.157714,0.011278,0.000048,,,,,,,,,
1692616183.412070,,,,,,,,,,,,,,,,,,,,,,,,,,,,,,,,,,,,,,,,,,,70918.000000,1692616183.395844,0.000000,0.000000,0.000000,0.000000,0.000000,0.000000
1692616183.422905,,,,,,,,,,,,,,,,,,,,,,,,,,,,,,,,,,,,,,,,,,0.000000,,,,,,,,
1692616183.423320,2.070682,-0.518826,0.000018,67.523857,0.201826,0.000008,-0.055200,-0.023132,0.000046,0.062031,21.263884,-0.011420,-0.018879,13.348206,0.000653,0.132480,-1.232289,0.000094,-1.886000,-0.046499,0.001000,0.026612,1.228499,0.010636,-1.621000,-0.003499,-0.028999,0.114080,-0.000015,0.000138,-1.228857,0.000006,-0.000038,35970.000000,1692616183.404813,0.636114,-1.052282,0.000048,-0.173486,0.011278,0.000048,,,,,,,,,
1692616183.425955,,,,,,,,,,,,,,,,,,,,,,,,,,,,,,,,,,,,,,,,,,,70919.000000,1692616183.407275,0.000000,0.000000,0.000000,0.000000,0.000000,0.000000
1692616183.437560,,,,,,,,,,,,,,,,,,,,,,,,,,,,,,,,,,,,,,,,,,,70920.000000,1692616183.416127,0.000000,0.000000,0.000000,0.000000,0.000000,0.000000
1692616183.441739,1.811847,-0.518443,-0.000169,67.814908,0.201826,0.000008,-0.038640,-0.023132,0.000046,0.005394,21.263962,-0.003404,-0.013485,13.348206,0.000653,0.121440,-1.232289,0.000094,-1.883000,-0.044910,0.014000,0.028661,1.227909,0.009454,-1.616000,0.002091,-0.012000,0.108560,-0.000015,0.000138,-1.143429,0.000006,-0.000038,35971.000000,1692616183.424815,0.583543,-1.052288,-0.000048,-0.152457,0.011278,0.000048,,,,,,,,,
1692616183.448881,,,,,,,,,,,,,,,,,,,,,,,,,,,,,,,,,,,,,,,,,,,70921.000000,1692616183.425506,0.000000,0.000000,0.000000,0.000000,0.000000,0.000000
1692616183.450318,,,,,,,,,,,,,,,,,,,,,,,,,,,,,,,,,,,,,,,,,,,70922.000000,1692616183.435696,0.000000,0.000000,0.000000,0.000000,0.000000,0.000000
1692616183.456276,0.436784,-0.518443,0.000278,67.232806,0.201826,0.000008,-0.182160,-0.023132,0.000046,-0.032364,21.263942,0.002573,-0.024273,13.348206,0.000653,0.154560,-1.232289,0.000094,-1.881000,-0.043909,0.008999,0.025383,1.227909,0.009454,-1.616000,0.002091,-0.002000,0.038640,-0.000015,0.000138,-1.373429,0.000006,-0.000038,35972.000000,1692616183.434824,0.736000,-1.052288,-0.000048,-0.152457,0.011278,0.000048,,,,,,,,,
1692616183.458780,,,,,,,,,,,,,,,,,,,,,,,,,,,,,,,,,,,,,,,,,,,70923.000000,1692616183.445673,0.000000,0.000000,0.000000,0.000000,0.000000,0.000000
1692616183.471165,,,,,,,,,,,,,,,,,,,,,,,,,,,,,,,,,,,,,,,,,,,70924.000000,1692616183.455595,0.000000,0.000000,0.000000,0.000000,0.000000,0.000000
1692616183.478775,0.727974,-0.518443,0.000712,68.397010,0.201826,0.000008,-0.088320,-0.023132,0.000046,-0.013485,21.263962,0.004908,-0.021576,13.348206,0.000653,0.033120,-1.232300,-0.000293,-1.878000,-0.043318,0.013000,0.027841,1.227318,0.009454,-1.618000,0.000682,-0.006000,0.110400,-0.000015,0.000138,-1.255143,0.000006,-0.000038,35973.000000,1692616183.464811,0.704457,-1.052288,-0.000048,-0.168229,0.011278,0.000048,,,,,,,,,
1692616183.480183,,,,,,,,,,,,,,,,,,,,,,,,,,,,,,,,,,,,,,,,,,,70925.000000,1692616183.465484,0.000000,0.000000,0.000000,0.000000,0.000000,0.000000
1692616183.490586,,,,,,,,,,,,,,,,,,,,,,,,,,,,,,,,,,,,,,,,,,,70926.000000,1692616183.477510,0.000000,0.000000,0.000000,0.000000,0.000000,0.000000
1692616183.501928,,,,,,,,,,,,,,,,,,,,,,,,,,,,,,,,,,,,,,,,,,,70927.000000,1692616183.485620,0.000000,0.000000,0.000000,0.000000,0.000000,0.000000
1692616183.504813,2.232454,-0.518443,-0.000294,67.814908,0.201826,0.000008,-0.044160,-0.023132,0.000046,-0.062031,21.263962,0.006492,-0.021576,13.348206,0.000653,-0.022080,-1.232300,-0.000198,-1.878000,-0.043728,0.008000,0.027020,1.226727,0.006499,-1.616000,0.003273,-0.009999,0.101200,-0.000015,0.000138,-1.307714,0.000006,-0.000038,35974.000000,1692616183.484814,0.683429,-1.052288,-0.000048,-0.110400,0.011278,0.000048,,,,,,,,,
1692616183.511652,,,,,,,,,,,,,,,,,,,,,,,,,,,,,,,,,,,,,,,,,,,70928.000000,1692616183.498969,0.000000,0.000000,0.000000,0.000000,0.000000,0.000000
1692616183.515930,,,,,,,,,,,,,,,,,,,,,,,,,,,,,,,,,,,,,,,,,,,70929.000000,1692616183.505620,0.000000,0.000000,0.000000,0.000000,0.000000,0.000000
1692616183.523613,0.857392,-0.518443,-0.000018,67.523857,0.201826,0.000008,-0.038640,-0.023132,0.000046,0.064728,21.263904,-0.006808,-0.018879,13.348206,0.000653,-0.099360,-1.232289,0.004775,-1.873000,-0.041728,0.008000,0.026612,1.226727,0.000590,-1.613000,0.004272,0.000000,0.073600,-0.000015,0.000138,-1.255143,0.000006,-0.000038,35975.000000,1692616183.504816,0.704457,-1.052288,-0.000048,-0.283886,0.011278,0.000048,,,,,,,,,
1692616183.531051,,,,,,,,,,,,,,,,,,,,,,,,,,,,,,,,,,,,,,,,,,0.000000,,,,,,,,
1692616183.531253,,,,,,,,,,,,,,,,,,,,,,,,,,,,,,,,,,,,,,,,,,,70930.000000,1692616183.515464,0.000000,0.000000,0.000000,0.000000,0.000000,0.000000
1692616183.540563,2.588352,-0.518826,0.000094,67.523857,0.201826,0.000008,-0.066240,-0.023132,0.000046,-0.002697,21.264002,0.006828,-0.018879,13.348206,0.000653,0.121440,-1.232289,0.000094,-1.873000,-0.041728,0.017000,0.029887,1.226727,0.002954,-1.613000,0.004272,0.004000,0.150880,-0.000015,0.000138,-1.274857,0.000010,0.000038,35976.000000,1692616183.524811,0.641371,-1.052288,-0.000048,-0.247086,0.011659,0.000048,,,,,,,,,
1692616183.541302,,,,,,,,,,,,,,,,,,,,,,,,,,,,,,,,,,,,,,,,,,,70931.000000,1692616183.525600,0.000000,0.000000,0.000000,0.000000,0.000000,0.000000
1692616183.562820,,,,,,,,,,,,,,,,,,,,,,,,,,,,,,,,,,,,,,,,,,,70932.000000,1692616183.537742,0.000000,0.000000,0.000000,0.000000,0.000000,0.000000
1692616183.564668,,,,,,,,,,,,,,,,,,,,,,,,,,,,,,,,,,,,,,,,,,,70933.000000,1692616183.545664,0.000000,0.000000,0.000000,0.000000,0.000000,0.000000
1692616183.565612,2.685416,-0.518826,0.000046,67.814908,0.201826,0.000008,-0.016560,-0.023132,0.000046,-0.043152,21.263962,0.000356,-0.013485,13.348206,0.000653,0.066240,-1.232289,0.000659,-1.871000,-0.039955,0.012000,0.029070,1.224954,0.000000,-1.601000,0.012045,0.004000,0.080960,-0.000015,0.000138,-1.281429,0.000010,0.000038,35977.000000,1692616183.544821,0.599314,-1.052288,-0.000048,-0.036800,0.011278,0.000048,,,,,,,,,
1692616183.570390,,,,,,,,,,,,,,,,,,,,,,,,,,,,,,,,,,,,,,,,,,,70934.000000,1692616183.555632,0.000000,0.000000,0.000000,0.000000,0.000000,0.000000
1692616183.584112,,,,,,,,,,,,,,,,,,,,,,,,,,,,,,,,,,,,,,,,,,,70935.000000,1692616183.565592,0.000000,0.000000,0.000000,0.000000,0.000000,0.000000
1692616183.585001,3.106023,-0.518826,-0.000030,67.523857,0.201826,0.000008,-0.071760,-0.023132,0.000046,-0.070122,21.263962,0.005403,-0.016182,13.348206,0.000653,-0.022080,-1.232300,-0.001434,-1.873000,-0.043137,0.010999,0.028249,1.226136,0.000000,-1.603000,0.008864,0.026000,0.106720,-0.000015,0.000138,-1.314286,0.000010,0.000038,35978.000000,1692616183.564821,0.704457,-1.052288,-0.000048,-0.157714,0.011278,0.000048,,,,,,,,,
1692616183.597347,1.779492,-0.518443,0.000042,67.232806,0.201826,0.000008,-0.082800,-0.023132,0.000046,0.010788,21.263982,0.002533,-0.013485,13.348206,0.000653,0.099360,-1.232289,0.000094,-1.873000,-0.042136,0.006000,0.022517,1.226136,0.000000,-1.603000,0.008864,0.019999,0.057040,-0.000015,0.000138,-1.366857,0.000010,0.000038,35979.000000,1692616183.574823,0.678171,-1.052288,-0.000048,-0.110400,0.011278,0.000048,,,,,,,,,
1692616183.597375,,,,,,,,,,,,,,,,,,,,,,,,,,,,,,,,,,,,,,,,,,,70936.000000,1692616183.575635,0.000000,0.000000,0.000000,0.000000,0.000000,0.000000
1692616183.605072,,,,,,,,,,,,,,,,,,,,,,,,,,,,,,,,,,,,,,,,,,,70937.000000,1692616183.586917,0.000000,0.000000,0.000000,0.000000,0.000000,0.000000
1692616183.615272,,,,,,,,,,,,,,,,,,,,,,,,,,,,,,,,,,,,,,,,,,,70938.000000,1692616183.598843,0.000000,0.000000,0.000000,0.000000,0.000000,0.000000
1692616183.627023,,,,,,,,,,,,,,,,,,,,,,,,,,,,,,,,,,,,,,,,,,,70939.000000,1692616183.605841,0.000000,0.000000,0.000000,0.000000,0.000000,0.000000
1692616183.627055,3.008960,-0.518826,0.000185,66.941754,0.201826,0.000008,-0.011040,-0.023132,0.000046,0.094395,21.263942,-0.006492,-0.024273,13.348206,0.000653,0.066240,-1.232300,-0.003979,-1.876000,-0.045137,0.004999,0.026204,1.226136,0.000000,-1.601000,0.007863,0.017999,0.088320,-0.000015,0.000138,-1.268286,0.000010,0.000038,35980.000000,1692616183.604819,0.651886,-1.052288,-0.000048,-0.063086,0.011278,0.000048,,,,,,,,,
1692616183.641464,1.633897,-0.518443,-0.000024,66.941754,0.201826,0.000008,-0.115920,-0.023132,0.000046,-0.013485,21.263942,0.001405,-0.018879,13.348206,0.000653,0.033120,-1.232289,0.001696,-1.871000,-0.042136,-0.004999,0.025383,1.226136,0.000000,-1.603000,0.005863,0.013000,0.051520,-0.000015,0.000138,-1.320857,0.000010,0.000038,35981.000000,1692616183.614820,0.788571,-1.052288,-0.000048,-0.141943,0.011278,0.000048,,,,,,,,,
1692616183.641505,,,,,,,,,,,,,,,,,,,,,,,,,,,,,,,,,,,,,,,,,,,70940.000000,1692616183.615512,0.000000,0.000000,0.000000,0.000000,0.000000,0.000000
1692616183.644701,,,,,,,,,,,,,,,,,,,,,,,,,,,,,,,,,,,,,,,,,,0.000000,,,,,,,,
1692616183.646476,,,,,,,,,,,,,,,,,,,,,,,,,,,,,,,,,,,,,,,,,,,70941.000000,1692616183.625658,0.000000,0.000000,0.000000,0.000000,0.000000,0.000000
1692616183.658007,,,,,,,,,,,,,,,,,,,,,,,,,,,,,,,,,,,,,,,,,,,70942.000000,1692616183.636376,0.000000,0.000000,0.000000,0.000000,0.000000,0.000000
1692616183.665713,,,,,,,,,,,,,,,,,,,,,,,,,,,,,,,,,,,,,,,,,,,70943.000000,1692616183.646224,0.000000,0.000000,0.000000,0.000000,0.000000,0.000000
1692616183.665745,0.954455,-0.518443,-0.000131,66.650703,0.201826,0.000008,-0.126960,-0.023132,0.000046,-0.043152,21.263942,0.000672,-0.021576,13.348206,0.000653,-0.066240,-1.232300,-0.005183,-1.873000,-0.043545,0.000000,0.025795,1.225545,0.000000,-1.600000,0.008454,0.002000,0.033120,-0.000015,0.000138,-1.340571,0.000010,0.000038,35982.000000,1692616183.644817,0.699200,-1.052288,-0.000048,-0.136686,0.011278,0.000048,,,,,,,,,
1692616183.669059,,,,,,,,,,,,,,,,,,,,,,,,,,,,,,,,,,,,,,,,,,,70944.000000,1692616183.655643,0.000000,0.000000,0.000000,0.000000,0.000000,0.000000
1692616183.673360,1.504480,-0.518443,-0.001165,67.232806,0.201826,0.000008,-0.082800,-0.023132,0.000046,0.094395,21.263922,-0.008352,-0.016182,13.348206,0.000653,-0.055200,-1.232300,-0.003895,-1.871000,-0.042546,0.000000,0.028661,1.225545,-0.002954,-1.600000,0.008454,0.010999,0.093840,-0.000015,0.000138,-1.373429,0.000010,0.000038,35983.000000,1692616183.654822,0.688686,-1.052288,-0.000048,-0.089371,0.011278,0.000048,,,,,,,,,
1692616183.680354,,,,,,,,,,,,,,,,,,,,,,,,,,,,,,,,,,,,,,,,,,,70945.000000,1692616183.665615,0.000000,0.000000,0.000000,0.000000,0.000000,0.000000
1692616183.690270,,,,,,,,,,,,,,,,,,,,,,,,,,,,,,,,,,,,,,,,,,,70946.000000,1692616183.676589,0.000000,0.000000,0.000000,0.000000,0.000000,0.000000
1692616183.702760,,,,,,,,,,,,,,,,,,,,,,,,,,,,,,,,,,,,,,,,,,,70947.000000,1692616183.685493,0.000000,0.000000,0.000000,0.000000,0.000000,0.000000
1692616183.702917,1.617720,-0.518826,-0.000046,67.232806,0.201826,0.000008,-0.082800,-0.023132,0.000046,0.043152,21.263904,-0.002771,-0.024273,13.348206,0.000653,0.143520,-1.232289,0.000094,-1.876000,-0.045909,-0.001000,0.030707,1.227909,-0.002954,-1.601000,0.006090,0.001000,0.066240,-0.000015,0.000138,-1.288000,0.000006,-0.000038,35984.000000,1692616183.684819,0.725486,-1.052288,-0.000048,-0.094629,0.011278,0.000048,,,,,,,,,
1692616183.717057,,,,,,,,,,,,,,,,,,,,,,,,,,,,,,,,,,,,,,,,,,,70948.000000,1692616183.695627,0.000000,0.000000,0.000000,0.000000,0.000000,0.000000
1692616183.726147,2.297163,-0.518443,-0.000519,67.523857,0.201826,0.000008,-0.160080,-0.023132,0.000046,0.129456,21.263922,-0.008214,-0.010788,13.348206,0.000653,0.044160,-1.232289,0.001926,-1.876000,-0.045909,-0.001000,0.024566,1.227909,0.008863,-1.613000,-0.002909,0.004999,0.071760,-0.000015,0.000138,-1.235429,0.000006,-0.000038,35985.000000,1692616183.704820,0.788571,-1.052288,-0.000048,-0.131429,0.011278,0.000048,,,,,,,,,
1692616183.729380,,,,,,,,,,,,,,,,,,,,,,,,,,,,,,,,,,,,,,,,,,,70949.000000,1692616183.705800,0.000000,0.000000,0.000000,0.000000,0.000000,0.000000
1692616183.741092,,,,,,,,,,,,,,,,,,,,,,,,,,,,,,,,,,,,,,,,,,,70951.000000,1692616183.725618,0.000000,0.000000,0.000000,0.000000,0.000000,0.000000
1692616183.744159,1.860378,-0.518443,-0.000115,66.650703,0.201826,0.000008,-0.126960,-0.023132,0.000046,0.016182,21.263982,0.001840,-0.016182,13.348206,0.000653,0.022080,-1.232289,0.004817,-1.876000,-0.045909,-0.001000,0.025795,1.227909,0.008863,-1.613000,-0.001910,-0.035000,0.069920,-0.000015,0.000138,-1.222286,0.000006,-0.000038,35986.000000,1692616183.724813,0.672914,-1.052288,-0.000048,-0.268114,0.011278,0.000048,,,,,,,,,
1692616183.745804,,,,,,,,,,,,,,,,,,,,,,,,,,,,,,,,,,,,,,,,,,0.000000,,,,,,,,
1692616183.757933,,,,,,,,,,,,,,,,,,,,,,,,,,,,,,,,,,,,,,,,,,,70952.000000,1692616183.735579,0.000000,0.000000,0.000000,0.000000,0.000000,0.000000
1692616183.766926,2.410403,-0.518826,-0.000127,66.941754,0.201826,0.000008,-0.281520,-0.023132,0.000046,-0.072819,21.263982,0.006531,-0.013485,13.348206,0.000653,0.066240,-1.232289,0.000471,-1.878000,-0.045909,0.004000,0.027020,1.227909,0.011227,-1.613000,0.000091,-0.008000,0.062560,-0.000015,0.000138,-1.261714,0.000006,-0.000038,35987.000000,1692616183.744817,0.693943,-1.052288,-0.000048,-0.120914,0.011278,0.000048,,,,,,,,,
1692616183.769312,,,,,,,,,,,,,,,,,,,,,,,,,,,,,,,,,,,,,,,,,,,70954.000000,1692616183.755488,0.000000,0.000000,0.000000,0.000000,0.000000,0.000000
1692616183.777209,,,,,,,,,,,,,,,,,,,,,,,,,,,,,,,,,,,,,,,,,,,70955.000000,1692616183.765574,0.000000,0.000000,0.000000,0.000000,0.000000,0.000000
1692616183.780168,0.630911,-0.518443,-0.000062,67.232806,0.201826,0.000008,-0.011040,-0.023132,0.000046,-0.032364,21.263942,0.000554,-0.016182,13.348206,0.000653,-0.033120,-1.232300,-0.000335,-1.878000,-0.044727,-0.001000,0.024975,1.226727,0.008272,-1.613000,0.001273,-0.017000,0.088320,-0.000015,0.000138,-1.274857,0.000006,-0.000038,35988.000000,1692616183.764821,0.741257,-1.052288,-0.000048,-0.257600,0.011278,0.000048,,,,,,,,,
1692616183.788945,,,,,,,,,,,,,,,,,,,,,,,,,,,,,,,,,,,,,,,,,,,70956.000000,1692616183.775642,0.000000,0.000000,0.000000,0.000000,0.000000,0.000000
1692616183.796727,,,,,,,,,,,,,,,,,,,,,,,,,,,,,,,,,,,,,,,,,,,70957.000000,1692616183.785564,0.000000,0.000000,0.000000,0.000000,0.000000,0.000000
1692616183.807022,1.083873,-0.518443,-0.000515,66.650703,0.201826,0.000008,-0.055200,-0.023132,0.000046,0.053940,21.263904,-0.005304,-0.016182,13.348206,0.000653,-0.099360,-1.232289,0.004838,-1.878000,-0.043545,-0.001000,0.026612,1.225545,-0.000590,-1.610000,0.004455,-0.012000,0.062560,-0.000015,0.000138,-1.353714,0.000006,-0.000038,35989.000000,1692616183.784813,0.809600,-1.052288,-0.000048,-0.210286,0.011659,0.000048,,,,,,,,,
1692616183.814695,,,,,,,,,,,,,,,,,,,,,,,,,,,,,,,,,,,,,,,,,,,70958.000000,1692616183.795715,0.000000,0.000000,0.000000,0.000000,0.000000,0.000000
1692616183.820820,0.291190,-0.518059,-0.000018,67.523857,0.201826,0.000008,-0.077280,-0.023137,-0.000046,0.056637,21.263922,-0.010767,-0.018879,13.348206,0.000653,0.121440,-1.232289,0.000094,-1.876000,-0.042546,-0.001000,0.027432,1.225545,-0.002954,-1.610000,0.004455,-0.007000,0.042320,-0.000015,0.000138,-1.373429,0.000006,-0.000038,35990.000000,1692616183.804816,0.799086,-1.052288,-0.000048,-0.189257,0.011278,0.000048,,,,,,,,,
1692616183.825627,,,,,,,,,,,,,,,,,,,,,,,,,,,,,,,,,,,,,,,,,,,70959.000000,1692616183.806364,0.000000,0.000000,0.000000,0.000000,0.000000,0.000000
1692616183.832838,0.695620,-0.518443,-0.001470,66.941754,0.201826,0.000008,-0.121440,-0.023137,-0.000046,-0.037758,21.263962,0.003582,-0.021576,13.348206,0.000653,0.110400,-1.232300,-0.001277,-1.878000,-0.043545,0.004000,0.024975,1.225545,-0.002954,-1.610000,0.004455,-0.007000,0.040480,-0.000015,0.000138,-1.301143,0.000006,-0.000038,35991.000000,1692616183.814821,0.688686,-1.052288,-0.000048,-0.283886,0.011278,0.000048,,,,,,,,,
1692616183.832858,,,,,,,,,,,,,,,,,,,,,,,,,,,,,,,,,,,,,,,,,,,70960.000000,1692616183.815760,0.000000,0.000000,0.000000,0.000000,0.000000,0.000000
1692616183.843042,,,,,,,,,,,,,,,,,,,,,,,,,,,,,,,,,,,,,,,,,,,70961.000000,1692616183.826264,0.000000,0.000000,0.000000,0.000000,0.000000,0.000000
1692616183.849959,,,,,,,,,,,,,,,,,,,,,,,,,,,,,,,,,,,,,,,,,,0.000000,,,,,,,,
1692616183.856294,,,,,,,,,,,,,,,,,,,,,,,,,,,,,,,,,,,,,,,,,,,70962.000000,1692616183.836520,0.000000,0.000000,0.000000,0.000000,0.000000,0.000000
1692616183.859170,,,,,,,,,,,,,,,,,,,,,,,,,,,,,,,,,,,,,,,,,,,70963.000000,1692616183.845846,0.000000,0.000000,0.000000,0.000000,0.000000,0.000000
1692616183.860602,0.727974,-0.518443,-0.000708,66.359652,0.201826,0.000008,-0.115920,-0.023137,-0.000046,-0.051243,21.263962,0.000692,-0.005394,13.348206,0.000653,0.099360,-1.232289,0.000094,-1.878000,-0.044136,0.004999,0.022929,1.226136,0.000000,-1.610000,0.004863,-0.002000,0.117760,-0.000015,0.000138,-1.380000,0.000006,-0.000038,35992.000000,1692616183.844821,0.804343,-1.052288,-0.000048,-0.057829,0.011278,0.000048,,,,,,,,,
1692616183.868753,,,,,,,,,,,,,,,,,,,,,,,,,,,,,,,,,,,,,,,,,,,70964.000000,1692616183.855632,0.000000,0.000000,0.000000,0.000000,0.000000,0.000000
1692616183.879684,,,,,,,,,,,,,,,,,,,,,,,,,,,,,,,,,,,,,,,,,,,70965.000000,1692616183.865576,0.000000,0.000000,0.000000,0.000000,0.000000,0.000000
1692616183.879699,1.682429,-0.518443,-0.000971,66.359652,0.201826,0.000008,-0.066240,-0.023137,-0.000046,-0.016182,21.263942,0.005403,-0.018879,13.348206,0.000653,0.132480,-1.232289,0.000094,-1.876000,-0.042363,0.000000,0.030299,1.224363,0.000000,-1.606000,0.006636,-0.002000,0.086480,-0.000015,0.000138,-1.255143,0.000006,-0.000038,35993.000000,1692616183.864816,0.809600,-1.052288,-0.000048,-0.173486,0.011278,0.000048,,,,,,,,,
1692616183.893518,,,,,,,,,,,,,,,,,,,,,,,,,,,,,,,,,,,,,,,,,,,70966.000000,1692616183.876080,0.000000,0.000000,0.000000,0.000000,0.000000,0.000000
1692616183.893552,1.698606,-0.518443,-0.000587,65.777550,0.201826,0.000008,-0.016560,-0.023137,-0.000046,-0.035061,21.263962,0.000653,-0.018879,13.348206,0.000653,0.143520,-1.232289,0.000094,-1.876000,-0.042954,0.000000,0.026204,1.224954,-0.005909,-1.608000,0.006045,-0.002000,0.086480,-0.000015,0.000138,-1.235429,0.000006,-0.000038,35994.000000,1692616183.874824,0.741257,-1.052288,-0.000048,-0.141943,0.011278,0.000048,,,,,,,,,
1692616183.902483,,,,,,,,,,,,,,,,,,,,,,,,,,,,,,,,,,,,,,,,,,,70967.000000,1692616183.886616,0.000000,0.000000,0.000000,0.000000,0.000000,0.000000
1692616183.913831,,,,,,,,,,,,,,,,,,,,,,,,,,,,,,,,,,,,,,,,,,,70968.000000,1692616183.895707,0.000000,0.000000,0.000000,0.000000,0.000000,0.000000
1692616183.922025,,,,,,,,,,,,,,,,,,,,,,,,,,,,,,,,,,,,,,,,,,,70969.000000,1692616183.905621,0.000000,0.000000,0.000000,0.000000,0.000000,0.000000
1692616183.922070,0.307367,-0.518443,-0.000399,65.777550,0.201826,0.000008,-0.055200,-0.023137,-0.000046,-0.010788,21.263982,0.002335,-0.005394,13.348206,0.000653,0.121440,-1.232289,0.000094,-1.866000,-0.035954,-0.004999,0.027841,1.224954,-0.008272,-1.606000,0.006045,-0.002000,0.071760,-0.000015,0.000138,-1.340571,0.000006,-0.000038,35995.000000,1692616183.904817,0.778057,-1.052288,-0.000048,-0.184000,0.011659,0.000048,,,,,,,,,
1692616183.935710,,,,,,,,,,,,,,,,,,,,,,,,,,,,,,,,,,,,,,,,,,,70970.000000,1692616183.918858,0.000000,0.000000,0.000000,0.000000,0.000000,0.000000
1692616183.945017,0.161772,-0.518443,-0.000115,66.650703,0.201826,0.000008,-0.182160,-0.023137,-0.000046,-0.016182,21.263962,0.003048,-0.016182,13.348206,0.000653,0.132480,-1.232289,0.000094,-1.870000,-0.039546,0.018999,0.024154,1.225545,-0.005318,-1.606000,0.005454,0.008000,0.103040,-0.000015,0.000138,-1.393143,0.000006,-0.000038,35996.000000,1692616183.924819,0.720229,-1.052288,-0.000048,-0.194514,0.011278,0.000048,,,,,,,,,
1692616183.957033,,,,,,,,,,,,,,,,,,,,,,,,,,,,,,,,,,,,,,,,,,,70971.000000,1692616183.925710,0.000000,0.000000,0.000000,0.000000,0.000000,0.000000
1692616183.960824,,,,,,,,,,,,,,,,,,,,,,,,,,,,,,,,,,,,,,,,,,,70973.000000,1692616183.945595,0.000000,0.000000,0.000000,0.000000,0.000000,0.000000
1692616183.963722,,,,,,,,,,,,,,,,,,,,,,,,,,,,,,,,,,,,,,,,,,0.000000,,,,,,,,
1692616183.963994,0.744151,-0.518443,-0.000678,66.068601,0.201826,0.000008,-0.022080,-0.023137,-0.000046,-0.037758,21.263942,0.001068,-0.016182,13.348206,0.000653,0.033120,-1.232289,0.000795,-1.868000,-0.039546,0.018999,0.026612,1.225545,-0.002363,-1.608000,0.004455,-0.002000,0.029440,-0.000015,0.000138,-1.366857,0.000006,-0.000038,35997.000000,1692616183.944818,0.862171,-1.052288,-0.000048,-0.236571,0.011278,0.000048,,,,,,,,,
1692616183.974569,,,,,,,,,,,,,,,,,,,,,,,,,,,,,,,,,,,,,,,,,,,70974.000000,1692616183.955708,0.000000,0.000000,0.000000,0.000000,0.000000,0.000000
1692616183.980986,0.614734,-0.518443,-0.000304,65.777550,0.201826,0.000008,-0.082800,-0.023137,-0.000046,-0.021576,21.263962,0.003503,-0.013485,13.348206,0.000653,0.066240,-1.232289,0.002576,-1.870000,-0.040546,0.018999,0.027020,1.225545,-0.002363,-1.610000,0.003454,-0.006000,0.106720,-0.000015,0.000138,-1.294571,0.000006,-0.000038,35998.000000,1692616183.964812,0.757029,-1.052288,-0.000048,-0.162971,0.011278,0.000048,,,,,,,,,
1692616183.986773,,,,,,,,,,,,,,,,,,,,,,,,,,,,,,,,,,,,,,,,,,,70975.000000,1692616183.965589,0.000000,0.000000,0.000000,0.000000,0.000000,0.000000
1692616183.997564,,,,,,,,,,,,,,,,,,,,,,,,,,,,,,,,,,,,,,,,,,,70977.000000,1692616183.985529,0.000000,0.000000,0.000000,0.000000,0.000000,0.000000
1692616184.004070,0.727974,-0.518826,0.000018,66.068601,0.201826,0.000008,-0.060720,-0.023137,-0.000046,0.043152,21.263922,0.000653,-0.013485,13.348206,0.000653,0.132480,-1.232289,0.000094,-1.879000,-0.047546,-0.016000,0.025795,1.225545,-0.002363,-1.610000,0.003454,-0.009999,0.069920,-0.000015,0.000138,-1.288000,0.000006,-0.000038,35999.000000,1692616183.984816,0.767543,-1.052288,-0.000048,-0.189257,0.011278,0.000048,,,,,,,,,
1692616184.014270,,,,,,,,,,,,,,,,,,,,,,,,,,,,,,,,,,,,,,,,,,,70978.000000,1692616183.995578,0.000000,0.000000,0.000000,0.000000,0.000000,0.000000
1692616184.028653,0.517670,-0.518443,-0.001894,66.068601,0.201826,0.000008,-0.027600,-0.023137,-0.000046,0.083607,21.263942,-0.006234,-0.016182,13.348206,0.000653,0.088320,-1.232289,0.000094,-1.888000,-0.051319,-0.019999,0.024566,1.227318,-0.002363,-1.616000,0.001681,-0.009999,0.064400,-0.000015,0.000138,-1.176286,0.000006,-0.000038,36000.000000,1692616184.004819,0.804343,-1.052288,-0.000048,-0.189257,0.011278,0.000048,,,,,,,,,
1692616184.030938,,,,,,,,,,,,,,,,,,,,,,,,,,,,,,,,,,,,,,,,,,,70979.000000,1692616184.005706,0.000000,0.000000,0.000000,0.000000,0.000000,0.000000
1692616184.040945,,,,,,,,,,,,,,,,,,,,,,,,,,,,,,,,,,,,,,,,,,,70981.000000,1692616184.025646,0.000000,0.000000,0.000000,0.000000,0.000000,0.000000
1692616184.047142,0.226481,-0.518443,-0.000218,66.068601,0.201826,0.000008,0.011040,-0.023137,-0.000046,0.008091,21.263982,0.002513,-0.016182,13.348206,0.000653,-0.011040,-1.232289,0.004680,-1.891000,-0.053318,-0.028000,0.025383,1.227318,0.006499,-1.618000,0.001681,-0.008999,0.073600,-0.000015,0.000138,-1.196000,0.000006,-0.000038,36001.000000,1692616184.024818,0.830629,-1.052288,-0.000048,-0.141943,0.011278,0.000048,,,,,,,,,
1692616184.054875,,,,,,,,,,,,,,,,,,,,,,,,,,,,,,,,,,,,,,,,,,,70982.000000,1692616184.035604,0.000000,0.000000,0.000000,0.000000,0.000000,0.000000
1692616184.066877,0.291190,-0.518443,-0.000409,65.486499,0.201826,0.000008,-0.033120,-0.023137,-0.000046,0.051243,21.263922,-0.000237,-0.026970,13.348206,0.000653,0.121440,-1.232289,0.000115,-1.891000,-0.051910,-0.029999,0.027432,1.227909,0.000590,-1.620000,-0.000910,-0.017999,0.084640,-0.000015,0.000138,-1.386571,0.000006,-0.000038,36002.000000,1692616184.034822,0.730743,-1.052288,-0.000048,-0.084114,0.011278,0.000048,,,,,,,,,
1692616184.069265,,,,,,,,,,,,,,,,,,,,,,,,,,,,,,,,,,,,,,,,,,,70983.000000,1692616184.045703,0.000000,0.000000,0.000000,0.000000,0.000000,0.000000
1692616184.070645,,,,,,,,,,,,,,,,,,,,,,,,,,,,,,,,,,,,,,,,,,,70984.000000,1692616184.055749,0.000000,0.000000,0.000000,0.000000,0.000000,0.000000
1692616184.070652,,,,,,,,,,,,,,,,,,,,,,,,,,,,,,,,,,,,,,,,,,0.000000,,,,,,,,
1692616184.078068,,,,,,,,,,,,,,,,,,,,,,,,,,,,,,,,,,,,,,,,,,,70985.000000,1692616184.065552,0.000000,0.000000,0.000000,0.000000,0.000000,0.000000
1692616184.080093,1.925087,-0.518826,0.000046,65.777550,0.201826,0.000008,-0.016560,-0.023137,-0.000046,-0.029667,21.263942,0.002968,-0.016182,13.348206,0.000653,0.121440,-1.232289,0.000094,-1.901000,-0.056728,-0.050000,0.025795,1.226727,0.005909,-1.623000,-0.001727,-0.017999,0.068080,-0.000015,0.000138,-1.465429,0.000010,0.000038,36003.000000,1692616184.064815,0.893714,-1.052288,-0.000048,-0.257600,0.011278,0.000048,,,,,,,,,
1692616184.090079,,,,,,,,,,,,,,,,,,,,,,,,,,,,,,,,,,,,,,,,,,,70986.000000,1692616184.076429,0.000000,0.000000,0.000000,0.000000,0.000000,0.000000
1692616184.101820,,,,,,,,,,,,,,,,,,,,,,,,,,,,,,,,,,,,,,,,,,,70987.000000,1692616184.085617,0.000000,0.000000,0.000000,0.000000,0.000000,0.000000
1692616184.102281,1.002987,-0.518826,0.000109,66.068601,0.201826,0.000008,-0.027600,-0.023137,-0.000046,0.091698,21.263904,-0.011381,-0.018879,13.348206,0.000653,0.121440,-1.232289,0.000094,-1.904000,-0.057136,-0.041000,0.024154,1.226136,0.002954,-1.621000,0.000863,-0.026000,0.134320,-0.000015,0.000138,-1.268286,0.000010,0.000038,36004.000000,1692616184.084822,0.788571,-1.052288,-0.000048,-0.189257,0.011278,0.000048,,,,,,,,,
1692616184.106650,,,,,,,,,,,,,,,,,,,,,,,,,,,,,,,,,,,,,,,,,,,70988.000000,1692616184.095623,0.000000,0.000000,0.000000,0.000000,0.000000,0.000000
1692616184.123599,,,,,,,,,,,,,,,,,,,,,,,,,,,,,,,,,,,,,,,,,,,70989.000000,1692616184.107504,0.000000,0.000000,0.000000,0.000000,0.000000,0.000000
1692616184.125049,0.857392,-0.518826,0.000925,65.195448,0.201826,0.000008,-0.099360,-0.023137,-0.000046,-0.016182,21.263982,0.003760,-0.008091,13.348206,0.000653,-0.264960,-1.232289,0.003361,-1.901000,-0.052546,-0.035999,0.027020,1.225545,-0.002954,-1.623000,-0.001546,-0.014999,0.055200,-0.000015,0.000138,-1.399714,0.000010,0.000038,36005.000000,1692616184.104822,0.867429,-1.052288,-0.000048,-0.210286,0.011278,0.000048,,,,,,,,,
1692616184.135732,,,,,,,,,,,,,,,,,,,,,,,,,,,,,,,,,,,,,,,,,,,70990.000000,1692616184.115783,0.000000,0.000000,0.000000,0.000000,0.000000,0.000000
1692616184.140563,2.394226,-0.518826,0.000575,65.486499,0.201826,0.000008,0.016560,-0.023137,-0.000046,-0.018879,21.263962,0.003246,-0.013485,13.348206,0.000653,-0.154560,-1.232289,0.004419,-1.904000,-0.051728,-0.028000,0.021288,1.226727,0.002954,-1.623000,0.001273,-0.008000,0.084640,-0.000015,0.000138,-1.386571,0.000010,0.000038,36006.000000,1692616184.124815,0.788571,-1.052288,-0.000048,-0.257600,0.011278,0.000048,,,,,,,,,
1692616184.145278,,,,,,,,,,,,,,,,,,,,,,,,,,,,,,,,,,,,,,,,,,,70991.000000,1692616184.127709,0.000000,0.000000,0.000000,0.000000,0.000000,0.000000
1692616184.150370,,,,,,,,,,,,,,,,,,,,,,,,,,,,,,,,,,,,,,,,,,,70992.000000,1692616184.135492,0.000000,0.000000,0.000000,0.000000,0.000000,0.000000
1692616184.168261,,,,,,,,,,,,,,,,,,,,,,,,,,,,,,,,,,,,,,,,,,,70993.000000,1692616184.149125,0.000000,0.000000,0.000000,0.000000,0.000000,0.000000
1692616184.170581,0.275012,-0.518443,-0.000018,65.777550,0.201826,0.000008,0.000000,-0.023137,-0.000046,0.021576,21.263922,-0.000039,-0.018879,13.348206,0.000653,0.110400,-1.232289,0.008189,-1.904000,-0.051728,-0.002000,0.024975,1.226727,0.002954,-1.621000,0.001273,-0.008000,0.066240,-0.000015,0.000138,-1.288000,0.000010,0.000038,36007.000000,1692616184.144818,0.846400,-1.052282,0.000048,-0.131429,0.011278,0.000048,,,,,,,,,
1692616184.180586,,,,,,,,,,,,,,,,,,,,,,,,,,,,,,,,,,,,,,,,,,,70994.000000,1692616184.156011,0.000000,0.000000,0.000000,0.000000,0.000000,0.000000
1692616184.180600,,,,,,,,,,,,,,,,,,,,,,,,,,,,,,,,,,,,,,,,,,0.000000,,,,,,,,
1692616184.185239,0.614734,-0.518443,-0.000018,65.486499,0.201826,0.000008,0.016560,-0.023137,-0.000046,-0.013485,21.263962,0.002335,-0.016182,13.348206,0.000653,0.143520,-1.232289,0.000094,-1.902000,-0.049727,-0.010999,0.024566,1.226727,0.002954,-1.621000,0.001273,-0.008000,0.104880,-0.000015,0.000138,-1.288000,0.000010,0.000038,36008.000000,1692616184.154827,0.793829,-1.052282,0.000048,-0.231314,0.011278,0.000048,,,,,,,,,
1692616184.185274,,,,,,,,,,,,,,,,,,,,,,,,,,,,,,,,,,,,,,,,,,,70995.000000,1692616184.165629,0.000000,0.000000,0.000000,0.000000,0.000000,0.000000
1692616184.191675,,,,,,,,,,,,,,,,,,,,,,,,,,,,,,,,,,,,,,,,,,,70996.000000,1692616184.176721,0.000000,0.000000,0.000000,0.000000,0.000000,0.000000
1692616184.197511,,,,,,,,,,,,,,,,,,,,,,,,,,,,,,,,,,,,,,,,,,,70997.000000,1692616184.185536,0.000000,0.000000,0.000000,0.000000,0.000000,0.000000
1692616184.206180,0.048532,-0.518443,-0.001072,64.613346,0.201826,0.000008,0.049680,-0.023137,-0.000046,-0.010788,21.263962,0.000653,-0.013485,13.348206,0.000653,0.033120,-1.232289,0.000115,-1.904000,-0.050318,-0.001000,0.027020,1.227318,0.005318,-1.621000,0.000682,-0.007000,0.112240,-0.000015,0.000138,-1.301143,0.000006,-0.000038,36009.000000,1692616184.184816,0.914743,-1.052282,0.000048,-0.241829,0.011278,0.000048,,,,,,,,,
1692616184.210277,,,,,,,,,,,,,,,,,,,,,,,,,,,,,,,,,,,,,,,,,,,70998.000000,1692616184.195794,0.000000,0.000000,0.000000,0.000000,0.000000,0.000000
1692616184.215221,0.177949,-0.518826,0.001054,65.777550,0.201826,0.000008,-0.088320,-0.023137,-0.000046,0.072819,21.263904,-0.008808,-0.008091,13.348206,0.000653,0.033120,-1.232300,-0.000272,-1.906000,-0.052319,-0.001000,0.023337,1.227318,0.005318,-1.613000,0.007682,-0.007000,0.080960,-0.000015,0.000138,-1.399714,0.000006,-0.000038,36010.000000,1692616184.194820,0.762286,-1.052282,0.000048,-0.073600,0.011278,0.000048,,,,,,,,,
1692616184.218885,,,,,,,,,,,,,,,,,,,,,,,,,,,,,,,,,,,,,,,,,,,70999.000000,1692616184.206182,0.000000,0.000000,0.000000,0.000000,0.000000,0.000000
1692616184.231381,,,,,,,,,,,,,,,,,,,,,,,,,,,,,,,,,,,,,,,,,,,71000.000000,1692616184.215648,0.000000,0.000000,0.000000,0.000000,0.000000,0.000000
1692616184.245476,,,,,,,,,,,,,,,,,,,,,,,,,,,,,,,,,,,,,,,,,,,71001.000000,1692616184.225495,0.000000,0.000000,0.000000,0.000000,0.000000,0.000000
1692616184.245517,0.517670,-0.518443,-0.000050,65.195448,0.201826,0.000008,-0.022080,-0.023137,-0.000046,0.056637,21.263904,-0.004987,-0.013485,13.348206,0.000653,-0.110400,-1.232300,-0.000649,-1.898000,-0.044727,-0.009999,0.027020,1.226727,0.002363,-1.616000,0.005272,0.021999,0.055200,-0.000015,0.000138,-1.327429,0.000006,-0.000038,36011.000000,1692616184.224813,0.909486,-1.052282,0.000048,-0.241829,0.011278,0.000048,,,,,,,,,
1692616184.257755,,,,,,,,,,,,,,,,,,,,,,,,,,,,,,,,,,,,,,,,,,,71002.000000,1692616184.235693,0.000000,0.000000,0.000000,0.000000,0.000000,0.000000
1692616184.259658,1.763315,-0.518826,0.000032,64.613346,0.201826,0.000008,-0.038640,-0.023137,-0.000046,-0.026970,21.263982,0.001227,-0.024273,13.348206,0.000653,0.066240,-1.232289,0.000094,-1.901000,-0.049319,0.023000,0.023746,1.227318,0.004727,-1.623000,-0.000319,-0.014000,0.099360,-0.000015,0.000138,-1.386571,0.000006,-0.000038,36012.000000,1692616184.244815,0.893714,-1.052282,0.000048,-0.152457,0.011278,0.000048,,,,,,,,,
1692616184.271535,,,,,,,,,,,,,,,,,,,,,,,,,,,,,,,,,,,,,,,,,,,71004.000000,1692616184.255697,0.000000,0.000000,0.000000,0.000000,0.000000,0.000000
1692616184.278746,2.280986,-0.518826,-0.000086,65.195448,0.201826,0.000008,-0.016560,-0.023137,-0.000046,0.000000,21.263962,0.002949,-0.026970,13.348206,0.000653,0.110400,-1.232289,0.000094,-1.904000,-0.050728,-0.008000,0.025795,1.226727,0.001772,-1.621000,0.001273,-0.008999,0.097520,-0.000015,0.000138,-1.314286,0.000006,-0.000038,36013.000000,1692616184.264815,0.736000,-1.052282,0.000048,-0.152457,0.011278,0.000048,,,,,,,,,
1692616184.282441,,,,,,,,,,,,,,,,,,,,,,,,,,,,,,,,,,,,,,,,,,,71005.000000,1692616184.265706,0.000000,0.000000,0.000000,0.000000,0.000000,0.000000
1692616184.285441,,,,,,,,,,,,,,,,,,,,,,,,,,,,,,,,,,,,,,,,,,0.000000,,,,,,,,
1692616184.289955,,,,,,,,,,,,,,,,,,,,,,,,,,,,,,,,,,,,,,,,,,,71006.000000,1692616184.275504,0.000000,0.000000,0.000000,0.000000,0.000000,0.000000
1692616184.303786,,,,,,,,,,,,,,,,,,,,,,,,,,,,,,,,,,,,,,,,,,,71007.000000,1692616184.285825,0.000000,0.000000,0.000000,0.000000,0.000000,0.000000
1692616184.303805,1.213290,-0.518826,0.000056,66.068601,0.201825,-0.000008,-0.082800,-0.023137,-0.000046,-0.035061,21.263942,0.002573,-0.013485,13.348206,0.000653,0.011040,-1.232300,-0.000219,-1.891000,-0.042136,0.032000,0.027841,1.226136,0.001772,-1.621000,0.002863,-0.004000,0.033120,-0.000015,0.000138,-1.301143,0.000006,-0.000038,36014.000000,1692616184.284815,0.851657,-1.052282,0.000048,-0.220800,0.011278,0.000048,,,,,,,,,
1692616184.310912,,,,,,,,,,,,,,,,,,,,,,,,,,,,,,,,,,,,,,,,,,,71008.000000,1692616184.295590,0.000000,0.000000,0.000000,0.000000,0.000000,0.000000
1692616184.323776,,,,,,,,,,,,,,,,,,,,,,,,,,,,,,,,,,,,,,,,,,,71009.000000,1692616184.305635,0.000000,0.000000,0.000000,0.000000,0.000000,0.000000
1692616184.323824,0.323544,-0.518443,0.000028,66.941754,0.201825,-0.000008,0.055200,-0.023132,0.000046,0.059334,21.263922,-0.004354,-0.018879,13.348206,0.000653,0.154560,-1.232289,0.000094,-1.893000,-0.044546,0.025000,0.027020,1.225545,-0.001181,-1.616000,0.006454,0.006000,0.084640,-0.000015,0.000138,-1.439143,0.000006,-0.000038,36015.000000,1692616184.304813,0.925257,-1.052282,0.000048,-0.199771,0.011278,0.000048,,,,,,,,,
1692616184.334371,,,,,,,,,,,,,,,,,,,,,,,,,,,,,,,,,,,,,,,,,,,71010.000000,1692616184.319148,0.000000,0.000000,0.000000,0.000000,0.000000,0.000000
1692616184.344930,2.685416,-0.518826,0.000078,67.523857,0.201825,-0.000008,0.038640,-0.023132,0.000046,0.089001,21.263922,-0.008709,-0.010788,13.348206,0.000653,0.110400,-1.232289,0.000094,-1.894000,-0.046137,0.008999,0.024975,1.226136,-0.000590,-1.613000,0.006864,0.018999,0.126960,-0.000015,0.000138,-1.334000,0.000006,-0.000038,36016.000000,1692616184.324813,0.825371,-1.052282,0.000048,-0.152457,0.011278,0.000048,,,,,,,,,
1692616184.347595,,,,,,,,,,,,,,,,,,,,,,,,,,,,,,,,,,,,,,,,,,,71011.000000,1692616184.325575,0.000000,0.000000,0.000000,0.000000,0.000000,0.000000
1692616184.355476,,,,,,,,,,,,,,,,,,,,,,,,,,,,,,,,,,,,,,,,,,,71013.000000,1692616184.345455,0.000000,0.000000,0.000000,0.000000,0.000000,0.000000
1692616184.359606,1.666252,-0.518826,0.000169,68.397010,0.201825,-0.000008,0.104880,-0.023132,0.000046,0.018879,21.263982,0.000989,-0.018879,13.348206,0.000653,0.066240,-1.232300,-0.000356,-1.896000,-0.047136,-0.001000,0.025383,1.226136,0.002363,-1.613000,0.006864,0.014000,0.092000,-0.000015,0.000138,-1.301143,0.000006,-0.000038,36017.000000,1692616184.344822,0.820114,-1.052282,0.000048,-0.205029,0.011659,0.000048,,,,,,,,,
1692616184.363572,,,,,,,,,,,,,,,,,,,,,,,,,,,,,,,,,,,,,,,,,,,71014.000000,1692616184.355616,0.000000,0.000000,0.000000,0.000000,0.000000,0.000000
1692616184.381094,,,,,,,,,,,,,,,,,,,,,,,,,,,,,,,,,,,,,,,,,,,71015.000000,1692616184.365582,0.000000,0.000000,0.000000,0.000000,0.000000,0.000000
1692616184.382408,1.051518,-0.518826,0.000987,69.270163,0.201825,-0.000008,0.077280,-0.023132,0.000046,-0.013485,21.263982,0.002315,-0.016182,13.348206,0.000653,0.154560,-1.232289,0.000094,-1.899000,-0.049136,-0.016000,0.024975,1.226136,-0.000590,-1.610000,0.006864,0.014000,0.114080,-0.000015,0.000138,-1.261714,0.000006,-0.000038,36018.000000,1692616184.364813,0.751771,-1.052282,0.000048,-0.168229,0.011278,0.000048,,,,,,,,,
1692616184.394996,2.960428,-0.518826,0.001644,69.270163,0.201825,-0.000008,0.044160,-0.023132,0.000046,0.043152,21.263922,-0.002117,-0.008091,13.348206,0.000653,0.099360,-1.232300,-0.001570,-1.899000,-0.048137,-0.006000,0.025795,1.226136,-0.000590,-1.610000,0.006864,0.014000,0.090160,-0.000015,0.000138,-1.248571,0.000006,-0.000038,36019.000000,1692616184.374825,0.793829,-1.052282,0.000048,-0.199771,0.011278,0.000048,,,,,,,,,
1692616184.395029,,,,,,,,,,,,,,,,,,,,,,,,,,,,,,,,,,,,,,,,,,,71016.000000,1692616184.376456,0.000000,0.000000,0.000000,0.000000,0.000000,0.000000
1692616184.395881,,,,,,,,,,,,,,,,,,,,,,,,,,,,,,,,,,,,,,,,,,0.000000,,,,,,,,
1692616184.402612,,,,,,,,,,,,,,,,,,,,,,,,,,,,,,,,,,,,,,,,,,,71017.000000,1692616184.386191,0.000000,0.000000,0.000000,0.000000,0.000000,0.000000
1692616184.411973,,,,,,,,,,,,,,,,,,,,,,,,,,,,,,,,,,,,,,,,,,,71018.000000,1692616184.395744,0.000000,0.000000,0.000000,0.000000,0.000000,0.000000
1692616184.423087,3.251618,-0.518826,0.000906,69.561214,0.201826,0.000029,-0.016560,-0.023132,0.000046,-0.032364,21.263942,0.002691,-0.010788,13.348206,0.000653,0.088320,-1.232289,0.002544,-1.901000,-0.049136,-0.001000,0.026612,1.226136,-0.000590,-1.610000,0.005863,0.017999,0.064400,-0.000015,0.000138,-1.274857,0.000006,-0.000038,36020.000000,1692616184.404816,0.751771,-1.052282,0.000048,-0.147200,0.011278,0.000048,,,,,,,,,
1692616184.426583,,,,,,,,,,,,,,,,,,,,,,,,,,,,,,,,,,,,,,,,,,,71019.000000,1692616184.405754,0.000000,0.000000,0.000000,0.000000,0.000000,0.000000
1692616184.433465,,,,,,,,,,,,,,,,,,,,,,,,,,,,,,,,,,,,,,,,,,,71020.000000,1692616184.418953,0.000000,0.000000,0.000000,0.000000,0.000000,0.000000
1692616184.448238,,,,,,,,,,,,,,,,,,,,,,,,,,,,,,,,,,,,,,,,,,,71021.000000,1692616184.427592,0.000000,0.000000,0.000000,0.000000,0.000000,0.000000
1692616184.448264,1.310353,-0.518443,-0.000230,68.688061,0.201826,0.000008,0.093840,-0.023132,0.000046,0.053940,21.263904,-0.005067,-0.013485,13.348206,0.000653,0.077280,-1.232289,0.005948,-1.896000,-0.046137,0.004999,0.024566,1.226136,-0.000590,-1.606000,0.006864,0.008000,0.099360,-0.000015,0.000138,-1.320857,0.000006,-0.000038,36021.000000,1692616184.424831,0.872686,-1.052282,0.000048,-0.189257,0.011278,0.000048,,,,,,,,,
1692616184.474854,1.067695,-0.518443,-0.000018,68.979112,0.201826,0.000008,0.038640,-0.023132,0.000046,-0.021576,21.263962,0.003800,-0.016182,13.348206,0.000653,0.088320,-1.232289,0.000094,-1.894000,-0.045137,0.008999,0.027432,1.226136,-0.000590,-1.606000,0.006864,0.012000,0.066240,-0.000015,0.000138,-1.353714,0.000006,-0.000038,36022.000000,1692616184.434820,0.730743,-1.052282,0.000048,-0.126171,0.011278,0.000048,,,,,,,,,
1692616184.474884,,,,,,,,,,,,,,,,,,,,,,,,,,,,,,,,,,,,,,,,,,,71022.000000,1692616184.437680,0.000000,0.000000,0.000000,0.000000,0.000000,0.000000
1692616184.476505,,,,,,,,,,,,,,,,,,,,,,,,,,,,,,,,,,,,,,,,,,,71023.000000,1692616184.445700,0.000000,0.000000,0.000000,0.000000,0.000000,0.000000
1692616184.477057,,,,,,,,,,,,,,,,,,,,,,,,,,,,,,,,,,,,,,,,,,,71024.000000,1692616184.455944,0.000000,0.000000,0.000000,0.000000,0.000000,0.000000
1692616184.488622,,,,,,,,,,,,,,,,,,,,,,,,,,,,,,,,,,,,,,,,,,,71025.000000,1692616184.465495,0.000000,0.000000,0.000000,0.000000,0.000000,0.000000
1692616184.488644,1.391239,-0.518443,-0.001199,69.270163,0.201826,0.000008,0.160080,-0.023132,0.000046,-0.045849,21.263982,0.005878,-0.016182,13.348206,0.000653,0.044160,-1.232289,0.000356,-1.891000,-0.044136,0.017000,0.025795,1.226136,0.002363,-1.606000,0.007863,0.016000,0.069920,-0.000031,-0.000138,-1.366857,0.000006,-0.000038,36023.000000,1692616184.464819,0.851657,-1.052282,0.000048,-0.147200,0.011278,0.000048,,,,,,,,,
1692616184.491933,,,,,,,,,,,,,,,,,,,,,,,,,,,,,,,,,,,,,,,,,,,71026.000000,1692616184.475719,0.000000,0.000000,0.000000,0.000000,0.000000,0.000000
1692616184.498536,,,,,,,,,,,,,,,,,,,,,,,,,,,,,,,,,,,,,,,,,,,71027.000000,1692616184.485696,0.000000,0.000000,0.000000,0.000000,0.000000,0.000000
1692616184.498690,1.633897,-0.518826,-0.000086,68.979112,0.201826,0.000008,0.082800,-0.023132,0.000046,-0.018879,21.263962,0.005977,-0.013485,13.348206,0.000653,-0.022080,-1.232300,-0.000628,-1.888000,-0.042363,0.020999,0.027432,1.224363,-0.008863,-1.600000,0.011636,0.019999,0.057040,-0.000031,-0.000138,-1.274857,0.000006,-0.000038,36024.000000,1692616184.484813,0.736000,-1.052282,0.000048,-0.210286,0.011278,0.000048,,,,,,,,,
1692616184.501615,,,,,,,,,,,,,,,,,,,,,,,,,,,,,,,,,,,,,,,,,,0.000000,,,,,,,,
1692616184.512041,,,,,,,,,,,,,,,,,,,,,,,,,,,,,,,,,,,,,,,,,,,71028.000000,1692616184.495685,0.000000,0.000000,0.000000,0.000000,0.000000,0.000000
1692616184.524533,3.041314,-0.518826,0.000171,68.688061,0.201826,0.000008,-0.038640,-0.023132,0.000046,0.059334,21.263904,-0.005601,-0.005394,13.348206,0.000653,-0.011040,-1.232300,-0.005811,-1.883000,-0.040954,0.028999,0.023746,1.224954,-0.005909,-1.598000,0.012045,0.017000,0.029440,-0.000031,-0.000138,-1.248571,0.000006,-0.000038,36025.000000,1692616184.504814,0.788571,-1.052282,0.000048,-0.157714,0.011278,0.000048,,,,,,,,,
1692616184.526151,,,,,,,,,,,,,,,,,,,,,,,,,,,,,,,,,,,,,,,,,,,71029.000000,1692616184.505539,0.000000,0.000000,0.000000,0.000000,0.000000,0.000000
1692616184.535818,3.025137,-0.518826,0.001472,68.688061,0.201826,0.000008,0.011040,-0.023132,0.000046,-0.032364,21.263982,0.006848,-0.005394,13.348206,0.000653,0.143520,-1.232289,0.000094,-1.883000,-0.040954,0.023000,0.026612,1.224954,-0.005909,-1.601000,0.009045,0.026000,0.103040,-0.000031,-0.000138,-1.320857,0.000006,-0.000038,36026.000000,1692616184.514823,0.846400,-1.052282,0.000048,-0.110400,0.011278,0.000048,,,,,,,,,
1692616184.538229,,,,,,,,,,,,,,,,,,,,,,,,,,,,,,,,,,,,,,,,,,,71030.000000,1692616184.518505,0.000000,0.000000,0.000000,0.000000,0.000000,0.000000
1692616184.549547,,,,,,,,,,,,,,,,,,,,,,,,,,,,,,,,,,,,,,,,,,,71031.000000,1692616184.525608,0.000000,0.000000,0.000000,0.000000,0.000000,0.000000
1692616184.555236,,,,,,,,,,,,,,,,,,,,,,,,,,,,,,,,,,,,,,,,,,,71032.000000,1692616184.535705,0.000000,0.000000,0.000000,0.000000,0.000000,0.000000
1692616184.562025,,,,,,,,,,,,,,,,,,,,,,,,,,,,,,,,,,,,,,,,,,,71033.000000,1692616184.546490,0.000000,0.000000,0.000000,0.000000,0.000000,0.000000
1692616184.562044,2.523644,-0.518826,0.000082,68.397010,0.201826,0.000008,-0.077280,-0.023132,0.000046,-0.029667,21.263962,0.000910,-0.005394,13.348206,0.000653,-0.011040,-1.232300,-0.000209,-1.871000,-0.034546,0.052999,0.026204,1.225545,-0.005909,-1.598000,0.010454,0.004999,0.066240,-0.000031,-0.000138,-1.320857,0.000006,-0.000038,36027.000000,1692616184.544820,0.788571,-1.052282,0.000048,-0.162971,0.011278,0.000048,,,,,,,,,
1692616184.575459,,,,,,,,,,,,,,,,,,,,,,,,,,,,,,,,,,,,,,,,,,,71034.000000,1692616184.555704,0.000000,0.000000,0.000000,0.000000,0.000000,0.000000
1692616184.582858,,,,,,,,,,,,,,,,,,,,,,,,,,,,,,,,,,,,,,,,,,,71035.000000,1692616184.565578,0.000000,0.000000,0.000000,0.000000,0.000000,0.000000
