__time,/hsrb/joint_states/arm_flex_joint/effort,/hsrb/joint_states/arm_flex_joint/position,/hsrb/joint_states/arm_flex_joint/velocity,/hsrb/joint_states/arm_lift_joint/effort,/hsrb/joint_states/arm_lift_joint/position,/hsrb/joint_states/arm_lift_joint/velocity,/hsrb/joint_states/arm_roll_joint/effort,/hsrb/joint_states/arm_roll_joint/position,/hsrb/joint_states/arm_roll_joint/velocity,/hsrb/joint_states/base_l_drive_wheel_joint/effort,/hsrb/joint_states/base_l_drive_wheel_joint/position,/hsrb/joint_states/base_l_drive_wheel_joint/velocity,/hsrb/joint_states/base_r_drive_wheel_joint/effort,/hsrb/joint_states/base_r_drive_wheel_joint/position,/hsrb/joint_states/base_r_drive_wheel_joint/velocity,/hsrb/joint_states/base_roll_joint/effort,/hsrb/joint_states/base_roll_joint/position,/hsrb/joint_states/base_roll_joint/velocity,/hsrb/joint_states/hand_l_spring_proximal_joint/effort,/hsrb/joint_states/hand_l_spring_proximal_joint/position,/hsrb/joint_states/hand_l_spring_proximal_joint/velocity,/hsrb/joint_states/hand_motor_joint/effort,/hsrb/joint_states/hand_motor_joint/position,/hsrb/joint_states/hand_motor_joint/velocity,/hsrb/joint_states/hand_r_spring_proximal_joint/effort,/hsrb/joint_states/hand_r_spring_proximal_joint/position,/hsrb/joint_states/hand_r_spring_proximal_joint/velocity,/hsrb/joint_states/head_pan_joint/effort,/hsrb/joint_states/head_pan_joint/position,/hsrb/joint_states/head_pan_joint/velocity,/hsrb/joint_states/head_tilt_joint/effort,/hsrb/joint_states/head_tilt_joint/position,/hsrb/joint_states/head_tilt_joint/velocity,/hsrb/joint_states/header/seq,/hsrb/joint_states/header/stamp,/hsrb/joint_states/wrist_flex_joint/effort,/hsrb/joint_states/wrist_flex_joint/position,/hsrb/joint_states/wrist_flex_joint/velocity,/hsrb/joint_states/wrist_roll_joint/effort,/hsrb/joint_states/wrist_roll_joint/position,/hsrb/joint_states/wrist_roll_joint/velocity,/hsrb/pressure_sensor/data,/hsrb/wrist_wrench/compensated/header/seq,/hsrb/wrist_wrench/compensated/header/stamp,/hsrb/wrist_wrench/compensated/wrench/force/x,/hsrb/wrist_wrench/compensated/wrench/force/y,/hsrb/wrist_wrench/compensated/wrench/force/z,/hsrb/wrist_wrench/compensated/wrench/torque/x,/hsrb/wrist_wrench/compensated/wrench/torque/y,/hsrb/wrist_wrench/compensated/wrench/torque/z
1692625917.683528,4.675212,-0.939905,0.000115,69.852265,0.299494,0.000010,-0.292560,0.007328,0.000046,0.035061,-1.563868,-0.001722,-0.002697,7.220952,-0.000653,-0.850080,-1.314631,0.000973,-1.896000,-0.044999,0.012000,0.013510,1.234999,-0.005318,-1.659000,0.000001,0.020999,-0.023920,0.000015,0.000138,-1.485143,0.000002,0.000038,9146.000000,1692625917.673868,0.651886,-0.630944,0.000048,-0.399543,-0.005597,-0.001884,,,,,,,,,
1692625917.708436,4.545794,-0.939905,0.000018,69.561214,0.299494,0.000008,-0.248400,0.007328,0.000046,0.013485,-1.563888,-0.002454,0.000000,7.220952,-0.000653,-1.059840,-1.314641,-0.000094,-1.891000,-0.042228,0.010999,0.018834,1.233227,-0.005318,-1.657000,-0.000227,0.009999,-0.034960,0.000015,0.000138,-1.511429,0.000002,0.000038,9147.000000,1692625917.693874,0.720229,-0.630944,0.000048,-0.247086,-0.005978,-0.000048,,,,,,,,,
1692625917.734058,4.756098,-0.939905,0.000018,69.270163,0.299494,0.000008,-0.259440,0.007328,0.000046,0.021576,-1.563888,-0.000653,0.002697,7.220952,-0.000653,-0.772800,-1.314631,0.000942,-1.889000,-0.042228,0.018999,0.013510,1.233227,-0.012999,-1.657000,-0.001228,0.009999,-0.014720,0.000015,0.000138,-1.412857,0.000002,0.000038,9148.000000,1692625917.713885,0.772800,-0.630944,0.000048,-0.446857,-0.005597,-0.000048,,,,,,,,,
1692625917.746716,2.863365,-0.939521,0.000531,68.688061,0.299494,0.000008,-0.248400,0.007328,0.000046,0.018879,-1.563888,-0.000653,0.000000,7.220952,-0.000653,-0.850080,-1.314641,-0.000628,-1.894000,-0.047228,0.018999,0.011052,1.233227,-0.012409,-1.656000,-0.000227,0.004999,0.000000,0.000015,0.000138,-1.491714,0.000002,0.000038,9149.000000,1692625917.723885,0.651886,-0.630944,0.000048,-0.441600,-0.005597,-0.000048,,,,,,,,,
1692625917.767869,2.895719,-0.939521,-0.000208,68.979112,0.299494,0.000008,-0.149040,0.007328,0.000046,0.010788,-1.563888,-0.000653,0.002697,7.220952,-0.000653,-0.839040,-1.314641,-0.004670,-1.889000,-0.043410,0.018999,0.014331,1.234409,-0.008272,-1.657000,-0.002410,0.004000,-0.020240,0.000015,0.000138,-1.373429,0.000002,0.000038,9150.000000,1692625917.753874,0.678171,-0.630944,0.000048,-0.299657,-0.005597,-0.000048,,,,,,,,,
1692625917.785090,2.555998,-0.939521,-0.001470,68.979112,0.299494,0.000008,-0.220800,0.007328,0.000046,0.021576,-1.563888,-0.000653,0.008091,7.220952,-0.000653,-0.894240,-1.314631,0.001570,-1.888000,-0.042999,0.018999,0.013919,1.234999,-0.005318,-1.661000,-0.004000,0.004000,0.027600,0.000015,0.000138,-1.399714,0.000002,0.000038,9151.000000,1692625917.763879,0.683429,-0.630944,0.000048,-0.389029,-0.005597,-0.000048,,,,,,,,,
1692625917.807355,3.364858,-0.939905,0.000018,68.688061,0.299494,0.000008,-0.082800,0.007328,0.000046,0.021576,-1.563888,-0.000653,0.000000,7.220952,-0.000653,-0.883200,-1.314641,-0.002094,-1.888000,-0.042999,0.020999,0.014331,1.234999,-0.002363,-1.659000,-0.004000,0.004000,0.023920,0.000015,0.000138,-1.432571,0.000002,0.000038,9152.000000,1692625917.793885,0.630857,-0.630944,0.000048,-0.352229,-0.005597,-0.000048,,,,,,,,,
1692625917.828436,4.109009,-0.939905,-0.000090,68.105959,0.299494,0.000008,-0.182160,0.007328,0.000046,0.024273,-1.563888,0.001662,0.002697,7.220952,-0.000653,-0.872160,-1.314641,-0.000094,-1.889000,-0.045182,0.018999,0.011465,1.236181,-0.002363,-1.662000,-0.007182,-0.009999,0.031280,0.000015,0.000138,-1.557429,0.000002,0.000038,9153.000000,1692625917.813875,0.657143,-0.630944,0.000048,-0.399543,-0.005597,-0.000048,,,,,,,,,
1692625917.836025,,,,,,,,,,,,,,,,,,,,,,,,,,,,,,,,,,,,,,,,,,0.000000,,,,,,,,
1692625917.842443,2.248631,-0.939905,-0.000208,68.688061,0.299494,0.000008,-0.248400,0.007328,0.000046,-0.099789,-1.563789,0.020446,0.013485,7.220952,-0.000653,-0.916320,-1.314631,0.000691,-1.888000,-0.044591,0.004000,0.017197,1.235590,0.003545,-1.659000,-0.004591,0.000000,0.027600,0.000015,0.000138,-1.491714,0.000002,0.000038,9154.000000,1692625917.833872,0.714971,-0.630944,0.000048,-0.278629,-0.005978,-0.000150,,,,,,,,,
1692625917.856417,4.060478,-0.939905,-0.000147,68.105959,0.299494,0.000008,-0.160080,0.007328,0.000046,0.026970,-1.563809,-0.001484,0.008091,7.220952,-0.000653,-0.872160,-1.314631,0.003581,-1.888000,-0.044591,0.013000,0.011052,1.235590,0.000590,-1.657000,-0.003591,0.000000,0.018400,0.000015,0.000138,-1.564000,0.000002,0.000038,9155.000000,1692625917.843877,0.625600,-0.630944,0.000048,-0.389029,-0.005597,-0.000783,,,,,,,,,
1692625917.889676,2.216277,-0.939905,-0.000054,69.561214,0.299494,0.000263,-0.259440,0.007328,0.000046,0.010788,-1.563868,-0.003364,0.000000,7.220952,-0.000653,-0.883200,-1.314631,0.003581,-1.891000,-0.047999,-0.007000,0.014331,1.234999,-0.002363,-1.657000,-0.003000,0.004999,-0.011040,0.000015,0.000138,-1.485143,0.000002,0.000038,9156.000000,1692625917.873870,0.678171,-0.630944,0.000048,-0.199771,-0.005978,-0.000209,,,,,,,,,
1692625917.907409,3.397213,-0.939905,0.000381,70.143317,0.299493,-0.000008,-0.215280,0.007328,0.000046,0.021576,-1.563888,-0.000950,0.000000,7.220952,-0.000653,-0.905280,-1.314631,0.001036,-1.886000,-0.044000,-0.002000,0.013510,1.234999,-0.002363,-1.667000,-0.009000,0.004999,-0.001840,0.000015,0.000138,-1.518000,0.000002,0.000038,9157.000000,1692625917.893869,0.530971,-0.630944,0.000048,-0.241829,-0.005978,-0.000048,,,,,,,,,
1692625917.915262,2.345694,-0.939905,0.000018,69.561214,0.299493,-0.000008,-0.303600,0.007328,0.000046,0.021576,-1.563888,-0.000653,0.000000,7.220952,-0.000653,-1.159200,-1.314631,-0.003141,-1.889000,-0.045999,0.013000,0.015147,1.234999,-0.002363,-1.667000,-0.009000,-0.025000,0.011040,0.000015,0.000138,-1.596857,0.000002,0.000038,9158.000000,1692625917.903877,0.699200,-0.630944,0.000048,-0.268114,-0.005978,0.000386,,,,,,,,,
1692625917.925779,,,,,,,,,,,,,,,,,,,,,,,,,,,,,,,,,,,,,,,,,,,17604.000000,1692625917.918403,0.000000,0.000000,0.000000,0.000000,0.000000,0.000000
1692625917.933886,,,,,,,,,,,,,,,,,,,,,,,,,,,,,,,,,,,,,,,,,,,17605.000000,1692625917.928402,0.000000,0.000000,0.000000,0.000000,0.000000,0.000000
1692625917.951495,3.235441,-0.939905,0.000018,70.143317,0.299493,-0.000008,-0.209760,0.007328,0.000046,-0.151032,-1.563829,0.015676,-0.008091,7.220952,-0.000653,-0.839040,-1.314631,0.006042,-1.886000,-0.044999,0.003000,0.015147,1.234999,0.000590,-1.672000,-0.011000,-0.013000,-0.014720,0.000015,0.000138,-1.531143,0.000002,0.000038,9159.000000,1692625917.933873,0.604571,-0.630944,0.000048,-0.383771,-0.005978,-0.000048,,,,,,,,,
1692625917.951516,,,,,,,,,,,,,,,,,,,,,,,,,,,,,,,,,,,,,,,,,,,17606.000000,1692625917.938298,0.000000,0.000000,0.000000,0.000000,0.000000,0.000000
1692625917.951525,,,,,,,,,,,,,,,,,,,,,,,,,,,,,,,,,,,,,,,,,,0.000000,,,,,,,,
1692625917.957570,,,,,,,,,,,,,,,,,,,,,,,,,,,,,,,,,,,,,,,,,,,17607.000000,1692625917.949060,0.000000,0.000000,0.000000,0.000000,0.000000,0.000000
1692625917.963030,3.785465,-0.939905,0.000028,71.016470,0.299493,-0.000008,-0.287040,0.007328,0.000046,0.029667,-1.563829,-0.001227,-0.008091,7.220952,-0.000653,-0.993600,-1.314641,-0.000094,-1.889000,-0.046181,0.016000,0.013919,1.236181,0.003545,-1.672000,-0.011181,-0.026000,0.012880,0.000015,0.000138,-1.478571,-0.000003,-0.000038,9160.000000,1692625917.953872,0.662400,-0.630944,0.000048,-0.378514,-0.005597,-0.000048,,,,,,,,,
1692625917.967157,,,,,,,,,,,,,,,,,,,,,,,,,,,,,,,,,,,,,,,,,,,17608.000000,1692625917.958529,0.000000,0.000000,0.000000,0.000000,0.000000,0.000000
1692625917.978443,,,,,,,,,,,,,,,,,,,,,,,,,,,,,,,,,,,,,,,,,,,17609.000000,1692625917.969685,0.000000,0.000000,0.000000,0.000000,0.000000,0.000000
1692625917.983376,3.688402,-0.939905,0.000018,70.434368,0.299494,0.000069,-0.320160,0.007328,0.000046,0.016182,-1.563848,-0.000653,0.000000,7.220952,-0.000653,-0.883200,-1.314631,0.002366,-1.891000,-0.048182,0.001000,0.013102,1.236181,0.003545,-1.669000,-0.007182,-0.024000,-0.007360,0.000015,0.000138,-1.458857,-0.000003,-0.000038,9161.000000,1692625917.973875,0.599314,-0.630944,0.000048,-0.462629,-0.005597,-0.000048,,,,,,,,,
1692625917.988941,,,,,,,,,,,,,,,,,,,,,,,,,,,,,,,,,,,,,,,,,,,17610.000000,1692625917.978549,0.000000,0.000000,0.000000,0.000000,0.000000,0.000000
1692625917.990333,,,,,,,,,,,,,,,,,,,,,,,,,,,,,,,,,,,,,,,,,,,17611.000000,1692625917.988224,0.000000,0.000000,0.000000,0.000000,0.000000,0.000000
1692625918.004552,,,,,,,,,,,,,,,,,,,,,,,,,,,,,,,,,,,,,,,,,,,17612.000000,1692625917.998303,0.000000,0.000000,0.000000,0.000000,0.000000,0.000000
1692625918.011090,3.769288,-0.939905,0.000028,70.434368,0.299494,0.000008,-0.187680,0.007328,0.000046,0.018879,-1.563868,-0.001049,0.000000,7.220952,-0.000653,-0.894240,-1.314641,-0.003392,-1.888000,-0.045954,0.006000,0.014331,1.237954,0.011818,-1.672000,-0.008955,-0.003000,-0.046000,0.000015,0.000138,-1.426000,-0.000003,-0.000038,9162.000000,1692625917.993874,0.594057,-0.630944,0.000048,-0.373257,-0.005597,-0.000048,,,,,,,,,
1692625918.012746,,,,,,,,,,,,,,,,,,,,,,,,,,,,,,,,,,,,,,,,,,,17613.000000,1692625918.008552,0.000000,0.000000,0.000000,0.000000,0.000000,0.000000
1692625918.022023,3.672225,-0.939905,-0.001438,69.852265,0.299494,0.000008,-0.287040,0.007328,0.000046,-0.008091,-1.563868,0.001167,0.000000,7.220952,-0.000653,-0.805920,-1.314631,0.000481,-1.893000,-0.049364,0.014999,0.013102,1.237363,0.011227,-1.672000,-0.008364,-0.003000,0.000000,0.000015,0.000138,-1.445714,-0.000003,-0.000038,9163.000000,1692625918.013878,0.594057,-0.630944,0.000048,-0.236571,-0.005978,-0.000048,,,,,,,,,
1692625918.025675,,,,,,,,,,,,,,,,,,,,,,,,,,,,,,,,,,,,,,,,,,,17614.000000,1692625918.019511,0.000000,0.000000,0.000000,0.000000,0.000000,0.000000
1692625918.037053,,,,,,,,,,,,,,,,,,,,,,,,,,,,,,,,,,,,,,,,,,,17615.000000,1692625918.028267,0.000000,0.000000,0.000000,0.000000,0.000000,0.000000
1692625918.045116,3.461921,-0.939905,0.000018,69.561214,0.299494,0.000008,-0.320160,0.007328,0.000046,0.021576,-1.563888,-0.000653,-0.005394,7.220952,-0.000653,-0.927360,-1.314641,-0.000795,-1.891000,-0.047954,-0.004999,0.013510,1.237954,0.010636,-1.672000,-0.008955,0.002000,-0.009200,0.000015,0.000138,-1.603429,-0.000003,-0.000038,9164.000000,1692625918.033877,0.620343,-0.630944,0.000048,-0.488914,-0.005597,-0.000048,,,,,,,,,
1692625918.047016,,,,,,,,,,,,,,,,,,,,,,,,,,,,,,,,,,,,,,,,,,,17616.000000,1692625918.040854,0.000000,0.000000,0.000000,0.000000,0.000000,0.000000
1692625918.053005,2.620707,-0.939905,0.000018,69.270163,0.299494,0.000008,-0.270480,0.007328,0.000046,0.021576,-1.563888,-0.000653,0.002697,7.220952,-0.000653,-0.850080,-1.314631,0.003581,-1.891000,-0.047954,0.004999,0.013102,1.237954,0.010636,-1.672000,-0.008955,-0.003000,-0.044160,0.000015,0.000138,-1.439143,-0.000003,-0.000038,9165.000000,1692625918.043877,0.604571,-0.630950,-0.003822,-0.394286,-0.005597,-0.000048,,,,,,,,,
1692625918.055625,,,,,,,,,,,,,,,,,,,,,,,,,,,,,,,,,,,,,,,,,,,17617.000000,1692625918.048467,0.000000,0.000000,0.000000,0.000000,0.000000,0.000000
1692625918.055641,,,,,,,,,,,,,,,,,,,,,,,,,,,,,,,,,,,,,,,,,,0.000000,,,,,,,,
1692625918.065826,,,,,,,,,,,,,,,,,,,,,,,,,,,,,,,,,,,,,,,,,,,17618.000000,1692625918.058570,0.000000,0.000000,0.000000,0.000000,0.000000,0.000000
1692625918.079442,,,,,,,,,,,,,,,,,,,,,,,,,,,,,,,,,,,,,,,,,,,17619.000000,1692625918.068267,0.000000,0.000000,0.000000,0.000000,0.000000,0.000000
1692625918.085974,2.539821,-0.939521,-0.000500,69.270163,0.299494,0.000008,-0.226320,0.007328,0.000046,0.021576,-1.563888,-0.000653,-0.008091,7.220952,-0.000653,-0.585120,-1.314631,0.003937,-1.886000,-0.044545,0.032999,0.012690,1.238545,0.010045,-1.672000,-0.007546,-0.003000,-0.018400,0.000015,0.000138,-1.393143,-0.000003,-0.000038,9166.000000,1692625918.073869,0.599314,-0.630950,-0.000048,-0.341714,-0.005978,0.000048,,,,,,,,,
1692625918.092009,,,,,,,,,,,,,,,,,,,,,,,,,,,,,,,,,,,,,,,,,,,17620.000000,1692625918.078717,0.000000,0.000000,0.000000,0.000000,0.000000,0.000000
1692625918.099875,,,,,,,,,,,,,,,,,,,,,,,,,,,,,,,,,,,,,,,,,,,17621.000000,1692625918.088313,0.000000,0.000000,0.000000,0.000000,0.000000,0.000000
1692625918.106161,3.526630,-0.940287,0.000018,69.852265,0.299494,0.000008,-0.160080,0.007328,0.000046,0.035061,-1.563888,0.001543,-0.002697,7.220952,-0.000653,-0.905280,-1.314631,0.001151,-1.888000,-0.046772,0.001000,0.012281,1.236772,0.005909,-1.669000,-0.005773,0.002000,-0.012880,0.000015,0.000138,-1.485143,0.000002,0.000038,9167.000000,1692625918.093872,0.646629,-0.630950,-0.000048,-0.352229,-0.005978,0.000048,,,,,,,,,
1692625918.110636,,,,,,,,,,,,,,,,,,,,,,,,,,,,,,,,,,,,,,,,,,,17622.000000,1692625918.099417,0.000000,0.000000,0.000000,0.000000,0.000000,0.000000
1692625918.114205,,,,,,,,,,,,,,,,,,,,,,,,,,,,,,,,,,,,,,,,,,,17623.000000,1692625918.108476,0.000000,0.000000,0.000000,0.000000,0.000000,0.000000
1692625918.121881,,,,,,,,,,,,,,,,,,,,,,,,,,,,,,,,,,,,,,,,,,,17624.000000,1692625918.118658,0.000000,0.000000,0.000000,0.000000,0.000000,0.000000
1692625918.122272,3.833997,-0.939905,0.000208,68.979112,0.299494,0.000008,-0.242880,0.007328,0.000046,-0.148335,-1.563730,0.024563,0.005394,7.220952,-0.000653,-0.717600,-1.314631,0.003476,-1.888000,-0.046772,-0.008999,0.013510,1.236772,0.002954,-1.669000,-0.005773,0.006000,0.055200,0.000015,0.000138,-1.577143,0.000002,0.000038,9168.000000,1692625918.113879,0.630857,-0.630950,-0.000048,-0.315429,-0.005978,0.000048,,,,,,,,,
1692625918.133362,,,,,,,,,,,,,,,,,,,,,,,,,,,,,,,,,,,,,,,,,,,17625.000000,1692625918.128189,0.000000,0.000000,0.000000,0.000000,0.000000,0.000000
1692625918.142288,3.866351,-0.939905,0.000208,68.979112,0.299494,0.000008,-0.231840,0.007328,0.000046,0.048546,-1.563848,-0.003740,-0.002697,7.220952,-0.000653,-0.772800,-1.314631,0.000827,-1.888000,-0.047363,0.001000,0.011873,1.237363,0.002954,-1.669000,-0.007363,0.009999,-0.016560,0.000015,0.000138,-1.491714,0.000002,0.000038,9169.000000,1692625918.133870,0.704457,-0.630950,-0.000048,-0.389029,-0.005597,-0.000048,,,,,,,,,
1692625918.143796,,,,,,,,,,,,,,,,,,,,,,,,,,,,,,,,,,,,,,,,,,,17626.000000,1692625918.138539,0.000000,0.000000,0.000000,0.000000,0.000000,0.000000
1692625918.151096,,,,,,,,,,,,,,,,,,,,,,,,,,,,,,,,,,,,,,,,,,,17627.000000,1692625918.148361,0.000000,0.000000,0.000000,0.000000,0.000000,0.000000
1692625918.151118,2.879542,-0.939905,0.000018,68.688061,0.299494,0.000008,-0.276000,0.007328,0.000046,0.032364,-1.563848,-0.001029,-0.002697,7.220952,-0.000653,-0.783840,-1.314641,-0.006021,-1.889000,-0.048773,0.001000,0.013919,1.236772,0.005318,-1.667000,-0.005773,0.000000,-0.007360,0.000015,0.000138,-1.485143,0.000002,0.000038,9170.000000,1692625918.143877,0.378514,-0.630950,-0.000048,-0.420571,-0.005597,-0.000048,,,,,,,,,
1692625918.161405,,,,,,,,,,,,,,,,,,,,,,,,,,,,,,,,,,,,,,,,,,0.000000,,,,,,,,
1692625918.161855,,,,,,,,,,,,,,,,,,,,,,,,,,,,,,,,,,,,,,,,,,,17628.000000,1692625918.158405,0.000000,0.000000,0.000000,0.000000,0.000000,0.000000
1692625918.172550,,,,,,,,,,,,,,,,,,,,,,,,,,,,,,,,,,,,,,,,,,,17629.000000,1692625918.168303,0.000000,0.000000,0.000000,0.000000,0.000000,0.000000
1692625918.180950,2.960428,-0.939905,0.000018,68.397010,0.299494,0.000008,-0.154560,0.007328,0.000046,0.029667,-1.563888,-0.001088,0.002697,7.220952,-0.000653,-0.684480,-1.314641,-0.003193,-1.891000,-0.049772,-0.008999,0.014331,1.236772,0.002363,-1.669000,-0.007773,-0.006000,-0.014720,0.000015,0.000138,-1.393143,0.000002,0.000038,9171.000000,1692625918.173873,0.636114,-0.630950,-0.000048,-0.362743,-0.005597,-0.000048,,,,,,,,,
1692625918.183569,,,,,,,,,,,,,,,,,,,,,,,,,,,,,,,,,,,,,,,,,,,17630.000000,1692625918.178405,0.000000,0.000000,0.000000,0.000000,0.000000,0.000000
1692625918.192292,3.558985,-0.939905,-0.000109,68.688061,0.299494,0.000008,-0.281520,0.007328,0.000046,0.021576,-1.563888,-0.000653,-0.005394,7.220952,-0.000653,-0.982560,-1.314641,-0.000104,-1.891000,-0.049772,-0.013000,0.012690,1.236772,0.002363,-1.669000,-0.006772,-0.006000,-0.003680,0.000015,0.000138,-1.570571,0.000002,0.000038,9172.000000,1692625918.183877,0.630857,-0.630950,-0.000048,-0.304914,-0.005978,0.000724,,,,,,,,,
1692625918.198356,,,,,,,,,,,,,,,,,,,,,,,,,,,,,,,,,,,,,,,,,,,17631.000000,1692625918.188399,0.000000,0.000000,0.000000,0.000000,0.000000,0.000000
1692625918.205415,,,,,,,,,,,,,,,,,,,,,,,,,,,,,,,,,,,,,,,,,,,17632.000000,1692625918.198188,0.000000,0.000000,0.000000,0.000000,0.000000,0.000000
1692625918.213720,3.704579,-0.939905,-0.000442,68.105959,0.299494,0.000008,-0.248400,0.007328,0.000046,0.024273,-1.563888,-0.000653,0.005394,7.220952,-0.000653,-0.850080,-1.314631,0.000272,-1.894000,-0.050363,-0.021999,0.010644,1.237363,0.002363,-1.682000,-0.016364,-0.001000,0.016560,0.000015,0.000138,-1.439143,0.000002,0.000038,9173.000000,1692625918.203880,0.609829,-0.630950,-0.000048,-0.289143,-0.005978,0.001347,,,,,,,,,
1692625918.216304,,,,,,,,,,,,,,,,,,,,,,,,,,,,,,,,,,,,,,,,,,,17633.000000,1692625918.210776,0.000000,0.000000,0.000000,0.000000,0.000000,0.000000
1692625918.223893,,,,,,,,,,,,,,,,,,,,,,,,,,,,,,,,,,,,,,,,,,,17634.000000,1692625918.218631,0.000000,0.000000,0.000000,0.000000,0.000000,0.000000
1692625918.234760,,,,,,,,,,,,,,,,,,,,,,,,,,,,,,,,,,,,,,,,,,,17635.000000,1692625918.228266,0.000000,0.000000,0.000000,0.000000,0.000000,0.000000
1692625918.247991,,,,,,,,,,,,,,,,,,,,,,,,,,,,,,,,,,,,,,,,,,,17636.000000,1692625918.238473,0.000000,0.000000,0.000000,0.000000,0.000000,0.000000
1692625918.248008,4.206073,-0.939905,0.000018,67.814908,0.299494,0.000008,-0.314640,0.007328,0.000046,0.016182,-1.563888,-0.000653,-0.002697,7.220952,-0.000653,-0.916320,-1.314631,0.002366,-1.891000,-0.045954,-0.006000,0.012281,1.237954,0.004727,-1.684000,-0.014954,-0.032000,0.005520,0.000015,0.000138,-1.498286,0.000002,0.000038,9174.000000,1692625918.233869,0.620343,-0.630950,-0.000048,-0.425829,-0.005597,-0.000048,,,,,,,,,
1692625918.258970,,,,,,,,,,,,,,,,,,,,,,,,,,,,,,,,,,,,,,,,,,,17637.000000,1692625918.248493,0.000000,0.000000,0.000000,0.000000,0.000000,0.000000
1692625918.270253,4.206073,-0.939905,-0.000767,67.814908,0.299494,0.000008,-0.154560,0.007328,0.000046,0.008091,-1.563888,0.000217,-0.002697,7.220952,-0.000653,-0.872160,-1.314641,-0.000094,-1.888000,-0.044364,0.017999,0.013919,1.237363,0.004136,-1.684000,-0.013364,-0.025000,-0.016560,0.000015,0.000138,-1.537714,0.000002,0.000038,9175.000000,1692625918.253874,0.609829,-0.630950,-0.000048,-0.241829,-0.005978,0.004821,,,,,,,,,
1692625918.274060,,,,,,,,,,,,,,,,,,,,,,,,,,,,,,,,,,,,,,,,,,,17638.000000,1692625918.258434,0.000000,0.000000,0.000000,0.000000,0.000000,0.000000
1692625918.278258,,,,,,,,,,,,,,,,,,,,,,,,,,,,,,,,,,,,,,,,,,0.000000,,,,,,,,
1692625918.278426,,,,,,,,,,,,,,,,,,,,,,,,,,,,,,,,,,,,,,,,,,,17639.000000,1692625918.268271,0.000000,0.000000,0.000000,0.000000,0.000000,0.000000
1692625918.283874,3.753111,-0.939905,-0.000018,67.523857,0.299494,0.000008,-0.298080,0.007328,0.000046,0.010788,-1.563908,-0.003760,0.005394,7.220952,-0.000653,-1.037760,-1.314641,-0.000094,-1.886000,-0.044772,0.017999,0.015147,1.236772,0.004136,-1.684000,-0.010773,-0.017999,0.003680,0.000015,0.000138,-1.524571,0.000002,0.000038,9176.000000,1692625918.273884,0.525714,-0.630950,-0.000048,-0.320686,-0.005978,0.000048,,,,,,,,,
1692625918.291101,,,,,,,,,,,,,,,,,,,,,,,,,,,,,,,,,,,,,,,,,,,17640.000000,1692625918.279061,0.000000,0.000000,0.000000,0.000000,0.000000,0.000000
1692625918.302590,3.591339,-0.939905,0.000018,67.232806,0.299494,0.000008,-0.386400,0.007328,0.000046,0.040455,-1.563888,0.002573,0.000000,7.220952,-0.000653,-0.783840,-1.314631,0.001225,-1.886000,-0.044772,0.013000,0.012281,1.236772,0.001181,-1.682000,-0.009773,-0.013000,-0.016560,0.000015,0.000138,-1.465429,0.000002,0.000038,9177.000000,1692625918.283877,0.709714,-0.630950,-0.000048,-0.488914,-0.005978,0.000048,,,,,,,,,
1692625918.315376,,,,,,,,,,,,,,,,,,,,,,,,,,,,,,,,,,,,,,,,,,,17641.000000,1692625918.288547,0.000000,0.000000,0.000000,0.000000,0.000000,0.000000
1692625918.318396,,,,,,,,,,,,,,,,,,,,,,,,,,,,,,,,,,,,,,,,,,,17642.000000,1692625918.298340,0.000000,0.000000,0.000000,0.000000,0.000000,0.000000
1692625918.325864,,,,,,,,,,,,,,,,,,,,,,,,,,,,,,,,,,,,,,,,,,,17644.000000,1692625918.319455,0.000000,0.000000,0.000000,0.000000,0.000000,0.000000
1692625918.325877,2.491289,-0.939905,0.000018,67.814908,0.299493,-0.000403,-0.303600,0.007328,0.000046,0.021576,-1.563829,0.001148,0.000000,7.220952,-0.000653,-0.662400,-1.314641,-0.004754,-1.889000,-0.047772,0.003000,0.013102,1.236772,0.001181,-1.682000,-0.008772,-0.003000,-0.046000,0.000015,0.000138,-1.412857,0.000002,0.000038,9178.000000,1692625918.313875,0.699200,-0.630950,-0.000048,-0.389029,-0.005978,0.000048,,,,,,,,,
1692625918.336787,,,,,,,,,,,,,,,,,,,,,,,,,,,,,,,,,,,,,,,,,,,17645.000000,1692625918.328409,0.000000,0.000000,0.000000,0.000000,0.000000,0.000000
1692625918.342962,1.650075,-0.939521,0.000036,67.523857,0.299493,-0.000008,-0.331200,0.007328,0.000046,0.024273,-1.563868,-0.000791,0.000000,7.220952,-0.000653,-1.170240,-1.314631,-0.002638,-1.891000,-0.049181,0.003000,0.013510,1.236181,0.001181,-1.675000,-0.006181,0.002000,-0.038640,0.000015,0.000138,-1.412857,0.000002,0.000038,9179.000000,1692625918.333869,0.636114,-0.630950,-0.000048,-0.410057,-0.005597,-0.000289,,,,,,,,,
1692625918.345805,,,,,,,,,,,,,,,,,,,,,,,,,,,,,,,,,,,,,,,,,,,17646.000000,1692625918.338323,0.000000,0.000000,0.000000,0.000000,0.000000,0.000000
1692625918.356011,,,,,,,,,,,,,,,,,,,,,,,,,,,,,,,,,,,,,,,,,,,17647.000000,1692625918.348381,0.000000,0.000000,0.000000,0.000000,0.000000,0.000000
1692625918.366040,2.879542,-0.939905,0.000652,68.105959,0.299493,-0.000008,-0.292560,0.007328,0.000046,0.032364,-1.563888,-0.001128,0.000000,7.220952,-0.000653,-0.485760,-1.314620,0.008388,-1.891000,-0.049181,-0.012000,0.013510,1.236181,-0.001772,-1.677000,-0.007182,0.001000,-0.011040,0.000015,0.000138,-1.320857,0.000002,0.000038,9180.000000,1692625918.353877,0.615086,-0.630950,-0.000048,-0.162971,-0.005978,-0.000048,,,,,,,,,
1692625918.370955,,,,,,,,,,,,,,,,,,,,,,,,,,,,,,,,,,,,,,,,,,,17648.000000,1692625918.358526,0.000000,0.000000,0.000000,0.000000,0.000000,0.000000
1692625918.381744,,,,,,,,,,,,,,,,,,,,,,,,,,,,,,,,,,,,,,,,,,,17649.000000,1692625918.368737,0.000000,0.000000,0.000000,0.000000,0.000000,0.000000
1692625918.382395,,,,,,,,,,,,,,,,,,,,,,,,,,,,,,,,,,,,,,,,,,0.000000,,,,,,,,
1692625918.382610,2.992782,-0.939521,-0.000018,68.979112,0.299493,-0.000008,-0.298080,0.007328,0.000046,0.018879,-1.563888,-0.000653,0.000000,7.220952,-0.000653,-0.894240,-1.314631,-0.005948,-1.889000,-0.047181,-0.012000,0.014331,1.236181,-0.001772,-1.677000,-0.007182,0.001000,-0.009200,0.000000,-0.000199,-1.478571,0.000002,0.000038,9181.000000,1692625918.373872,0.552000,-0.630950,-0.000048,-0.310171,-0.005978,-0.000048,,,,,,,,,
1692625918.387581,,,,,,,,,,,,,,,,,,,,,,,,,,,,,,,,,,,,,,,,,,,17650.000000,1692625918.381263,0.000000,0.000000,0.000000,0.000000,0.000000,0.000000
1692625918.394118,3.478099,-0.939905,-0.000018,68.979112,0.299493,-0.000008,-0.325680,0.007328,0.000046,0.021576,-1.563888,-0.000653,0.002697,7.220952,-0.000653,-1.004640,-1.314620,0.004450,-1.889000,-0.048182,-0.002000,0.013919,1.236181,-0.001772,-1.672000,-0.004182,0.001000,-0.001840,0.000000,-0.000138,-1.531143,0.000002,0.000038,9182.000000,1692625918.383878,0.620343,-0.630950,-0.000048,-0.341714,-0.005978,0.000080,,,,,,,,,
1692625918.399909,,,,,,,,,,,,,,,,,,,,,,,,,,,,,,,,,,,,,,,,,,,17651.000000,1692625918.388318,0.000000,0.000000,0.000000,0.000000,0.000000,0.000000
1692625918.412973,,,,,,,,,,,,,,,,,,,,,,,,,,,,,,,,,,,,,,,,,,,17652.000000,1692625918.398849,0.000000,0.000000,0.000000,0.000000,0.000000,0.000000
1692625918.419976,3.413390,-0.939905,0.000018,69.852265,0.299493,-0.000008,-0.226320,0.007328,0.000046,0.018879,-1.563888,-0.000653,0.000000,7.220952,-0.000653,-0.839040,-1.314641,-0.005246,-1.891000,-0.049364,-0.006000,0.013102,1.237363,0.004136,-1.672000,-0.006364,0.014999,-0.049680,0.000000,-0.000138,-1.544286,0.000002,0.000038,9183.000000,1692625918.403883,0.714971,-0.630950,-0.000048,-0.452114,-0.005597,-0.000048,,,,,,,,,
1692625918.425091,,,,,,,,,,,,,,,,,,,,,,,,,,,,,,,,,,,,,,,,,,,17653.000000,1692625918.408329,0.000000,0.000000,0.000000,0.000000,0.000000,0.000000
1692625918.428346,,,,,,,,,,,,,,,,,,,,,,,,,,,,,,,,,,,,,,,,,,,17654.000000,1692625918.418549,0.000000,0.000000,0.000000,0.000000,0.000000,0.000000
1692625918.438581,,,,,,,,,,,,,,,,,,,,,,,,,,,,,,,,,,,,,,,,,,,17655.000000,1692625918.428466,0.000000,0.000000,0.000000,0.000000,0.000000,0.000000
1692625918.443062,2.685416,-0.939905,0.000040,70.725419,0.299493,-0.000008,-0.397440,0.007328,0.000046,0.045849,-1.563809,-0.001464,0.002697,7.220952,-0.000653,-0.894240,-1.314631,0.003979,-1.889000,-0.047591,-0.004999,0.013510,1.235590,-0.004727,-1.672000,-0.005590,0.004999,-0.036800,0.000000,-0.000138,-1.583714,0.000002,0.000038,9184.000000,1692625918.433875,0.688686,-0.630950,-0.000048,-0.194514,-0.006365,0.000048,,,,,,,,,
1692625918.449549,,,,,,,,,,,,,,,,,,,,,,,,,,,,,,,,,,,,,,,,,,,17656.000000,1692625918.438938,0.000000,0.000000,0.000000,0.000000,0.000000,0.000000
1692625918.464176,,,,,,,,,,,,,,,,,,,,,,,,,,,,,,,,,,,,,,,,,,,17657.000000,1692625918.448503,0.000000,0.000000,0.000000,0.000000,0.000000,0.000000
1692625918.465756,3.073668,-0.939905,-0.000809,71.307521,0.299493,-0.000008,-0.292560,0.007323,-0.000046,0.045849,-1.563848,-0.001840,0.002697,7.220952,-0.000653,-0.839040,-1.314631,0.005288,-1.889000,-0.047000,-0.004999,0.013510,1.234999,-0.007090,-1.671000,-0.004999,0.000000,0.005520,0.000000,-0.000138,-1.583714,-0.000003,-0.000712,9185.000000,1692625918.453872,0.657143,-0.630950,-0.000048,-0.431086,-0.005978,0.000048,,,,,,,,,
1692625918.477806,1.747138,-0.939905,0.000173,71.598572,0.299493,-0.000008,-0.386400,0.007323,-0.000046,0.029667,-1.563868,0.000059,-0.005394,7.220952,-0.000653,-1.015680,-1.314641,-0.000094,-1.888000,-0.045999,-0.004999,0.014331,1.234999,-0.007090,-1.669000,-0.004000,0.004999,-0.033120,0.000000,-0.000138,-1.504857,-0.000003,-0.000038,9186.000000,1692625918.463883,0.662400,-0.630950,-0.000048,-0.494171,-0.005978,0.000048,,,,,,,,,
1692625918.477844,,,,,,,,,,,,,,,,,,,,,,,,,,,,,,,,,,,,,,,,,,,17658.000000,1692625918.458291,0.000000,0.000000,0.000000,0.000000,0.000000,0.000000
1692625918.485161,,,,,,,,,,,,,,,,,,,,,,,,,,,,,,,,,,,,,,,,,,,17659.000000,1692625918.468377,0.000000,0.000000,0.000000,0.000000,0.000000,0.000000
1692625918.486735,,,,,,,,,,,,,,,,,,,,,,,,,,,,,,,,,,,,,,,,,,,17660.000000,1692625918.478527,0.000000,0.000000,0.000000,0.000000,0.000000,0.000000
1692625918.492909,,,,,,,,,,,,,,,,,,,,,,,,,,,,,,,,,,,,,,,,,,0.000000,,,,,,,,
1692625918.493119,,,,,,,,,,,,,,,,,,,,,,,,,,,,,,,,,,,,,,,,,,,17661.000000,1692625918.489018,0.000000,0.000000,0.000000,0.000000,0.000000,0.000000
1692625918.504697,,,,,,,,,,,,,,,,,,,,,,,,,,,,,,,,,,,,,,,,,,,17662.000000,1692625918.498502,0.000000,0.000000,0.000000,0.000000,0.000000,0.000000
1692625918.504925,3.186909,-0.939521,0.000018,71.598572,0.299494,0.000015,-0.248400,0.007323,-0.000046,0.013485,-1.563888,-0.000653,0.000000,7.220952,-0.000653,-0.894240,-1.314631,0.001277,-1.894000,-0.050000,-0.019999,0.012281,1.234999,-0.007090,-1.667000,-0.004000,0.008999,-0.016560,0.000000,-0.000138,-1.511429,0.000002,0.001322,9187.000000,1692625918.493873,0.736000,-0.630950,-0.000048,-0.236571,-0.005978,-0.000655,,,,,,,,,
1692625918.521922,,,,,,,,,,,,,,,,,,,,,,,,,,,,,,,,,,,,,,,,,,,17663.000000,1692625918.513350,0.000000,0.000000,0.000000,0.000000,0.000000,0.000000
1692625918.526118,,,,,,,,,,,,,,,,,,,,,,,,,,,,,,,,,,,,,,,,,,,17664.000000,1692625918.518423,0.000000,0.000000,0.000000,0.000000,0.000000,0.000000
1692625918.526427,1.617720,-0.939905,0.000258,71.016470,0.299494,0.000008,-0.248400,0.007323,-0.000046,0.013485,-1.563888,-0.000653,-0.005394,7.220952,-0.000653,-0.916320,-1.314631,0.000513,-1.894000,-0.050000,-0.018999,0.013919,1.234999,-0.004136,-1.674000,-0.009000,0.013000,-0.022080,0.000000,-0.000138,-1.334000,0.000002,0.000038,9188.000000,1692625918.513874,0.783314,-0.630950,-0.000048,-0.215543,-0.006365,-0.000048,,,,,,,,,
1692625918.537235,,,,,,,,,,,,,,,,,,,,,,,,,,,,,,,,,,,,,,,,,,,17665.000000,1692625918.528584,0.000000,0.000000,0.000000,0.000000,0.000000,0.000000
1692625918.547375,3.688402,-0.939905,0.001597,71.307521,0.299494,0.000008,-0.220800,0.007323,-0.000046,-0.016182,-1.563888,0.002454,0.000000,7.220952,-0.000653,-0.938400,-1.314631,0.001738,-1.896000,-0.050409,-0.014000,0.014739,1.234409,-0.006499,-1.672000,-0.006409,-0.007000,-0.005520,0.000000,-0.000138,-1.445714,0.000002,0.000038,9189.000000,1692625918.533870,0.646629,-0.630950,-0.000048,-0.346971,-0.005978,0.000048,,,,,,,,,
1692625918.553267,,,,,,,,,,,,,,,,,,,,,,,,,,,,,,,,,,,,,,,,,,,17666.000000,1692625918.538405,0.000000,0.000000,0.000000,0.000000,0.000000,0.000000
1692625918.562503,,,,,,,,,,,,,,,,,,,,,,,,,,,,,,,,,,,,,,,,,,,17668.000000,1692625918.558532,0.000000,0.000000,0.000000,0.000000,0.000000,0.000000
1692625918.562512,2.038328,-0.939905,0.000018,70.725419,0.299494,0.000008,-0.149040,0.007323,-0.000046,-0.099789,-1.563769,0.008194,0.005394,7.220952,-0.000653,-0.828000,-1.314631,0.002911,-1.898000,-0.050999,-0.021999,0.013919,1.234999,-0.005909,-1.672000,-0.006999,-0.007000,-0.014720,0.000000,-0.000138,-1.498286,0.000002,0.000038,9190.000000,1692625918.553872,0.678171,-0.630950,-0.000048,-0.378514,-0.005978,0.000048,,,,,,,,,
1692625918.572465,,,,,,,,,,,,,,,,,,,,,,,,,,,,,,,,,,,,,,,,,,,17669.000000,1692625918.568447,0.000000,0.000000,0.000000,0.000000,0.000000,0.000000
1692625918.582288,3.494276,-0.939905,0.000038,71.016470,0.299494,0.000008,-0.325680,0.007323,-0.000046,0.026970,-1.563848,-0.002058,0.002697,7.220952,-0.000653,-0.828000,-1.314631,0.000240,-1.896000,-0.049000,-0.019999,0.013510,1.234999,-0.005909,-1.671000,-0.006000,-0.002000,0.000000,0.000000,-0.000138,-1.426000,0.000002,0.000038,9191.000000,1692625918.573875,0.714971,-0.630950,-0.000048,-0.283886,-0.005978,0.000048,,,,,,,,,
1692625918.592072,,,,,,,,,,,,,,,,,,,,,,,,,,,,,,,,,,,,,,,,,,,17670.000000,1692625918.583277,0.000000,0.000000,0.000000,0.000000,0.000000,0.000000
1692625918.592088,2.200100,-0.939905,-0.000208,70.725419,0.299494,0.000008,-0.226320,0.007323,-0.000046,0.008091,-1.563868,-0.003246,0.002697,7.220952,-0.000653,-1.059840,-1.314620,0.004817,-1.896000,-0.049410,-0.009999,0.017605,1.234409,-0.005909,-1.669000,-0.005410,-0.002000,0.011040,0.000000,-0.000138,-1.472000,0.000002,0.000038,9192.000000,1692625918.583877,0.788571,-0.630950,-0.000048,-0.289143,-0.005978,0.000048,,,,,,,,,
1692625918.605527,,,,,,,,,,,,,,,,,,,,,,,,,,,,,,,,,,,,,,,,,,0.000000,,,,,,,,
1692625918.605540,,,,,,,,,,,,,,,,,,,,,,,,,,,,,,,,,,,,,,,,,,,17671.000000,1692625918.588400,0.000000,0.000000,0.000000,0.000000,0.000000,0.000000
1692625918.614568,,,,,,,,,,,,,,,,,,,,,,,,,,,,,,,,,,,,,,,,,,,17672.000000,1692625918.598721,0.000000,0.000000,0.000000,0.000000,0.000000,0.000000
1692625918.617639,1.423594,-0.939521,-0.001536,70.434368,0.299494,0.000008,-0.160080,0.007323,-0.000046,0.010788,-1.563888,-0.003978,-0.005394,7.220952,-0.000653,-0.894240,-1.314641,-0.008199,-1.896000,-0.048410,-0.023000,0.013102,1.234409,-0.008272,-1.669000,-0.006409,0.008000,-0.025760,0.000000,-0.000138,-1.478571,0.000002,0.000038,9193.000000,1692625918.603877,0.667657,-0.630950,-0.000048,-0.368000,-0.005978,0.000048,,,,,,,,,
1692625918.623590,,,,,,,,,,,,,,,,,,,,,,,,,,,,,,,,,,,,,,,,,,,17673.000000,1692625918.608392,0.000000,0.000000,0.000000,0.000000,0.000000,0.000000
1692625918.631088,,,,,,,,,,,,,,,,,,,,,,,,,,,,,,,,,,,,,,,,,,,17674.000000,1692625918.618402,0.000000,0.000000,0.000000,0.000000,0.000000,0.000000
1692625918.637404,,,,,,,,,,,,,,,,,,,,,,,,,,,,,,,,,,,,,,,,,,,17675.000000,1692625918.628258,0.000000,0.000000,0.000000,0.000000,0.000000,0.000000
1692625918.642275,2.507466,-0.939521,0.001268,70.143317,0.299494,0.000008,-0.198720,0.007323,-0.000046,0.018879,-1.563888,-0.000653,0.000000,7.220952,-0.000653,-0.949440,-1.314620,0.004502,-1.901000,-0.051182,-0.012000,0.014331,1.236181,-0.002363,-1.667000,-0.005182,-0.002000,-0.036800,0.000000,-0.000138,-1.537714,0.000002,0.000038,9194.000000,1692625918.633869,0.720229,-0.630950,-0.000048,-0.394286,-0.005978,-0.000048,,,,,,,,,
1692625918.643563,,,,,,,,,,,,,,,,,,,,,,,,,,,,,,,,,,,,,,,,,,,17676.000000,1692625918.638429,0.000000,0.000000,0.000000,0.000000,0.000000,0.000000
1692625918.653023,,,,,,,,,,,,,,,,,,,,,,,,,,,,,,,,,,,,,,,,,,,17677.000000,1692625918.648388,0.000000,0.000000,0.000000,0.000000,0.000000,0.000000
1692625918.653266,1.714783,-0.939905,-0.000214,69.561214,0.299494,0.000008,-0.182160,0.007323,-0.000046,0.021576,-1.563888,-0.000653,-0.002697,7.220952,-0.000653,-0.894240,-1.314641,-0.010388,-1.901000,-0.050000,-0.012000,0.016376,1.234999,0.000590,-1.662000,-0.001999,0.008000,0.001840,0.000000,-0.000138,-1.570571,0.000002,0.000038,9195.000000,1692625918.643877,0.746514,-0.630950,-0.000048,-0.136686,-0.006365,-0.000048,,,,,,,,,
1692625918.660857,,,,,,,,,,,,,,,,,,,,,,,,,,,,,,,,,,,,,,,,,,,17678.000000,1692625918.658636,0.000000,0.000000,0.000000,0.000000,0.000000,0.000000
1692625918.671818,,,,,,,,,,,,,,,,,,,,,,,,,,,,,,,,,,,,,,,,,,,17679.000000,1692625918.668287,0.000000,0.000000,0.000000,0.000000,0.000000,0.000000
1692625918.671831,2.960428,-0.939905,0.000018,70.143317,0.299494,0.000008,-0.165600,0.007323,-0.000046,-0.005394,-1.563888,0.001425,0.002697,7.220952,-0.000653,-0.816960,-1.314631,-0.000167,-1.901000,-0.049818,-0.012000,0.014739,1.233818,-0.005318,-1.661000,-0.001819,0.012000,-0.027600,0.000000,-0.000138,-1.550857,-0.000003,-0.000038,9196.000000,1692625918.663885,0.657143,-0.630950,-0.000048,-0.294400,-0.006365,0.000048,,,,,,,,,
1692625918.686576,,,,,,,,,,,,,,,,,,,,,,,,,,,,,,,,,,,,,,,,,,,17680.000000,1692625918.679670,0.000000,0.000000,0.000000,0.000000,0.000000,0.000000
1692625918.699134,,,,,,,,,,,,,,,,,,,,,,,,,,,,,,,,,,,,,,,,,,,17681.000000,1692625918.688391,0.000000,0.000000,0.000000,0.000000,0.000000,0.000000
1692625918.704014,1.569189,-0.939905,0.000325,69.561214,0.299494,0.000008,-0.160080,0.007323,-0.000046,-0.002697,-1.563789,0.002315,0.005394,7.220952,-0.000653,-0.816960,-1.314631,-0.000471,-1.902000,-0.050409,-0.010999,0.015147,1.234409,-0.007681,-1.664000,-0.003410,0.007000,0.005520,0.000000,-0.000138,-1.524571,-0.000003,-0.000038,9197.000000,1692625918.693868,0.625600,-0.630950,-0.000048,-0.278629,-0.005978,0.000048,,,,,,,,,
1692625918.704048,,,,,,,,,,,,,,,,,,,,,,,,,,,,,,,,,,,,,,,,,,,17682.000000,1692625918.698383,0.000000,0.000000,0.000000,0.000000,0.000000,0.000000
1692625918.708598,,,,,,,,,,,,,,,,,,,,,,,,,,,,,,,,,,,,,,,,,,0.000000,,,,,,,,
1692625918.725233,,,,,,,,,,,,,,,,,,,,,,,,,,,,,,,,,,,,,,,,,,,17683.000000,1692625918.708438,0.000000,0.000000,0.000000,0.000000,0.000000,0.000000
1692625918.725897,2.200100,-0.939905,-0.000018,68.979112,0.299494,0.000008,-0.215280,0.007323,-0.000046,0.035061,-1.563848,-0.004631,-0.008091,7.220952,-0.000653,-0.861120,-1.314620,0.001916,-1.889000,-0.039000,-0.004999,0.013510,1.234999,-0.004727,-1.664000,-0.004000,0.007000,0.005520,0.000000,-0.000138,-1.419429,-0.000003,-0.000038,9198.000000,1692625918.713876,0.678171,-0.630950,-0.000048,-0.252343,-0.005978,0.000048,,,,,,,,,
1692625918.730741,,,,,,,,,,,,,,,,,,,,,,,,,,,,,,,,,,,,,,,,,,,17685.000000,1692625918.728321,0.000000,0.000000,0.000000,0.000000,0.000000,0.000000
1692625918.745471,,,,,,,,,,,,,,,,,,,,,,,,,,,,,,,,,,,,,,,,,,,17686.000000,1692625918.738608,0.000000,0.000000,0.000000,0.000000,0.000000,0.000000
1692625918.745487,2.750124,-0.939521,-0.000121,68.979112,0.299494,0.000008,-0.193200,0.007323,-0.000046,0.021576,-1.563868,-0.000831,-0.002697,7.220952,-0.000653,-0.982560,-1.314620,0.003717,-1.889000,-0.042000,0.032999,0.013919,1.234999,-0.004727,-1.661000,-0.001999,0.016000,-0.014720,0.000000,-0.000138,-1.498286,0.000002,0.000038,9199.000000,1692625918.733868,0.704457,-0.630950,-0.000048,-0.325943,-0.005978,0.000048,,,,,,,,,
1692625918.754555,,,,,,,,,,,,,,,,,,,,,,,,,,,,,,,,,,,,,,,,,,,17687.000000,1692625918.748309,0.000000,0.000000,0.000000,0.000000,0.000000,0.000000
1692625918.766832,1.892733,-0.939905,0.000018,70.725419,0.299493,-0.000069,-0.320160,0.007323,-0.000046,0.005394,-1.563888,-0.002889,-0.002697,7.220952,-0.000653,-0.872160,-1.314620,0.000827,-1.889000,-0.044000,0.026000,0.013510,1.234999,-0.004727,-1.661000,-0.001999,0.016000,-0.036800,0.000000,-0.000138,-1.439143,0.000002,0.000038,9200.000000,1692625918.753877,0.783314,-0.630950,-0.000048,-0.236571,-0.006365,0.000048,,,,,,,,,
1692625918.769090,,,,,,,,,,,,,,,,,,,,,,,,,,,,,,,,,,,,,,,,,,,17688.000000,1692625918.758304,0.000000,0.000000,0.000000,0.000000,0.000000,0.000000
1692625918.778789,,,,,,,,,,,,,,,,,,,,,,,,,,,,,,,,,,,,,,,,,,,17689.000000,1692625918.768690,0.000000,0.000000,0.000000,0.000000,0.000000,0.000000
1692625918.793461,1.714783,-0.939905,0.000018,70.725419,0.299494,0.000193,-0.077280,0.007323,-0.000046,0.024273,-1.563888,-0.000653,0.000000,7.220952,-0.000653,-0.861120,-1.314631,-0.000513,-1.889000,-0.044000,0.014999,0.011465,1.234999,-0.004727,-1.661000,-0.001999,0.016000,-0.001840,0.000000,-0.000138,-1.504857,0.000002,0.000038,9201.000000,1692625918.773872,0.725486,-0.630950,-0.000048,-0.220800,-0.005978,0.000048,,,,,,,,,
1692625918.794232,,,,,,,,,,,,,,,,,,,,,,,,,,,,,,,,,,,,,,,,,,,17690.000000,1692625918.778718,0.000000,0.000000,0.000000,0.000000,0.000000,0.000000
1692625918.801457,2.183922,-0.939905,0.000018,71.016470,0.299494,0.000008,-0.193200,0.007323,-0.000046,0.021576,-1.563888,-0.000653,0.000000,7.220952,-0.000653,-0.728640,-1.314641,-0.005078,-1.888000,-0.042999,0.014999,0.015147,1.234999,-0.004727,-1.662000,-0.003000,0.016000,0.005520,0.000000,-0.000138,-1.590286,0.000002,0.000038,9202.000000,1692625918.783877,0.636114,-0.630950,-0.000048,-0.294400,-0.005978,0.000048,,,,,,,,,
1692625918.801488,,,,,,,,,,,,,,,,,,,,,,,,,,,,,,,,,,,,,,,,,,,17692.000000,1692625918.798687,0.000000,0.000000,0.000000,0.000000,0.000000,0.000000
1692625918.813306,,,,,,,,,,,,,,,,,,,,,,,,,,,,,,,,,,,,,,,,,,0.000000,,,,,,,,
1692625918.818126,,,,,,,,,,,,,,,,,,,,,,,,,,,,,,,,,,,,,,,,,,,17693.000000,1692625918.808548,0.000000,0.000000,0.000000,0.000000,0.000000,0.000000
1692625918.828556,3.041314,-0.939905,0.000018,69.852265,0.299494,0.000008,-0.160080,0.007328,0.000046,-0.026970,-1.563908,-0.002355,-0.002697,7.220952,-0.000653,-0.673440,-1.314631,-0.003853,-1.893000,-0.047591,0.004000,0.012690,1.235590,-0.001772,-1.667000,-0.006591,0.001000,0.018400,0.000000,-0.000138,-1.439143,0.000002,0.000038,9203.000000,1692625918.813873,0.809600,-0.630950,-0.000048,-0.357486,-0.005978,0.000048,,,,,,,,,
1692625918.832949,,,,,,,,,,,,,,,,,,,,,,,,,,,,,,,,,,,,,,,,,,,17694.000000,1692625918.820541,0.000000,0.000000,0.000000,0.000000,0.000000,0.000000
1692625918.861896,2.636884,-0.939905,0.000018,70.434368,0.299494,0.000008,-0.226320,0.007328,0.000046,-0.059334,-1.563769,0.007481,0.000000,7.220952,-0.000653,-0.861120,-1.314620,0.002366,-1.894000,-0.048590,-0.001000,0.013510,1.235590,-0.001772,-1.667000,-0.006591,-0.004000,0.009200,0.000000,-0.000138,-1.432571,0.000002,0.000038,9204.000000,1692625918.823880,0.693943,-0.630950,-0.000048,-0.325943,-0.005978,0.000048,,,,,,,,,
1692625918.861938,,,,,,,,,,,,,,,,,,,,,,,,,,,,,,,,,,,,,,,,,,,17696.000000,1692625918.838317,0.000000,0.000000,0.000000,0.000000,0.000000,0.000000
1692625918.874497,,,,,,,,,,,,,,,,,,,,,,,,,,,,,,,,,,,,,,,,,,,17698.000000,1692625918.858540,0.000000,0.000000,0.000000,0.000000,0.000000,0.000000
1692625918.874512,3.251618,-0.939905,-0.000706,70.434368,0.299494,0.000008,-0.149040,0.007328,0.000046,0.051243,-1.563848,-0.002335,-0.008091,7.220952,-0.000653,-0.783840,-1.314631,-0.003371,-1.891000,-0.046181,0.000000,0.011873,1.236181,0.001181,-1.669000,-0.007182,-0.008000,-0.007360,0.000000,-0.000138,-1.557429,0.000002,0.000038,9205.000000,1692625918.843878,0.709714,-0.630950,-0.000048,-0.320686,-0.005978,0.000048,,,,,,,,,
1692625918.877914,,,,,,,,,,,,,,,,,,,,,,,,,,,,,,,,,,,,,,,,,,,17699.000000,1692625918.868263,0.000000,0.000000,0.000000,0.000000,0.000000,0.000000
1692625918.893878,1.277999,-0.939521,-0.000561,69.852265,0.299494,0.000008,-0.115920,0.007328,0.000046,0.024273,-1.563888,-0.000653,-0.002697,7.220952,-0.000653,-0.585120,-1.314620,0.009539,-1.891000,-0.047181,0.014000,0.013919,1.236181,0.003545,-1.669000,-0.007182,-0.003000,0.014720,0.000000,-0.000138,-1.504857,0.000002,0.000038,9206.000000,1692625918.873872,0.793829,-0.630950,-0.000048,-0.325943,-0.005978,0.000048,,,,,,,,,
1692625918.893916,,,,,,,,,,,,,,,,,,,,,,,,,,,,,,,,,,,,,,,,,,,17700.000000,1692625918.881014,0.000000,0.000000,0.000000,0.000000,0.000000,0.000000
1692625918.905346,,,,,,,,,,,,,,,,,,,,,,,,,,,,,,,,,,,,,,,,,,,17701.000000,1692625918.888416,0.000000,0.000000,0.000000,0.000000,0.000000,0.000000
1692625918.910960,,,,,,,,,,,,,,,,,,,,,,,,,,,,,,,,,,,,,,,,,,,17702.000000,1692625918.898399,0.000000,0.000000,0.000000,0.000000,0.000000,0.000000
1692625918.910999,1.245645,-0.939521,0.000090,69.270163,0.299494,0.000008,-0.104880,0.007328,0.000046,0.016182,-1.563888,0.000217,0.005394,7.220952,-0.000653,-1.104000,-1.314641,-0.008293,-1.894000,-0.048773,0.004000,0.015968,1.236772,0.000590,-1.669000,-0.006772,-0.003000,-0.020240,0.000000,-0.000138,-1.610000,0.000002,0.000038,9207.000000,1692625918.883893,0.788571,-0.630950,-0.000048,-0.341714,-0.005978,0.000048,,,,,,,,,
1692625918.922394,,,,,,,,,,,,,,,,,,,,,,,,,,,,,,,,,,,,,,,,,,,17703.000000,1692625918.912382,0.000000,0.000000,0.000000,0.000000,0.000000,0.000000
1692625918.922410,,,,,,,,,,,,,,,,,,,,,,,,,,,,,,,,,,,,,,,,,,0.000000,,,,,,,,
1692625918.927690,2.928074,-0.939905,0.000018,69.561214,0.299494,0.000008,-0.176640,0.007328,0.000046,-0.089001,-1.563750,0.010846,-0.008091,7.220952,-0.000653,-0.816960,-1.314641,-0.006702,-1.896000,-0.048773,-0.001000,0.013919,1.236772,0.002954,-1.667000,-0.005773,-0.007000,-0.027600,0.000000,-0.000138,-1.603429,0.000002,0.000038,9208.000000,1692625918.913877,0.683429,-0.630950,-0.000048,-0.231314,-0.006365,0.000048,,,,,,,,,
1692625918.932349,,,,,,,,,,,,,,,,,,,,,,,,,,,,,,,,,,,,,,,,,,,17704.000000,1692625918.918442,0.000000,0.000000,0.000000,0.000000,0.000000,0.000000
1692625918.943725,,,,,,,,,,,,,,,,,,,,,,,,,,,,,,,,,,,,,,,,,,,17705.000000,1692625918.929020,0.000000,0.000000,0.000000,0.000000,0.000000,0.000000
1692625918.944061,3.219263,-0.939905,-0.000195,69.270163,0.299494,0.000008,-0.060720,0.007328,0.000046,0.051243,-1.563848,-0.002157,-0.008091,7.220952,-0.000653,-0.574080,-1.314620,0.010388,-1.896000,-0.048773,0.004000,0.014331,1.236772,0.002954,-1.666000,-0.003772,0.008000,-0.040480,0.000000,-0.000138,-1.564000,0.000002,0.000038,9209.000000,1692625918.933875,0.851657,-0.630950,-0.000048,-0.178743,-0.006365,0.000048,,,,,,,,,
1692625918.949869,,,,,,,,,,,,,,,,,,,,,,,,,,,,,,,,,,,,,,,,,,,17707.000000,1692625918.948609,0.000000,0.000000,0.000000,0.000000,0.000000,0.000000
1692625918.966430,,,,,,,,,,,,,,,,,,,,,,,,,,,,,,,,,,,,,,,,,,,17708.000000,1692625918.958323,0.000000,0.000000,0.000000,0.000000,0.000000,0.000000
1692625918.967008,2.507466,-0.939905,0.000018,68.688061,0.299494,0.000008,-0.154560,0.007328,0.000046,0.016182,-1.563868,-0.000653,-0.002697,7.220952,-0.000653,-0.894240,-1.314631,0.000324,-1.896000,-0.048773,-0.001000,0.011465,1.236772,-0.002954,-1.666000,-0.004773,0.017000,-0.018400,0.000000,-0.000138,-1.478571,0.000002,0.000038,9210.000000,1692625918.953874,0.767543,-0.630950,-0.000048,-0.257600,-0.006365,0.000048,,,,,,,,,
1692625918.980166,,,,,,,,,,,,,,,,,,,,,,,,,,,,,,,,,,,,,,,,,,,17709.000000,1692625918.968389,0.000000,0.000000,0.000000,0.000000,0.000000,0.000000
1692625918.992912,1.957442,-0.939905,0.000050,68.688061,0.299494,0.000008,-0.336720,0.007328,0.000046,0.016182,-1.563888,-0.000653,0.002697,7.220952,-0.000653,-0.938400,-1.314641,-0.005885,-1.894000,-0.046590,0.004000,0.015147,1.235590,0.000000,-1.664000,-0.003591,0.012000,0.001840,0.000000,-0.000138,-1.511429,0.000002,0.000038,9211.000000,1692625918.973873,-0.042057,-0.630950,-0.000048,-0.257600,-0.005978,0.000048,,,,,,,,,
1692625918.992938,,,,,,,,,,,,,,,,,,,,,,,,,,,,,,,,,,,,,,,,,,,17710.000000,1692625918.978312,0.000000,0.000000,0.000000,0.000000,0.000000,0.000000
1692625919.007298,,,,,,,,,,,,,,,,,,,,,,,,,,,,,,,,,,,,,,,,,,,17712.000000,1692625918.998315,0.000000,0.000000,0.000000,0.000000,0.000000,0.000000
1692625919.007567,2.054505,-0.939905,0.001480,68.105959,0.299494,0.000008,-0.209760,0.007328,0.000046,0.021576,-1.563888,-0.000653,-0.002697,7.220952,-0.000653,-0.518880,-1.314631,0.004586,-1.891000,-0.045590,0.008000,0.015147,1.235590,-0.002363,-1.662000,-0.003591,0.012000,-0.001840,0.000000,-0.000138,-1.452286,0.000002,0.000038,9212.000000,1692625918.993872,0.762286,-0.630950,-0.000048,-0.199771,-0.006365,0.000048,,,,,,,,,
1692625919.017853,,,,,,,,,,,,,,,,,,,,,,,,,,,,,,,,,,,,,,,,,,,17713.000000,1692625919.009024,0.000000,0.000000,0.000000,0.000000,0.000000,0.000000
1692625919.026898,2.701593,-0.939905,0.000018,68.397010,0.299494,0.000008,-0.149040,0.007328,0.000046,0.013485,-1.563888,-0.000653,0.000000,7.220952,-0.000653,-1.048800,-1.314631,-0.003214,-1.901000,-0.050999,-0.007000,0.015147,1.234999,-0.002363,-1.659000,-0.001000,0.020999,-0.025760,0.000000,-0.000138,-1.458857,0.000002,0.000038,9213.000000,1692625919.013875,0.667657,-0.630950,-0.000048,-0.215543,-0.005978,0.000048,,,,,,,,,
1692625919.030107,,,,,,,,,,,,,,,,,,,,,,,,,,,,,,,,,,,,,,,,,,,17714.000000,1692625919.018541,0.000000,0.000000,0.000000,0.000000,0.000000,0.000000
1692625919.030135,,,,,,,,,,,,,,,,,,,,,,,,,,,,,,,,,,,,,,,,,,0.000000,,,,,,,,
1692625919.033693,,,,,,,,,,,,,,,,,,,,,,,,,,,,,,,,,,,,,,,,,,,17715.000000,1692625919.029187,0.000000,0.000000,0.000000,0.000000,0.000000,0.000000
1692625919.041820,,,,,,,,,,,,,,,,,,,,,,,,,,,,,,,,,,,,,,,,,,,17716.000000,1692625919.038430,0.000000,0.000000,0.000000,0.000000,0.000000,0.000000
1692625919.043046,2.847188,-0.939905,0.000018,68.979112,0.299493,-0.000167,-0.143520,0.007328,0.000046,0.013485,-1.563888,-0.000653,0.002697,7.220952,-0.000653,-0.518880,-1.314631,0.004105,-1.891000,-0.043590,0.014999,0.015556,1.235590,-0.001772,-1.659000,-0.002590,0.014999,-0.027600,0.000000,-0.000138,-1.629714,0.000002,0.000038,9214.000000,1692625919.033871,0.846400,-0.630950,-0.000048,-0.257600,-0.005978,0.003511,,,,,,,,,
1692625919.059626,,,,,,,,,,,,,,,,,,,,,,,,,,,,,,,,,,,,,,,,,,,17717.000000,1692625919.050297,0.000000,0.000000,0.000000,0.000000,0.000000,0.000000
1692625919.061266,3.170732,-0.939905,0.000018,69.561214,0.299494,0.000263,-0.132480,0.007328,0.000046,0.021576,-1.563888,0.002335,-0.008091,7.220952,-0.000653,-0.916320,-1.314641,-0.000429,-1.889000,-0.042999,0.014000,0.016785,1.234999,-0.001772,-1.659000,-0.001999,0.014999,-0.005520,0.000000,-0.000138,-1.583714,0.000002,0.000038,9215.000000,1692625919.053877,0.699200,-0.630950,-0.000048,-0.226057,-0.005978,-0.000048,,,,,,,,,
1692625919.068498,,,,,,,,,,,,,,,,,,,,,,,,,,,,,,,,,,,,,,,,,,,17718.000000,1692625919.058373,0.000000,0.000000,0.000000,0.000000,0.000000,0.000000
1692625919.074478,,,,,,,,,,,,,,,,,,,,,,,,,,,,,,,,,,,,,,,,,,,17719.000000,1692625919.071266,0.000000,0.000000,0.000000,0.000000,0.000000,0.000000
1692625919.081145,,,,,,,,,,,,,,,,,,,,,,,,,,,,,,,,,,,,,,,,,,,17720.000000,1692625919.078373,0.000000,0.000000,0.000000,0.000000,0.000000,0.000000
1692625919.086177,2.475112,-0.939905,0.000018,68.397010,0.299493,-0.000478,-0.287040,0.007328,0.000046,0.051243,-1.563829,-0.007521,-0.005394,7.220952,-0.000653,-0.916320,-1.314631,0.000471,-1.898000,-0.049000,-0.002000,0.012690,1.234999,-0.004136,-1.659000,-0.003000,0.018999,-0.018400,0.000000,-0.000138,-1.583714,0.000002,0.000038,9216.000000,1692625919.073878,0.709714,-0.630950,-0.000048,-0.247086,-0.005978,0.000118,,,,,,,,,
1692625919.098028,,,,,,,,,,,,,,,,,,,,,,,,,,,,,,,,,,,,,,,,,,,17721.000000,1692625919.088637,0.000000,0.000000,0.000000,0.000000,0.000000,0.000000
1692625919.102096,2.329517,-0.939905,0.000018,68.979112,0.299493,-0.000013,-0.160080,0.007328,0.000046,0.026970,-1.563848,-0.001167,0.002697,7.220952,-0.000653,-0.894240,-1.314631,0.001581,-1.901000,-0.052000,-0.025000,0.011052,1.234999,-0.004136,-1.657000,-0.001999,0.013000,0.011040,0.000000,-0.000138,-1.603429,0.000002,0.000038,9217.000000,1692625919.093870,0.762286,-0.630950,-0.000048,-0.247086,-0.005978,0.000048,,,,,,,,,
1692625919.106120,,,,,,,,,,,,,,,,,,,,,,,,,,,,,,,,,,,,,,,,,,,17722.000000,1692625919.098396,0.000000,0.000000,0.000000,0.000000,0.000000,0.000000
1692625919.114394,,,,,,,,,,,,,,,,,,,,,,,,,,,,,,,,,,,,,,,,,,,17723.000000,1692625919.108294,0.000000,0.000000,0.000000,0.000000,0.000000,0.000000
1692625919.120830,2.200100,-0.939905,0.000228,68.688061,0.299493,-0.000008,-0.204240,0.007328,0.000046,0.032364,-1.563868,-0.001286,-0.008091,7.220952,-0.000653,-1.037760,-1.314631,-0.001340,-1.901000,-0.052000,-0.023000,0.013102,1.234999,-0.004136,-1.657000,-0.001999,0.013000,0.000000,0.000000,-0.000138,-1.439143,0.000002,0.000038,9218.000000,1692625919.113880,0.736000,-0.630950,-0.000048,-0.226057,-0.005978,0.000048,,,,,,,,,
1692625919.127711,,,,,,,,,,,,,,,,,,,,,,,,,,,,,,,,,,,,,,,,,,,17724.000000,1692625919.118631,0.000000,0.000000,0.000000,0.000000,0.000000,0.000000
1692625919.137062,3.186909,-0.939905,0.000018,68.979112,0.299493,-0.000008,-0.126960,0.007328,0.000046,0.032364,-1.563888,-0.002612,0.000000,7.220952,-0.000653,-1.192320,-1.314631,-0.002816,-1.902000,-0.052000,-0.021999,0.013102,1.234999,-0.004136,-1.657000,-0.001999,0.013000,-0.022080,0.000000,-0.000138,-1.511429,0.000002,0.000038,9219.000000,1692625919.123878,0.783314,-0.630950,-0.000048,-0.236571,-0.006365,0.000048,,,,,,,,,
1692625919.137854,,,,,,,,,,,,,,,,,,,,,,,,,,,,,,,,,,,,,,,,,,,17725.000000,1692625919.128457,0.000000,0.000000,0.000000,0.000000,0.000000,0.000000
1692625919.143087,,,,,,,,,,,,,,,,,,,,,,,,,,,,,,,,,,,,,,,,,,0.000000,,,,,,,,
1692625919.148424,,,,,,,,,,,,,,,,,,,,,,,,,,,,,,,,,,,,,,,,,,,17726.000000,1692625919.138383,0.000000,0.000000,0.000000,0.000000,0.000000,0.000000
1692625919.154512,,,,,,,,,,,,,,,,,,,,,,,,,,,,,,,,,,,,,,,,,,,17727.000000,1692625919.148285,0.000000,0.000000,0.000000,0.000000,0.000000,0.000000
1692625919.163151,2.070682,-0.939905,0.000482,69.852265,0.299493,-0.000008,-0.187680,0.007328,0.000046,0.018879,-1.563888,-0.000653,0.000000,7.220952,-0.000653,-0.927360,-1.314631,0.000942,-1.899000,-0.049000,-0.009999,0.012690,1.234999,-0.004136,-1.657000,-0.001999,0.013000,-0.003680,0.000000,-0.000138,-1.544286,0.000002,0.000038,9220.000000,1692625919.153870,0.762286,-0.630950,-0.000048,-0.226057,-0.005978,0.000048,,,,,,,,,
1692625919.163185,,,,,,,,,,,,,,,,,,,,,,,,,,,,,,,,,,,,,,,,,,,17728.000000,1692625919.158499,0.000000,0.000000,0.000000,0.000000,0.000000,0.000000
1692625919.174289,,,,,,,,,,,,,,,,,,,,,,,,,,,,,,,,,,,,,,,,,,,17729.000000,1692625919.168375,0.000000,0.000000,0.000000,0.000000,0.000000,0.000000
1692625919.182976,3.122200,-0.939905,0.000018,69.852265,0.299493,-0.000008,-0.292560,0.007328,0.000046,0.021576,-1.563908,-0.001999,0.002697,7.220952,-0.000653,-0.927360,-1.314641,-0.000115,-1.902000,-0.052591,-0.004999,0.015147,1.235590,0.001772,-1.657000,-0.002590,0.008000,0.009200,0.000000,-0.000138,-1.491714,0.000002,0.000038,9221.000000,1692625919.173874,0.757029,-0.630950,-0.000048,-0.126171,-0.006365,0.000048,,,,,,,,,
1692625919.183000,,,,,,,,,,,,,,,,,,,,,,,,,,,,,,,,,,,,,,,,,,,17730.000000,1692625919.179038,0.000000,0.000000,0.000000,0.000000,0.000000,0.000000
1692625919.199738,2.329517,-0.939905,0.000638,70.725419,0.299493,-0.000008,-0.154560,0.007328,0.000046,-0.026970,-1.563908,-0.001603,0.005394,7.220952,-0.000653,-0.982560,-1.314641,-0.000565,-1.902000,-0.052000,-0.018999,0.015968,1.234999,-0.001181,-1.651000,0.001000,0.012000,-0.003680,0.000000,-0.000138,-1.406286,0.000002,0.000038,9222.000000,1692625919.183877,0.825371,-0.630950,-0.000048,-0.341714,-0.005978,0.000048,,,,,,,,,
1692625919.199779,,,,,,,,,,,,,,,,,,,,,,,,,,,,,,,,,,,,,,,,,,,17731.000000,1692625919.189808,0.000000,0.000000,0.000000,0.000000,0.000000,0.000000
1692625919.211923,,,,,,,,,,,,,,,,,,,,,,,,,,,,,,,,,,,,,,,,,,,17732.000000,1692625919.198475,0.000000,0.000000,0.000000,0.000000,0.000000,0.000000
1692625919.219081,,,,,,,,,,,,,,,,,,,,,,,,,,,,,,,,,,,,,,,,,,,17733.000000,1692625919.208465,0.000000,0.000000,0.000000,0.000000,0.000000,0.000000
1692625919.229359,2.103036,-0.939905,0.000018,69.561214,0.299494,0.000349,-0.143520,0.007328,0.000046,0.035061,-1.563848,-0.001286,-0.002697,7.220952,-0.000653,-0.949440,-1.314641,-0.000094,-1.901000,-0.050591,-0.014000,0.015556,1.235590,0.002363,-1.654000,-0.001591,0.024000,-0.003680,0.000000,-0.000138,-1.518000,-0.000003,-0.000038,9223.000000,1692625919.213880,0.851657,-0.630950,-0.000048,-0.262857,-0.005978,-0.003097,,,,,,,,,
1692625919.231302,,,,,,,,,,,,,,,,,,,,,,,,,,,,,,,,,,,,,,,,,,,17734.000000,1692625919.220667,0.000000,0.000000,0.000000,0.000000,0.000000,0.000000
1692625919.240740,,,,,,,,,,,,,,,,,,,,,,,,,,,,,,,,,,,,,,,,,,,17735.000000,1692625919.228412,0.000000,0.000000,0.000000,0.000000,0.000000,0.000000
1692625919.242810,3.300149,-0.939905,0.000018,70.143317,0.299494,0.000280,-0.264960,0.007328,0.000046,-0.018879,-1.563888,-0.002454,0.008091,7.220952,-0.000653,-0.684480,-1.314641,-0.004272,-1.901000,-0.048773,-0.008999,0.011465,1.236772,0.002363,-1.656000,-0.003772,0.013000,-0.027600,0.000000,-0.000138,-1.518000,0.000002,0.000193,9224.000000,1692625919.233870,0.667657,-0.630950,-0.000048,-0.410057,-0.005597,-0.004880,,,,,,,,,
1692625919.243025,,,,,,,,,,,,,,,,,,,,,,,,,,,,,,,,,,,,,,,,,,,17736.000000,1692625919.238378,0.000000,0.000000,0.000000,0.000000,0.000000,0.000000
1692625919.244757,,,,,,,,,,,,,,,,,,,,,,,,,,,,,,,,,,,,,,,,,,0.000000,,,,,,,,
1692625919.253215,,,,,,,,,,,,,,,,,,,,,,,,,,,,,,,,,,,,,,,,,,,17737.000000,1692625919.249367,0.000000,0.000000,0.000000,0.000000,0.000000,0.000000
1692625919.260459,2.232454,-0.939905,0.001021,70.143317,0.299493,-0.000511,-0.237360,0.007328,0.000046,0.016182,-1.563888,-0.000653,0.000000,7.220952,-0.000653,-0.772800,-1.314631,0.000816,-1.896000,-0.045773,0.014999,0.014739,1.236772,0.004727,-1.651000,-0.000773,0.008000,-0.009200,0.000000,-0.000138,-1.452286,0.000002,0.000038,9225.000000,1692625919.253873,0.741257,-0.630950,-0.000048,-0.205029,-0.005978,0.000064,,,,,,,,,
1692625919.260885,,,,,,,,,,,,,,,,,,,,,,,,,,,,,,,,,,,,,,,,,,,17738.000000,1692625919.258556,0.000000,0.000000,0.000000,0.000000,0.000000,0.000000
1692625919.276978,,,,,,,,,,,,,,,,,,,,,,,,,,,,,,,,,,,,,,,,,,,17739.000000,1692625919.268305,0.000000,0.000000,0.000000,0.000000,0.000000,0.000000
1692625919.279961,3.736934,-0.939905,0.000018,70.143317,0.299494,0.000008,-0.193200,0.007328,0.000046,-0.097092,-1.563908,-0.001860,0.002697,7.220952,-0.000653,-0.916320,-1.314641,-0.000146,-1.896000,-0.047181,0.018999,0.013919,1.236181,0.004727,-1.651000,-0.000182,0.020999,0.003680,0.000000,-0.000138,-1.419429,0.000002,0.000038,9226.000000,1692625919.273877,0.473143,-0.630950,-0.000048,-0.310171,-0.005978,-0.002265,,,,,,,,,
1692625919.283353,,,,,,,,,,,,,,,,,,,,,,,,,,,,,,,,,,,,,,,,,,,17740.000000,1692625919.278432,0.000000,0.000000,0.000000,0.000000,0.000000,0.000000
1692625919.296328,,,,,,,,,,,,,,,,,,,,,,,,,,,,,,,,,,,,,,,,,,,17741.000000,1692625919.288404,0.000000,0.000000,0.000000,0.000000,0.000000,0.000000
1692625919.300906,3.170732,-0.939905,0.000018,69.852265,0.299494,0.000008,-0.309120,0.007328,0.000046,0.021576,-1.563829,-0.001207,0.002697,7.220952,-0.000653,-1.048800,-1.314651,-0.008995,-1.894000,-0.045999,0.008999,0.012690,1.234999,-0.004136,-1.649000,-0.001000,0.018999,0.003680,0.000000,-0.000138,-1.603429,0.000002,0.000038,9227.000000,1692625919.293869,0.757029,-0.630950,-0.000048,-0.315429,-0.005597,-0.000048,,,,,,,,,
1692625919.303097,,,,,,,,,,,,,,,,,,,,,,,,,,,,,,,,,,,,,,,,,,,17742.000000,1692625919.298543,0.000000,0.000000,0.000000,0.000000,0.000000,0.000000
1692625919.315099,,,,,,,,,,,,,,,,,,,,,,,,,,,,,,,,,,,,,,,,,,,17743.000000,1692625919.308297,0.000000,0.000000,0.000000,0.000000,0.000000,0.000000
1692625919.321246,2.167745,-0.939905,0.000900,70.143317,0.299494,0.000008,-0.209760,0.007328,0.000046,0.040455,-1.563868,-0.002652,0.002697,7.220952,-0.000653,-0.673440,-1.314631,0.010210,-1.899000,-0.049000,-0.006000,0.015556,1.234999,-0.006499,-1.646000,0.001000,0.008999,0.016560,0.000000,-0.000138,-1.524571,0.000002,0.000038,9228.000000,1692625919.313876,0.799086,-0.630950,-0.000048,-0.236571,-0.005978,0.000048,,,,,,,,,
1692625919.323878,,,,,,,,,,,,,,,,,,,,,,,,,,,,,,,,,,,,,,,,,,,17744.000000,1692625919.318436,0.000000,0.000000,0.000000,0.000000,0.000000,0.000000
1692625919.333833,,,,,,,,,,,,,,,,,,,,,,,,,,,,,,,,,,,,,,,,,,,17745.000000,1692625919.328301,0.000000,0.000000,0.000000,0.000000,0.000000,0.000000
1692625919.343429,3.817820,-0.940287,0.000018,69.561214,0.299494,0.000008,-0.215280,0.007328,0.000046,0.013485,-1.563868,-0.000653,-0.002697,7.220952,-0.000653,-0.684480,-1.314641,-0.003162,-1.886000,-0.039999,0.004000,0.012690,1.234999,-0.003545,-1.646000,0.000001,0.017999,0.000000,0.000000,-0.000138,-1.583714,-0.000003,-0.000038,9229.000000,1692625919.333884,0.809600,-0.630950,-0.000048,-0.294400,-0.005597,-0.000048,,,,,,,,,
1692625919.345393,,,,,,,,,,,,,,,,,,,,,,,,,,,,,,,,,,,,,,,,,,,17746.000000,1692625919.339231,0.000000,0.000000,0.000000,0.000000,0.000000,0.000000
1692625919.354845,,,,,,,,,,,,,,,,,,,,,,,,,,,,,,,,,,,,,,,,,,,17747.000000,1692625919.349535,0.000000,0.000000,0.000000,0.000000,0.000000,0.000000
1692625919.355070,,,,,,,,,,,,,,,,,,,,,,,,,,,,,,,,,,,,,,,,,,0.000000,,,,,,,,
1692625919.363369,3.413390,-0.939905,-0.000018,69.561214,0.299494,0.000008,-0.138000,0.007328,0.000046,0.026970,-1.563888,-0.000989,0.000000,7.220952,-0.000653,-0.916320,-1.314641,-0.000272,-1.889000,-0.043590,0.021999,0.013102,1.235590,0.002363,-1.649000,-0.001591,0.008000,-0.005520,0.000000,-0.000138,-1.544286,-0.000003,-0.000038,9230.000000,1692625919.353878,0.772800,-0.630950,-0.000048,-0.336457,-0.005978,-0.000048,,,,,,,,,
1692625919.364976,,,,,,,,,,,,,,,,,,,,,,,,,,,,,,,,,,,,,,,,,,,17748.000000,1692625919.358479,0.000000,0.000000,0.000000,0.000000,0.000000,0.000000
1692625919.374523,,,,,,,,,,,,,,,,,,,,,,,,,,,,,,,,,,,,,,,,,,,17749.000000,1692625919.368419,0.000000,0.000000,0.000000,0.000000,0.000000,0.000000
