__time,/kms40_driver/wrench/header/seq,/kms40_driver/wrench/header/stamp,/kms40_driver/wrench/wrench/force/x,/kms40_driver/wrench/wrench/force/y,/kms40_driver/wrench/wrench/force/z,/kms40_driver/wrench/wrench/torque/x,/kms40_driver/wrench/wrench/torque/y,/kms40_driver/wrench/wrench/torque/z
1696856868.602426,480620.000000000,1696856868.601000547,0.023000000,0.031000000,0.016000000,0.000000000,0.000000000,0.001000000
1696856868.604170,480621.000000000,1696856868.603028536,0.023000000,0.031000000,0.016000000,0.000000000,0.001000000,0.001000000
1696856868.606269,480622.000000000,1696856868.605000496,0.024000000,0.032000000,0.016000000,0.000000000,0.001000000,0.001000000
1696856868.608247,480623.000000000,1696856868.607038021,0.023000000,0.034000000,0.016000000,0.000000000,0.001000000,0.001000000
1696856868.610403,480624.000000000,1696856868.608968735,0.023000000,0.036000000,0.018000000,0.000000000,0.001000000,0.001000000
1696856868.612087,480625.000000000,1696856868.610971928,0.022000000,0.038000000,0.018000000,0.000000000,0.000000000,0.001000000
1696856868.614116,480626.000000000,1696856868.612976313,0.022000000,0.039000000,0.016000000,0.000000000,0.000000000,0.001000000
1696856868.616162,480627.000000000,1696856868.615008354,0.022000000,0.038000000,0.014000000,0.000000000,0.001000000,0.001000000
1696856868.618155,480628.000000000,1696856868.617002964,0.023000000,0.037000000,0.012000000,0.000000000,0.001000000,0.001000000
1696856868.620637,480629.000000000,1696856868.618991375,0.022000000,0.035000000,0.011000000,0.000000000,0.001000000,0.001000000
1696856868.622845,480630.000000000,1696856868.620994329,0.023000000,0.034000000,0.009000000,0.000000000,0.001000000,0.001000000
1696856868.624295,480631.000000000,1696856868.622979164,0.023000000,0.033000000,0.006000000,0.000000000,0.001000000,0.001000000
1696856868.626251,480632.000000000,1696856868.625024080,0.022000000,0.032000000,0.004000000,0.000000000,0.001000000,0.001000000
1696856868.628128,480633.000000000,1696856868.626970768,0.022000000,0.033000000,0.000000000,0.000000000,0.001000000,0.001000000
1696856868.630963,480634.000000000,1696856868.629744053,0.021000000,0.035000000,0.000000000,0.000000000,0.001000000,0.001000000
1696856868.632093,480635.000000000,1696856868.630985498,0.021000000,0.037000000,-0.004000000,0.000000000,0.001000000,0.001000000
1696856868.634138,480636.000000000,1696856868.632979155,0.020000000,0.040000000,-0.005000000,0.000000000,0.001000000,0.001000000
1696856868.636153,480637.000000000,1696856868.634972572,0.019000000,0.042000000,-0.008000000,0.000000000,0.001000000,0.001000000
1696856868.638210,480638.000000000,1696856868.637049437,0.019000000,0.042000000,-0.013000000,0.000000000,0.001000000,0.001000000
1696856868.655239,480646.000000000,1696856868.653005600,0.016000000,0.040000000,-0.049000000,0.000000000,0.001000000,0.002000000
1696856868.662665,480650.000000000,1696856868.660990000,0.014000000,0.044000000,-0.066000000,0.000000000,0.000000000,0.002000000
1696856868.664113,480651.000000000,1696856868.662980795,0.013000000,0.043000000,-0.069000000,0.000000000,0.000000000,0.002000000
1696856868.666142,480652.000000000,1696856868.665012598,0.012000000,0.041000000,-0.072000000,0.000000000,0.000000000,0.002000000
1696856868.668219,480653.000000000,1696856868.667045593,0.013000000,0.040000000,-0.075000000,0.000000000,0.000000000,0.002000000
1696856868.670567,480654.000000000,1696856868.669049263,0.013000000,0.039000000,-0.079000000,0.000000000,0.000000000,0.002000000
1696856868.672093,480655.000000000,1696856868.670976162,0.013000000,0.038000000,-0.082000000,0.000000000,0.000000000,0.002000000
1696856868.674400,480656.000000000,1696856868.673002005,0.013000000,0.039000000,-0.084000000,0.000000000,0.000000000,0.003000000
1696856868.676113,480657.000000000,1696856868.674962282,0.012000000,0.041000000,-0.084000000,0.000000000,0.000000000,0.003000000
1696856868.680213,480658.000000000,1696856868.676994562,0.012000000,0.043000000,-0.083000000,0.000000000,0.000000000,0.003000000
1696856868.680585,480659.000000000,1696856868.679000139,0.012000000,0.045000000,-0.083000000,0.000000000,0.000000000,0.003000000
1696856868.682127,480660.000000000,1696856868.680993795,0.012000000,0.045000000,-0.085000000,0.000000000,0.000000000,0.003000000
1696856868.684237,480661.000000000,1696856868.683088064,0.011000000,0.044000000,-0.085000000,0.000000000,0.000000000,0.003000000
1696856868.686114,480662.000000000,1696856868.684981108,0.011000000,0.043000000,-0.085000000,0.000000000,0.000000000,0.003000000
1696856868.688103,480663.000000000,1696856868.686963558,0.011000000,0.041000000,-0.083000000,0.000000000,0.000000000,0.003000000
1696856868.690139,480664.000000000,1696856868.688998222,0.012000000,0.039000000,-0.081000000,0.000000000,0.000000000,0.003000000
1696856868.692103,480665.000000000,1696856868.691005707,0.012000000,0.037000000,-0.080000000,0.000000000,0.000000000,0.003000000
1696856868.694120,480666.000000000,1696856868.692989349,0.013000000,0.036000000,-0.079000000,0.000000000,0.000000000,0.003000000
1696856868.696087,480667.000000000,1696856868.694969654,0.012000000,0.036000000,-0.076000000,0.000000000,0.000000000,0.003000000
1696856868.698379,480668.000000000,1696856868.697093964,0.012000000,0.037000000,-0.072000000,0.000000000,0.000000000,0.003000000
1696856868.708465,480673.000000000,1696856868.707006931,0.009000000,0.040000000,-0.050000000,0.000000000,0.000000000,0.003000000
1696856868.724029,480680.000000000,1696856868.720989943,0.007000000,0.034000000,-0.019000000,0.000000000,0.000000000,0.002000000
1696856868.741028,480689.000000000,1696856868.738995552,-0.001000000,0.026000000,0.010000000,0.000000000,0.000000000,0.002000000
1696856868.742213,480690.000000000,1696856868.740992546,-0.001000000,0.026000000,0.011000000,0.000000000,0.000000000,0.002000000
1696856868.757788,480697.000000000,1696856868.754967690,-0.007000000,0.025000000,0.022000000,0.000000000,0.000000000,0.001000000
1696856868.774508,480706.000000000,1696856868.773017168,-0.009000000,0.019000000,0.021000000,0.000000000,0.000000000,0.001000000
1696856868.791075,480714.000000000,1696856868.788997412,-0.006000000,0.009000000,0.015000000,0.000000000,0.000000000,0.001000000
1696856868.792154,480715.000000000,1696856868.790984631,-0.006000000,0.011000000,0.016000000,0.000000000,0.000000000,0.001000000
1696856868.807690,480722.000000000,1696856868.805010319,-0.003000000,0.007000000,0.011000000,0.000000000,0.000000000,0.001000000
1696856868.808187,480723.000000000,1696856868.806995869,-0.002000000,0.006000000,0.010000000,0.000000000,0.000000000,0.001000000
1696856868.811278,480724.000000000,1696856868.809036970,-0.002000000,0.007000000,0.009000000,0.000000000,0.000000000,0.001000000
1696856868.812158,480725.000000000,1696856868.810985327,-0.002000000,0.010000000,0.012000000,0.000000000,0.000000000,0.001000000
1696856868.814284,480726.000000000,1696856868.813068628,-0.002000000,0.012000000,0.012000000,0.000000000,0.000000000,0.001000000
1696856868.816302,480727.000000000,1696856868.815008163,-0.003000000,0.015000000,0.014000000,0.000000000,0.000000000,0.001000000
1696856868.818249,480728.000000000,1696856868.817047119,-0.003000000,0.016000000,0.013000000,0.000000000,0.000000000,0.001000000
1696856868.820615,480729.000000000,1696856868.818988562,-0.003000000,0.017000000,0.012000000,0.000000000,0.000000000,0.001000000
1696856868.822151,480730.000000000,1696856868.821009874,-0.004000000,0.017000000,0.013000000,0.000000000,0.000000000,0.001000000
1696856868.824391,480731.000000000,1696856868.823039293,-0.004000000,0.016000000,0.013000000,0.000000000,0.000000000,0.001000000
1696856868.828321,480733.000000000,1696856868.826977491,-0.004000000,0.014000000,0.013000000,0.000000000,0.000000000,0.001000000
1696856868.830255,480734.000000000,1696856868.829037428,-0.004000000,0.013000000,0.013000000,0.000000000,0.000000000,0.001000000
1696856868.832210,480735.000000000,1696856868.830984354,-0.005000000,0.013000000,0.013000000,0.000000000,0.000000000,0.001000000
1696856868.834170,480736.000000000,1696856868.833034754,-0.005000000,0.015000000,0.013000000,0.000000000,0.000000000,0.001000000
1696856868.841341,480739.000000000,1696856868.838993073,-0.007000000,0.022000000,0.015000000,0.000000000,0.000000000,0.002000000
1696856868.842288,480740.000000000,1696856868.841000557,-0.009000000,0.023000000,0.015000000,0.000000000,0.000000000,0.002000000
1696856868.844124,480741.000000000,1696856868.842977762,-0.009000000,0.022000000,0.016000000,0.000000000,0.000000000,0.002000000
1696856868.846553,480742.000000000,1696856868.845025539,-0.010000000,0.021000000,0.015000000,0.000000000,0.000000000,0.002000000
1696856868.848135,480743.000000000,1696856868.846990824,-0.010000000,0.020000000,0.015000000,0.000000000,0.000000000,0.002000000
1696856868.857331,480747.000000000,1696856868.854991913,-0.011000000,0.016000000,0.012000000,0.000000000,0.000000000,0.002000000
1696856868.858149,480748.000000000,1696856868.857005596,-0.012000000,0.017000000,0.013000000,0.000000000,0.000000000,0.003000000
1696856868.860451,480749.000000000,1696856868.859006882,-0.012000000,0.019000000,0.013000000,0.000000000,0.000000000,0.002000000
1696856868.862167,480750.000000000,1696856868.861009359,-0.013000000,0.021000000,0.013000000,0.000000000,0.000000000,0.002000000
1696856868.864222,480751.000000000,1696856868.862982512,-0.013000000,0.022000000,0.011000000,0.000000000,0.000000000,0.002000000
1696856868.874505,480756.000000000,1696856868.873010397,-0.012000000,0.013000000,0.005000000,0.000000000,0.000000000,0.002000000
1696856868.876133,480757.000000000,1696856868.874985695,-0.011000000,0.011000000,0.003000000,0.000000000,0.000000000,0.002000000
1696856868.890630,480763.000000000,1696856868.886982441,-0.008000000,0.017000000,0.000000000,0.000000000,0.000000000,0.002000000
1696856868.891276,480764.000000000,1696856868.889033794,-0.007000000,0.016000000,0.000000000,0.000000000,0.000000000,0.002000000
1696856868.907246,480772.000000000,1696856868.905005217,0.002000000,0.015000000,-0.009000000,0.000000000,0.000000000,0.001000000
1696856868.908228,480773.000000000,1696856868.907041073,0.003000000,0.018000000,-0.008000000,0.000000000,0.000000000,0.001000000
1696856868.910871,480774.000000000,1696856868.909015179,0.003000000,0.020000000,-0.009000000,0.000000000,0.000000000,0.001000000
1696856868.912137,480775.000000000,1696856868.911017179,0.004000000,0.021000000,-0.010000000,0.000000000,0.000000000,0.001000000
1696856868.914246,480776.000000000,1696856868.913116455,0.006000000,0.021000000,-0.011000000,0.000000000,0.000000000,0.000000000
1696856868.916121,480777.000000000,1696856868.915001631,0.007000000,0.021000000,-0.013000000,0.000000000,0.001000000,0.000000000
1696856868.918165,480778.000000000,1696856868.917010546,0.008000000,0.020000000,-0.015000000,0.000000000,0.001000000,0.001000000
1696856868.926438,480782.000000000,1696856868.925252676,0.012000000,0.027000000,-0.019000000,0.000000000,0.001000000,0.000000000
1696856868.928130,480783.000000000,1696856868.926996231,0.012000000,0.032000000,-0.020000000,0.000000000,0.001000000,0.000000000
1696856868.932447,480785.000000000,1696856868.930979729,0.012000000,0.040000000,-0.022000000,0.000000000,0.001000000,0.001000000
1696856868.934173,480786.000000000,1696856868.933031082,0.012000000,0.042000000,-0.024000000,0.000000000,0.001000000,0.001000000
1696856868.936160,480787.000000000,1696856868.934987783,0.013000000,0.043000000,-0.026000000,0.000000000,0.001000000,0.001000000
1696856868.938181,480788.000000000,1696856868.936993122,0.013000000,0.044000000,-0.028000000,0.000000000,0.001000000,0.001000000
1696856868.940687,480789.000000000,1696856868.938985586,0.013000000,0.044000000,-0.030000000,0.000000000,0.001000000,0.001000000
1696856868.942139,480790.000000000,1696856868.941014767,0.013000000,0.045000000,-0.031000000,0.000000000,0.001000000,0.001000000
1696856868.944162,480791.000000000,1696856868.943020582,0.013000000,0.046000000,-0.034000000,0.000000000,0.001000000,0.001000000
1696856868.946130,480792.000000000,1696856868.945001364,0.013000000,0.048000000,-0.035000000,0.000000000,0.001000000,0.001000000
1696856868.948129,480793.000000000,1696856868.947004557,0.013000000,0.051000000,-0.037000000,0.000000000,0.001000000,0.001000000
1696856868.950134,480794.000000000,1696856868.949002743,0.012000000,0.055000000,-0.039000000,0.000000000,0.001000000,0.002000000
1696856868.952194,480795.000000000,1696856868.951008081,0.011000000,0.059000000,-0.039000000,0.000000000,0.001000000,0.002000000
1696856868.954144,480796.000000000,1696856868.952999592,0.011000000,0.063000000,-0.039000000,0.000000000,0.001000000,0.002000000
1696856868.956180,480797.000000000,1696856868.955046654,0.011000000,0.065000000,-0.042000000,0.000000000,0.001000000,0.002000000
1696856868.958894,480798.000000000,1696856868.957008123,0.010000000,0.066000000,-0.043000000,0.000000000,0.001000000,0.002000000
1696856868.962353,480800.000000000,1696856868.961005926,0.009000000,0.065000000,-0.045000000,0.000000000,0.001000000,0.002000000
1696856868.970467,480804.000000000,1696856868.969029903,0.008000000,0.065000000,-0.049000000,0.000000000,0.001000000,0.003000000
1696856868.973804,480805.000000000,1696856868.970988989,0.007000000,0.066000000,-0.049000000,0.000000000,0.001000000,0.003000000
1696856868.974344,480806.000000000,1696856868.973024607,0.007000000,0.068000000,-0.048000000,0.000000000,0.001000000,0.003000000
1696856868.976104,480807.000000000,1696856868.974980831,0.006000000,0.070000000,-0.047000000,0.000000000,0.001000000,0.003000000
1696856868.978185,480808.000000000,1696856868.977043390,0.005000000,0.070000000,-0.047000000,0.000000000,0.001000000,0.003000000
1696856868.980961,480809.000000000,1696856868.978996277,0.005000000,0.069000000,-0.046000000,0.000000000,0.001000000,0.003000000
1696856868.982471,480810.000000000,1696856868.981017113,0.004000000,0.068000000,-0.045000000,0.000000000,0.001000000,0.003000000
1696856868.992522,480815.000000000,1696856868.991000175,0.007000000,0.054000000,-0.039000000,0.000000000,0.001000000,0.003000000
1696856869.007796,480822.000000000,1696856869.005007267,0.011000000,0.046000000,-0.020000000,0.000000000,0.000000000,0.003000000
1696856869.026705,480832.000000000,1696856869.025002718,0.020000000,0.029000000,-0.004000000,0.000000000,0.000000000,0.002000000
1696856869.030244,480834.000000000,1696856869.029025078,0.024000000,0.024000000,-0.003000000,0.001000000,0.000000000,0.002000000
1696856869.040882,480839.000000000,1696856869.039025307,0.028000000,0.019000000,-0.006000000,0.001000000,0.000000000,0.002000000
1696856869.042946,480840.000000000,1696856869.041035175,0.029000000,0.020000000,-0.006000000,0.001000000,0.000000000,0.002000000
1696856869.044312,480841.000000000,1696856869.043164015,0.029000000,0.022000000,-0.007000000,0.000000000,0.000000000,0.002000000
1696856869.046137,480842.000000000,1696856869.045012236,0.029000000,0.024000000,-0.006000000,0.000000000,0.000000000,0.002000000
1696856869.048522,480843.000000000,1696856869.047030449,0.030000000,0.025000000,-0.007000000,0.000000000,0.000000000,0.001000000
1696856869.050619,480844.000000000,1696856869.049039841,0.030000000,0.024000000,-0.009000000,0.000000000,0.000000000,0.002000000
1696856869.063331,480850.000000000,1696856869.061003208,0.033000000,0.022000000,-0.019000000,0.000000000,0.000000000,0.002000000
1696856869.073848,480855.000000000,1696856869.071014643,0.030000000,0.031000000,-0.023000000,0.000000000,0.000000000,0.002000000
1696856869.074497,480856.000000000,1696856869.073038816,0.031000000,0.031000000,-0.024000000,0.000000000,0.000000000,0.002000000
1696856869.076125,480857.000000000,1696856869.074994802,0.030000000,0.029000000,-0.025000000,0.000000000,0.000000000,0.002000000
1696856869.078136,480858.000000000,1696856869.077013016,0.030000000,0.028000000,-0.026000000,0.000000000,0.000000000,0.002000000
1696856869.081318,480859.000000000,1696856869.079017162,0.030000000,0.027000000,-0.026000000,0.000000000,0.000000000,0.002000000
1696856869.082324,480860.000000000,1696856869.081015587,0.030000000,0.027000000,-0.027000000,0.000000000,0.000000000,0.002000000
1696856869.084159,480861.000000000,1696856869.083006382,0.029000000,0.028000000,-0.027000000,0.000000000,0.000000000,0.002000000
1696856869.086191,480862.000000000,1696856869.085025072,0.028000000,0.030000000,-0.025000000,0.000000000,0.000000000,0.001000000
1696856869.088181,480863.000000000,1696856869.087048054,0.028000000,0.032000000,-0.024000000,0.000000000,0.000000000,0.002000000
1696856869.090723,480864.000000000,1696856869.089017868,0.027000000,0.034000000,-0.024000000,0.000000000,0.000000000,0.002000000
1696856869.092529,480865.000000000,1696856869.091026783,0.026000000,0.035000000,-0.021000000,0.000000000,0.000000000,0.001000000
1696856869.099611,480868.000000000,1696856869.097025871,0.024000000,0.033000000,-0.019000000,0.000000000,0.000000000,0.001000000
1696856869.101329,480869.000000000,1696856869.099028587,0.023000000,0.031000000,-0.019000000,0.000000000,0.000000000,0.001000000
1696856869.102208,480870.000000000,1696856869.101015329,0.022000000,0.028000000,-0.017000000,0.000000000,0.000000000,0.001000000
1696856869.104297,480871.000000000,1696856869.103007317,0.022000000,0.027000000,-0.016000000,0.000000000,0.000000000,0.001000000
1696856869.106212,480872.000000000,1696856869.105021477,0.021000000,0.027000000,-0.014000000,0.000000000,0.000000000,0.001000000
1696856869.108217,480873.000000000,1696856869.107036829,0.020000000,0.028000000,-0.012000000,0.000000000,0.000000000,0.001000000
1696856869.110212,480874.000000000,1696856869.109037161,0.019000000,0.029000000,-0.009000000,0.000000000,0.000000000,0.001000000
1696856869.112197,480875.000000000,1696856869.111014366,0.017000000,0.031000000,-0.006000000,0.000000000,0.000000000,0.001000000
1696856869.114219,480876.000000000,1696856869.113020658,0.016000000,0.032000000,-0.003000000,0.000000000,0.000000000,0.001000000
1696856869.116229,480877.000000000,1696856869.115005732,0.015000000,0.032000000,-0.001000000,0.000000000,0.000000000,0.001000000
1696856869.118288,480878.000000000,1696856869.117080212,0.013000000,0.031000000,0.001000000,0.000000000,0.000000000,0.001000000
1696856869.120793,480879.000000000,1696856869.119018555,0.013000000,0.029000000,0.002000000,0.000000000,0.000000000,0.001000000
1696856869.122622,480880.000000000,1696856869.121013403,0.012000000,0.026000000,0.005000000,0.000000000,0.000000000,0.000000000
1696856869.124309,480881.000000000,1696856869.123014450,0.011000000,0.024000000,0.007000000,0.000000000,0.000000000,0.000000000
1696856869.126186,480882.000000000,1696856869.125006437,0.011000000,0.022000000,0.009000000,0.000000000,0.000000000,0.000000000
1696856869.128198,480883.000000000,1696856869.127023697,0.009000000,0.021000000,0.011000000,0.000000000,0.000000000,0.001000000
1696856869.130325,480884.000000000,1696856869.129022121,0.008000000,0.022000000,0.013000000,0.000000000,0.000000000,0.000000000
1696856869.132261,480885.000000000,1696856869.131020784,0.006000000,0.023000000,0.018000000,0.000000000,0.000000000,0.000000000
1696856869.134549,480886.000000000,1696856869.133013487,0.005000000,0.025000000,0.021000000,0.000000000,0.000000000,0.000000000
1696856869.136177,480887.000000000,1696856869.134994984,0.003000000,0.027000000,0.024000000,0.000000000,0.000000000,0.000000000
1696856869.143644,480890.000000000,1696856869.141039371,0.000000000,0.026000000,0.030000000,0.000000000,0.000000000,0.000000000
1696856869.144117,480891.000000000,1696856869.142990351,0.000000000,0.025000000,0.033000000,0.000000000,0.000000000,0.000000000
1696856869.146187,480892.000000000,1696856869.145029068,-0.001000000,0.023000000,0.034000000,0.000000000,0.000000000,0.000000000
1696856869.148175,480893.000000000,1696856869.147020340,-0.002000000,0.021000000,0.035000000,0.000000000,0.000000000,0.000000000
1696856869.150284,480894.000000000,1696856869.149038792,-0.002000000,0.020000000,0.036000000,0.000000000,0.000000000,0.000000000
1696856869.152153,480895.000000000,1696856869.150998592,-0.003000000,0.022000000,0.040000000,0.000000000,0.000000000,0.000000000
1696856869.154193,480896.000000000,1696856869.153047323,-0.004000000,0.024000000,0.043000000,0.000000000,0.000000000,0.000000000
1696856869.156204,480897.000000000,1696856869.154999733,-0.005000000,0.026000000,0.044000000,0.000000000,0.000000000,0.000000000
1696856869.158395,480898.000000000,1696856869.157013416,-0.006000000,0.029000000,0.046000000,0.000000000,0.000000000,0.000000000
1696856869.160884,480899.000000000,1696856869.159040928,-0.008000000,0.031000000,0.047000000,0.000000000,0.000000000,0.000000000
1696856869.162154,480900.000000000,1696856869.161015511,-0.009000000,0.032000000,0.049000000,0.000000000,0.000000000,0.000000000
1696856869.164163,480901.000000000,1696856869.162997961,-0.009000000,0.032000000,0.049000000,0.000000000,0.000000000,0.000000000
1696856869.166143,480902.000000000,1696856869.165007591,-0.010000000,0.031000000,0.050000000,0.000000000,0.000000000,0.000000000
1696856869.168171,480903.000000000,1696856869.166998386,-0.010000000,0.030000000,0.051000000,0.000000000,0.000000000,0.000000000
1696856869.170201,480904.000000000,1696856869.169038057,-0.011000000,0.029000000,0.050000000,0.000000000,0.000000000,0.000000000
1696856869.172178,480905.000000000,1696856869.171012402,-0.011000000,0.029000000,0.051000000,0.000000000,0.000000000,0.000000000
1696856869.174369,480906.000000000,1696856869.173020840,-0.012000000,0.029000000,0.051000000,0.000000000,0.000000000,0.000000000
1696856869.176173,480907.000000000,1696856869.175035954,-0.012000000,0.031000000,0.051000000,0.000000000,0.000000000,0.000000000
1696856869.184513,480911.000000000,1696856869.183043480,-0.014000000,0.042000000,0.051000000,0.000000000,0.000000000,0.001000000
1696856869.187464,480912.000000000,1696856869.185314655,-0.015000000,0.042000000,0.050000000,0.000000000,0.000000000,0.001000000
1696856869.188480,480913.000000000,1696856869.187330008,-0.015000000,0.041000000,0.047000000,0.000000000,0.000000000,0.001000000
1696856869.190243,480914.000000000,1696856869.189013958,-0.015000000,0.040000000,0.045000000,0.000000000,0.000000000,0.001000000
1696856869.192187,480915.000000000,1696856869.191057682,-0.015000000,0.039000000,0.044000000,0.000000000,0.000000000,0.001000000
1696856869.194478,480916.000000000,1696856869.193027735,-0.015000000,0.038000000,0.041000000,0.000000000,0.000000000,0.001000000
1696856869.196136,480917.000000000,1696856869.195004940,-0.015000000,0.038000000,0.038000000,0.000000000,0.000000000,0.001000000
1696856869.198593,480918.000000000,1696856869.197053671,-0.015000000,0.039000000,0.035000000,0.000000000,0.000000000,0.001000000
1696856869.200391,480919.000000000,1696856869.199066162,-0.015000000,0.041000000,0.032000000,0.000000000,0.000000000,0.001000000
1696856869.202276,480920.000000000,1696856869.201020718,-0.015000000,0.044000000,0.030000000,0.000000000,0.000000000,0.001000000
1696856869.204190,480921.000000000,1696856869.203000784,-0.016000000,0.047000000,0.028000000,0.000000000,0.000000000,0.001000000
1696856869.206166,480922.000000000,1696856869.205020905,-0.017000000,0.049000000,0.024000000,0.000000000,0.000000000,0.001000000
1696856869.208399,480923.000000000,1696856869.207003355,-0.017000000,0.049000000,0.020000000,0.000000000,0.000000000,0.001000000
1696856869.210175,480924.000000000,1696856869.209002972,-0.017000000,0.049000000,0.015000000,0.000000000,0.000000000,0.001000000
1696856869.212211,480925.000000000,1696856869.211017132,-0.017000000,0.048000000,0.010000000,0.000000000,0.000000000,0.001000000
1696856869.214252,480926.000000000,1696856869.213047028,-0.017000000,0.047000000,0.005000000,0.000000000,0.000000000,0.002000000
1696856869.216438,480927.000000000,1696856869.214998007,-0.017000000,0.045000000,0.000000000,0.000000000,0.000000000,0.002000000
1696856869.224133,480930.000000000,1696856869.221693754,-0.018000000,0.047000000,-0.014000000,0.000000000,0.000000000,0.002000000
1696856869.224341,480931.000000000,1696856869.223010540,-0.018000000,0.050000000,-0.018000000,0.000000000,0.000000000,0.002000000
1696856869.226201,480932.000000000,1696856869.225045681,-0.019000000,0.053000000,-0.023000000,0.000000000,0.000000000,0.002000000
1696856869.228149,480933.000000000,1696856869.227024794,-0.019000000,0.055000000,-0.028000000,0.000000000,0.000000000,0.002000000
1696856869.230593,480934.000000000,1696856869.229049921,-0.019000000,0.056000000,-0.033000000,0.000000000,0.000000000,0.002000000
1696856869.232183,480935.000000000,1696856869.231051445,-0.020000000,0.056000000,-0.039000000,0.000000000,0.000000000,0.002000000
1696856869.240445,480938.000000000,1696856869.237057447,-0.019000000,0.053000000,-0.054000000,0.000000000,0.000000000,0.002000000
1696856869.240701,480939.000000000,1696856869.239046812,-0.019000000,0.052000000,-0.059000000,0.000000000,0.000000000,0.002000000
1696856869.243636,480940.000000000,1696856869.241262913,-0.019000000,0.053000000,-0.064000000,0.000000000,0.000000000,0.002000000
1696856869.244331,480941.000000000,1696856869.243020058,-0.019000000,0.054000000,-0.067000000,0.000000000,0.000000000,0.003000000
1696856869.246216,480942.000000000,1696856869.245047569,-0.019000000,0.056000000,-0.071000000,0.000000000,0.000000000,0.003000000
1696856869.248171,480943.000000000,1696856869.247033596,-0.020000000,0.059000000,-0.072000000,0.000000000,0.000000000,0.003000000
1696856869.250175,480944.000000000,1696856869.249040842,-0.020000000,0.062000000,-0.075000000,0.000000000,0.000000000,0.003000000
1696856869.252136,480945.000000000,1696856869.251007557,-0.020000000,0.064000000,-0.078000000,0.000000000,0.000000000,0.003000000
1696856869.254139,480946.000000000,1696856869.253016472,-0.020000000,0.064000000,-0.080000000,0.000000000,0.000000000,0.003000000
1696856869.256119,480947.000000000,1696856869.254989624,-0.020000000,0.063000000,-0.083000000,0.000000000,0.000000000,0.003000000
1696856869.258239,480948.000000000,1696856869.257073402,-0.019000000,0.062000000,-0.084000000,0.000000000,0.000000000,0.003000000
1696856869.265454,480951.000000000,1696856869.263062000,-0.017000000,0.058000000,-0.088000000,0.000000000,0.000000000,0.003000000
1696856869.266215,480952.000000000,1696856869.265049934,-0.017000000,0.059000000,-0.087000000,0.000000000,0.000000000,0.003000000
1696856869.268171,480953.000000000,1696856869.267040730,-0.016000000,0.061000000,-0.086000000,0.000000000,0.000000000,0.003000000
1696856869.270424,480954.000000000,1696856869.269166946,-0.016000000,0.063000000,-0.084000000,0.000000000,0.000000000,0.003000000
1696856869.272206,480955.000000000,1696856869.271039963,-0.016000000,0.065000000,-0.082000000,0.000000000,0.000000000,0.003000000
1696856869.274498,480956.000000000,1696856869.273046732,-0.015000000,0.066000000,-0.081000000,0.000000000,0.000000000,0.003000000
1696856869.276320,480957.000000000,1696856869.275059462,-0.015000000,0.066000000,-0.078000000,0.000000000,0.000000000,0.003000000
1696856869.278231,480958.000000000,1696856869.277041674,-0.015000000,0.066000000,-0.075000000,0.000000000,0.000000000,0.002000000
1696856869.280641,480959.000000000,1696856869.279086113,-0.014000000,0.064000000,-0.073000000,0.000000000,0.000000000,0.002000000
1696856869.282204,480960.000000000,1696856869.281055927,-0.013000000,0.061000000,-0.071000000,0.000000000,0.000000000,0.002000000
1696856869.284150,480961.000000000,1696856869.283019304,-0.012000000,0.059000000,-0.069000000,0.000000000,0.000000000,0.003000000
1696856869.286200,480962.000000000,1696856869.285065174,-0.011000000,0.057000000,-0.066000000,0.000000000,0.000000000,0.002000000
1696856869.288159,480963.000000000,1696856869.287029028,-0.010000000,0.056000000,-0.062000000,0.000000000,0.000000000,0.002000000
1696856869.290819,480964.000000000,1696856869.289061785,-0.009000000,0.056000000,-0.059000000,0.000000000,0.000000000,0.002000000
1696856869.292172,480965.000000000,1696856869.291041851,-0.009000000,0.058000000,-0.054000000,0.000000000,0.000000000,0.002000000
1696856869.294205,480966.000000000,1696856869.293056965,-0.010000000,0.059000000,-0.048000000,0.000000000,0.000000000,0.002000000
1696856869.296172,480967.000000000,1696856869.295045376,-0.009000000,0.060000000,-0.045000000,0.000000000,0.000000000,0.002000000
1696856869.298197,480968.000000000,1696856869.297049284,-0.009000000,0.060000000,-0.041000000,0.000000000,0.000000000,0.002000000
1696856869.300552,480969.000000000,1696856869.299063444,-0.009000000,0.058000000,-0.037000000,0.000000000,0.000000000,0.002000000
1696856869.302229,480970.000000000,1696856869.301036119,-0.008000000,0.056000000,-0.034000000,0.000000000,0.000000000,0.002000000
1696856869.309912,480973.000000000,1696856869.307070494,-0.007000000,0.047000000,-0.024000000,0.000000000,0.000000000,0.002000000
1696856869.324185,480980.000000000,1696856869.321058035,-0.007000000,0.045000000,-0.002000000,0.000000000,0.000000000,0.003000000
1696856869.324456,480981.000000000,1696856869.323012352,-0.007000000,0.043000000,-0.001000000,0.000000000,0.000000000,0.003000000
1696856869.326262,480982.000000000,1696856869.325122118,-0.007000000,0.041000000,0.000000000,0.000000000,0.000000000,0.003000000
1696856869.328114,480983.000000000,1696856869.326996565,-0.007000000,0.038000000,0.003000000,0.000000000,0.000000000,0.002000000
1696856869.330210,480984.000000000,1696856869.329067707,-0.005000000,0.035000000,0.003000000,0.000000000,0.000000000,0.002000000
1696856869.332119,480985.000000000,1696856869.330996275,-0.004000000,0.033000000,0.003000000,0.000000000,0.000000000,0.002000000
1696856869.334172,480986.000000000,1696856869.333035946,-0.005000000,0.032000000,0.004000000,0.000000000,0.000000000,0.003000000
1696856869.336123,480987.000000000,1696856869.335001707,-0.005000000,0.033000000,0.006000000,0.000000000,0.000000000,0.003000000
1696856869.340797,480988.000000000,1696856869.337017775,-0.005000000,0.034000000,0.008000000,0.000000000,0.000000000,0.003000000
1696856869.341818,480989.000000000,1696856869.338996172,-0.004000000,0.035000000,0.011000000,0.000000000,0.000000000,0.003000000
1696856869.342388,480990.000000000,1696856869.341021538,-0.004000000,0.036000000,0.011000000,0.000000000,0.000000000,0.002000000
1696856869.344160,480991.000000000,1696856869.343011618,-0.004000000,0.036000000,0.011000000,0.000000000,0.000000000,0.002000000
1696856869.348000,480992.000000000,1696856869.345022202,-0.003000000,0.035000000,0.010000000,0.000000000,0.000000000,0.002000000
1696856869.357444,480997.000000000,1696856869.355014801,0.003000000,0.028000000,0.010000000,0.001000000,0.000000000,0.002000000
1696856869.358161,480998.000000000,1696856869.357035637,0.004000000,0.028000000,0.009000000,0.001000000,0.000000000,0.001000000
1696856869.360631,480999.000000000,1696856869.359037161,0.006000000,0.030000000,0.010000000,0.000000000,0.000000000,0.001000000
1696856869.362149,481000.000000000,1696856869.361016035,0.007000000,0.032000000,0.011000000,0.000000000,0.000000000,0.001000000
1696856869.364135,481001.000000000,1696856869.363004208,0.008000000,0.034000000,0.012000000,0.000000000,0.000000000,0.001000000
1696856869.366160,481002.000000000,1696856869.365013838,0.009000000,0.036000000,0.012000000,0.000000000,0.000000000,0.001000000
1696856869.368140,481003.000000000,1696856869.367025375,0.010000000,0.037000000,0.011000000,0.000000000,0.000000000,0.001000000
1696856869.370572,481004.000000000,1696856869.369039774,0.012000000,0.036000000,0.011000000,0.000000000,0.000000000,0.001000000
1696856869.372178,481005.000000000,1696856869.371014595,0.014000000,0.035000000,0.009000000,0.000000000,0.000000000,0.000000000
1696856869.374470,481006.000000000,1696856869.373057127,0.016000000,0.033000000,0.009000000,0.000000000,0.000000000,0.000000000
1696856869.376162,481007.000000000,1696856869.375008583,0.018000000,0.032000000,0.008000000,0.000000000,0.000000000,0.000000000
1696856869.378235,481008.000000000,1696856869.377025127,0.020000000,0.033000000,0.009000000,0.000000000,0.000000000,0.000000000
1696856869.381645,481009.000000000,1696856869.379009485,0.022000000,0.033000000,0.010000000,0.000000000,0.000000000,0.000000000
1696856869.382157,481010.000000000,1696856869.381021261,0.023000000,0.035000000,0.009000000,0.000000000,0.000000000,0.000000000
1696856869.384147,481011.000000000,1696856869.383020639,0.024000000,0.038000000,0.010000000,0.000000000,0.001000000,0.000000000
1696856869.386669,481012.000000000,1696856869.385035038,0.025000000,0.041000000,0.011000000,0.000000000,0.001000000,0.000000000
1696856869.388151,481013.000000000,1696856869.387031555,0.026000000,0.044000000,0.012000000,0.000000000,0.001000000,0.000000000
1696856869.396091,481016.000000000,1696856869.393044949,0.029000000,0.044000000,0.013000000,0.000000000,0.001000000,0.000000000
1696856869.396640,481017.000000000,1696856869.395031214,0.030000000,0.043000000,0.013000000,0.000000000,0.001000000,0.000000000
1696856869.409471,481023.000000000,1696856869.407004595,0.031000000,0.048000000,0.020000000,0.000000000,0.001000000,0.000000000
1696856869.411168,481024.000000000,1696856869.409016848,0.030000000,0.050000000,0.022000000,0.000000000,0.001000000,0.000000000
1696856869.412126,481025.000000000,1696856869.411001205,0.030000000,0.051000000,0.024000000,0.000000000,0.001000000,0.000000000
1696856869.414248,481026.000000000,1696856869.413101196,0.029000000,0.051000000,0.025000000,0.000000000,0.001000000,0.000000000
1696856869.416118,481027.000000000,1696856869.415010214,0.028000000,0.050000000,0.026000000,0.000000000,0.001000000,0.000000000
1696856869.418237,481028.000000000,1696856869.417049885,0.027000000,0.048000000,0.027000000,0.000000000,0.001000000,0.000000000
1696856869.420853,481029.000000000,1696856869.419014931,0.026000000,0.046000000,0.030000000,0.000000000,0.001000000,0.000000000
1696856869.422161,481030.000000000,1696856869.421029091,0.026000000,0.044000000,0.031000000,0.000000000,0.001000000,0.000000000
1696856869.424168,481031.000000000,1696856869.423017263,0.025000000,0.043000000,0.032000000,0.000000000,0.001000000,0.000000000
1696856869.426209,481032.000000000,1696856869.425075531,0.024000000,0.043000000,0.033000000,0.000000000,0.001000000,0.000000000
1696856869.428126,481033.000000000,1696856869.427006483,0.023000000,0.044000000,0.036000000,0.000000000,0.001000000,0.000000000
1696856869.430203,481034.000000000,1696856869.429018021,0.021000000,0.046000000,0.038000000,0.000000000,0.001000000,0.000000000
1696856869.438978,481037.000000000,1696856869.434997320,0.017000000,0.048000000,0.043000000,0.000000000,0.001000000,0.000000000
1696856869.439204,481038.000000000,1696856869.437019825,0.016000000,0.046000000,0.044000000,0.000000000,0.001000000,0.001000000
1696856869.441106,481039.000000000,1696856869.439049721,0.015000000,0.044000000,0.045000000,0.000000000,0.001000000,0.000000000
1696856869.442967,481040.000000000,1696856869.441030025,0.014000000,0.041000000,0.047000000,0.000000000,0.001000000,0.000000000
1696856869.444158,481041.000000000,1696856869.443016291,0.013000000,0.038000000,0.048000000,0.000000000,0.001000000,0.001000000
1696856869.446219,481042.000000000,1696856869.445027590,0.012000000,0.036000000,0.048000000,0.000000000,0.001000000,0.001000000
1696856869.448136,481043.000000000,1696856869.447009325,0.011000000,0.035000000,0.048000000,0.000000000,0.001000000,0.001000000
1696856869.450160,481044.000000000,1696856869.449024677,0.010000000,0.035000000,0.049000000,0.000000000,0.001000000,0.001000000
1696856869.452141,481045.000000000,1696856869.450998783,0.010000000,0.037000000,0.051000000,0.000000000,0.001000000,0.000000000
1696856869.454163,481046.000000000,1696856869.453021765,0.009000000,0.038000000,0.053000000,0.000000000,0.001000000,0.000000000
1696856869.456130,481047.000000000,1696856869.455003738,0.009000000,0.039000000,0.053000000,0.000000000,0.000000000,0.000000000
1696856869.458314,481048.000000000,1696856869.457035542,0.007000000,0.038000000,0.054000000,0.000000000,0.000000000,0.001000000
1696856869.460847,481049.000000000,1696856869.458993673,0.006000000,0.037000000,0.053000000,0.000000000,0.000000000,0.001000000
1696856869.462234,481050.000000000,1696856869.461052418,0.007000000,0.036000000,0.054000000,0.000000000,0.000000000,0.001000000
1696856869.464167,481051.000000000,1696856869.462997675,0.007000000,0.033000000,0.054000000,0.000000000,0.000000000,0.001000000
1696856869.466220,481052.000000000,1696856869.465080500,0.007000000,0.031000000,0.053000000,0.000000000,0.000000000,0.000000000
1696856869.468120,481053.000000000,1696856869.466998577,0.007000000,0.028000000,0.052000000,0.000000000,0.000000000,0.000000000
1696856869.470217,481054.000000000,1696856869.469035864,0.007000000,0.027000000,0.051000000,0.001000000,0.000000000,0.001000000
1696856869.472199,481055.000000000,1696856869.471029282,0.007000000,0.027000000,0.051000000,0.000000000,0.000000000,0.001000000
1696856869.483488,481060.000000000,1696856869.481026888,0.006000000,0.034000000,0.051000000,0.000000000,0.000000000,0.001000000
1696856869.484174,481061.000000000,1696856869.483041525,0.006000000,0.032000000,0.049000000,0.000000000,0.000000000,0.000000000
1696856869.486185,481062.000000000,1696856869.485027552,0.007000000,0.031000000,0.049000000,0.000000000,0.000000000,0.001000000
1696856869.488125,481063.000000000,1696856869.487004042,0.007000000,0.029000000,0.048000000,0.000000000,0.000000000,0.001000000
1696856869.490388,481064.000000000,1696856869.489025116,0.007000000,0.027000000,0.046000000,0.001000000,0.000000000,0.001000000
1696856869.492143,481065.000000000,1696856869.491012812,0.007000000,0.027000000,0.045000000,0.001000000,0.000000000,0.001000000
1696856869.506615,481072.000000000,1696856869.505042791,0.007000000,0.037000000,0.038000000,0.000000000,0.000000000,0.001000000
1696856869.508260,481073.000000000,1696856869.506996155,0.007000000,0.036000000,0.036000000,0.000000000,0.000000000,0.001000000
1696856869.510228,481074.000000000,1696856869.509029150,0.008000000,0.035000000,0.034000000,0.000000000,0.000000000,0.001000000
1696856869.512189,481075.000000000,1696856869.511008739,0.008000000,0.034000000,0.034000000,0.000000000,0.000000000,0.001000000
1696856869.514364,481076.000000000,1696856869.513110161,0.009000000,0.033000000,0.032000000,0.000000000,0.000000000,0.001000000
1696856869.516209,481077.000000000,1696856869.515028954,0.009000000,0.033000000,0.031000000,0.000000000,0.000000000,0.001000000
1696856869.518218,481078.000000000,1696856869.517030478,0.010000000,0.034000000,0.029000000,0.000000000,0.000000000,0.001000000
1696856869.520886,481079.000000000,1696856869.519142151,0.009000000,0.036000000,0.029000000,0.000000000,0.000000000,0.001000000
1696856869.522222,481080.000000000,1696856869.521001577,0.009000000,0.039000000,0.028000000,0.000000000,0.000000000,0.001000000
1696856869.524331,481081.000000000,1696856869.523013115,0.009000000,0.042000000,0.028000000,0.000000000,0.000000000,0.001000000
1696856869.526273,481082.000000000,1696856869.525072575,0.009000000,0.043000000,0.026000000,0.000000000,0.000000000,0.001000000
1696856869.528183,481083.000000000,1696856869.527022123,0.010000000,0.043000000,0.024000000,0.000000000,0.000000000,0.001000000
1696856869.530246,481084.000000000,1696856869.529025555,0.011000000,0.043000000,0.022000000,0.000000000,0.000000000,0.001000000
1696856869.532326,481085.000000000,1696856869.531018734,0.011000000,0.041000000,0.019000000,0.000000000,0.000000000,0.001000000
1696856869.534687,481086.000000000,1696856869.533081532,0.012000000,0.039000000,0.018000000,0.000000000,0.001000000,0.001000000
1696856869.536206,481087.000000000,1696856869.535016775,0.013000000,0.038000000,0.016000000,0.000000000,0.001000000,0.001000000
1696856869.538216,481088.000000000,1696856869.537023783,0.013000000,0.037000000,0.014000000,0.000000000,0.001000000,0.001000000
1696856869.540612,481089.000000000,1696856869.539014101,0.014000000,0.037000000,0.011000000,0.000000000,0.001000000,0.001000000
1696856869.542490,481090.000000000,1696856869.541019917,0.014000000,0.039000000,0.009000000,0.000000000,0.001000000,0.001000000
1696856869.544222,481091.000000000,1696856869.543006420,0.015000000,0.041000000,0.008000000,0.000000000,0.001000000,0.001000000
1696856869.546478,481092.000000000,1696856869.545085430,0.015000000,0.044000000,0.008000000,0.000000000,0.001000000,0.001000000
1696856869.548181,481093.000000000,1696856869.547011375,0.016000000,0.046000000,0.005000000,0.000000000,0.001000000,0.001000000
1696856869.550278,481094.000000000,1696856869.549102068,0.016000000,0.046000000,0.002000000,0.000000000,0.001000000,0.001000000
1696856869.552201,481095.000000000,1696856869.551005840,0.016000000,0.045000000,-0.001000000,0.000000000,0.001000000,0.002000000
1696856869.554356,481096.000000000,1696856869.553032637,0.017000000,0.043000000,-0.005000000,0.000000000,0.001000000,0.002000000
1696856869.556276,481097.000000000,1696856869.555008650,0.018000000,0.042000000,-0.008000000,0.000000000,0.001000000,0.001000000
1696856869.558565,481098.000000000,1696856869.557374954,0.018000000,0.040000000,-0.010000000,0.000000000,0.001000000,0.001000000
1696856869.561034,481099.000000000,1696856869.559441090,0.019000000,0.039000000,-0.012000000,0.000000000,0.001000000,0.001000000
1696856869.562156,481100.000000000,1696856869.561024427,0.020000000,0.039000000,-0.017000000,0.000000000,0.001000000,0.002000000
1696856869.564133,481101.000000000,1696856869.563009501,0.020000000,0.040000000,-0.019000000,0.000000000,0.001000000,0.002000000
1696856869.566207,481102.000000000,1696856869.565051079,0.019000000,0.042000000,-0.021000000,0.000000000,0.001000000,0.002000000
1696856869.568181,481103.000000000,1696856869.567035437,0.020000000,0.045000000,-0.023000000,0.000000000,0.001000000,0.002000000
1696856869.570186,481104.000000000,1696856869.569042921,0.019000000,0.047000000,-0.026000000,0.000000000,0.001000000,0.002000000
1696856869.572253,481105.000000000,1696856869.571063280,0.019000000,0.048000000,-0.029000000,0.000000000,0.001000000,0.002000000
1696856869.574237,481106.000000000,1696856869.573021412,0.019000000,0.048000000,-0.034000000,0.000000000,0.001000000,0.002000000
1696856869.576170,481107.000000000,1696856869.575022221,0.019000000,0.048000000,-0.036000000,0.000000000,0.001000000,0.002000000
1696856869.578705,481108.000000000,1696856869.577037334,0.019000000,0.046000000,-0.039000000,0.000000000,0.001000000,0.002000000
1696856869.580531,481109.000000000,1696856869.579032421,0.018000000,0.045000000,-0.042000000,0.000000000,0.001000000,0.002000000
1696856869.582197,481110.000000000,1696856869.581045866,0.018000000,0.044000000,-0.045000000,0.000000000,0.001000000,0.002000000
1696856869.584167,481111.000000000,1696856869.583022594,0.018000000,0.044000000,-0.048000000,0.000000000,0.001000000,0.002000000
1696856869.586179,481112.000000000,1696856869.585035086,0.018000000,0.045000000,-0.050000000,0.000000000,0.001000000,0.002000000
1696856869.588133,481113.000000000,1696856869.587011814,0.017000000,0.047000000,-0.052000000,0.000000000,0.001000000,0.002000000
1696856869.590163,481114.000000000,1696856869.589011908,0.016000000,0.050000000,-0.052000000,0.000000000,0.001000000,0.002000000
1696856869.592129,481115.000000000,1696856869.591009855,0.015000000,0.053000000,-0.052000000,0.000000000,0.001000000,0.002000000
1696856869.594581,481116.000000000,1696856869.593057632,0.014000000,0.055000000,-0.054000000,0.000000000,0.001000000,0.002000000
1696856869.596239,481117.000000000,1696856869.595016003,0.013000000,0.055000000,-0.056000000,0.000000000,0.001000000,0.002000000
1696856869.598182,481118.000000000,1696856869.597040415,0.013000000,0.055000000,-0.056000000,0.000000000,0.001000000,0.002000000
1696856869.600459,481119.000000000,1696856869.599042654,0.012000000,0.053000000,-0.057000000,0.000000000,0.001000000,0.002000000
1696856869.602152,481120.000000000,1696856869.601020336,0.011000000,0.052000000,-0.058000000,0.000000000,0.001000000,0.002000000
1696856869.604165,481121.000000000,1696856869.603014469,0.011000000,0.051000000,-0.059000000,0.000000000,0.001000000,0.002000000
1696856869.606139,481122.000000000,1696856869.605014801,0.011000000,0.051000000,-0.058000000,0.001000000,0.001000000,0.002000000
1696856869.608173,481123.000000000,1696856869.607048512,0.010000000,0.051000000,-0.058000000,0.001000000,0.001000000,0.002000000
1696856869.610183,481124.000000000,1696856869.609032631,0.009000000,0.052000000,-0.058000000,0.001000000,0.001000000,0.002000000
1696856869.612140,481125.000000000,1696856869.611014128,0.008000000,0.054000000,-0.056000000,0.000000000,0.001000000,0.002000000
1696856869.614200,481126.000000000,1696856869.613051414,0.007000000,0.057000000,-0.053000000,0.000000000,0.001000000,0.002000000
1696856869.616236,481127.000000000,1696856869.615089655,0.006000000,0.059000000,-0.051000000,0.000000000,0.001000000,0.002000000
1696856869.618230,481128.000000000,1696856869.617075920,0.005000000,0.061000000,-0.049000000,0.000000000,0.001000000,0.002000000
1696856869.620636,481129.000000000,1696856869.619114637,0.005000000,0.060000000,-0.049000000,0.000000000,0.001000000,0.002000000
1696856869.622223,481130.000000000,1696856869.621036530,0.004000000,0.058000000,-0.048000000,0.000000000,0.001000000,0.002000000
1696856869.624177,481131.000000000,1696856869.623043776,0.004000000,0.057000000,-0.046000000,0.000000000,0.001000000,0.002000000
1696856869.626225,481132.000000000,1696856869.625060558,0.004000000,0.055000000,-0.044000000,0.000000000,0.001000000,0.002000000
1696856869.628148,481133.000000000,1696856869.627015114,0.004000000,0.054000000,-0.042000000,0.000000000,0.001000000,0.002000000
1696856869.630253,481134.000000000,1696856869.629080534,0.004000000,0.053000000,-0.040000000,0.000000000,0.001000000,0.002000000
1696856869.632160,481135.000000000,1696856869.631020784,0.003000000,0.053000000,-0.038000000,0.000000000,0.001000000,0.002000000
1696856869.634922,481136.000000000,1696856869.633059025,0.003000000,0.054000000,-0.035000000,0.000000000,0.001000000,0.002000000
1696856869.636230,481137.000000000,1696856869.635026455,0.002000000,0.056000000,-0.031000000,0.000000000,0.000000000,0.002000000
1696856869.638556,481138.000000000,1696856869.637181520,0.002000000,0.058000000,-0.028000000,0.000000000,0.000000000,0.002000000
1696856869.640728,481139.000000000,1696856869.639031410,0.001000000,0.059000000,-0.025000000,0.000000000,0.000000000,0.002000000
1696856869.642554,481140.000000000,1696856869.641029835,0.000000000,0.058000000,-0.025000000,0.000000000,0.000000000,0.002000000
1696856869.644127,481141.000000000,1696856869.643000126,0.000000000,0.056000000,-0.025000000,0.000000000,0.000000000,0.002000000
1696856869.646149,481142.000000000,1696856869.645018578,0.000000000,0.054000000,-0.022000000,0.000000000,0.000000000,0.002000000
1696856869.648190,481143.000000000,1696856869.647051096,0.000000000,0.052000000,-0.019000000,0.000000000,0.000000000,0.002000000
1696856869.650264,481144.000000000,1696856869.649121284,0.000000000,0.049000000,-0.018000000,0.000000000,0.000000000,0.002000000
1696856869.652134,481145.000000000,1696856869.651008368,0.000000000,0.047000000,-0.018000000,0.000000000,0.000000000,0.002000000
1696856869.654180,481146.000000000,1696856869.653027773,0.000000000,0.047000000,-0.017000000,0.000000000,0.000000000,0.002000000
1696856869.656158,481147.000000000,1696856869.655005932,0.000000000,0.047000000,-0.015000000,0.000000000,0.000000000,0.002000000
1696856869.658372,481148.000000000,1696856869.657069921,-0.001000000,0.048000000,-0.013000000,0.000000000,0.000000000,0.002000000
1696856869.660956,481149.000000000,1696856869.659070253,-0.002000000,0.050000000,-0.011000000,0.000000000,0.000000000,0.002000000
1696856869.662176,481150.000000000,1696856869.661031485,-0.002000000,0.050000000,-0.010000000,0.000000000,0.000000000,0.002000000
1696856869.664155,481151.000000000,1696856869.663030624,-0.003000000,0.050000000,-0.010000000,0.000000000,0.000000000,0.002000000
1696856869.666223,481152.000000000,1696856869.665084600,-0.004000000,0.048000000,-0.010000000,0.000000000,0.000000000,0.002000000
1696856869.668196,481153.000000000,1696856869.667039156,-0.004000000,0.046000000,-0.011000000,0.000000000,0.000000000,0.002000000
1696856869.670274,481154.000000000,1696856869.669098377,-0.004000000,0.043000000,-0.010000000,0.000000000,0.000000000,0.002000000
1696856869.672209,481155.000000000,1696856869.671042919,-0.005000000,0.040000000,-0.010000000,0.000000000,0.000000000,0.002000000
1696856869.674576,481156.000000000,1696856869.673066139,-0.004000000,0.038000000,-0.011000000,0.000000000,0.000000000,0.002000000
1696856869.676294,481157.000000000,1696856869.675046682,-0.005000000,0.036000000,-0.012000000,0.000000000,0.000000000,0.002000000
1696856869.678213,481158.000000000,1696856869.677063465,-0.006000000,0.036000000,-0.011000000,0.000000000,0.000000000,0.002000000
1696856869.680476,481159.000000000,1696856869.679064035,-0.006000000,0.037000000,-0.011000000,0.000000000,0.000000000,0.002000000
1696856869.682595,481160.000000000,1696856869.681088924,-0.006000000,0.038000000,-0.010000000,0.000000000,0.000000000,0.002000000
1696856869.684161,481161.000000000,1696856869.683010101,-0.007000000,0.039000000,-0.009000000,0.000000000,0.000000000,0.002000000
1696856869.686199,481162.000000000,1696856869.685072184,-0.008000000,0.039000000,-0.009000000,0.000000000,0.000000000,0.002000000
1696856869.688130,481163.000000000,1696856869.687014818,-0.008000000,0.037000000,-0.013000000,0.000000000,0.000000000,0.002000000
1696856869.690200,481164.000000000,1696856869.689053774,-0.008000000,0.035000000,-0.013000000,0.000000000,0.000000000,0.002000000
1696856869.692134,481165.000000000,1696856869.691010475,-0.008000000,0.032000000,-0.014000000,0.000000000,0.000000000,0.002000000
1696856869.694267,481166.000000000,1696856869.693085194,-0.008000000,0.029000000,-0.014000000,0.000000000,0.000000000,0.002000000
1696856869.696187,481167.000000000,1696856869.695045471,-0.007000000,0.026000000,-0.015000000,0.000000000,0.000000000,0.002000000
1696856869.698201,481168.000000000,1696856869.697080851,-0.007000000,0.024000000,-0.016000000,0.000000000,0.000000000,0.002000000
1696856869.700905,481169.000000000,1696856869.699039698,-0.007000000,0.024000000,-0.016000000,0.000000000,0.000000000,0.002000000
1696856869.702223,481170.000000000,1696856869.701077223,-0.007000000,0.024000000,-0.016000000,0.000000000,0.000000000,0.002000000
1696856869.704199,481171.000000000,1696856869.703064919,-0.007000000,0.026000000,-0.015000000,0.000000000,0.000000000,0.002000000
1696856869.706472,481172.000000000,1696856869.705067873,-0.006000000,0.026000000,-0.015000000,0.000000000,0.000000000,0.002000000
1696856869.708267,481173.000000000,1696856869.707058191,-0.006000000,0.027000000,-0.015000000,0.000000000,0.000000000,0.002000000
1696856869.710176,481174.000000000,1696856869.709048748,-0.006000000,0.027000000,-0.017000000,0.000000000,0.000000000,0.002000000
1696856869.712178,481175.000000000,1696856869.711036682,-0.005000000,0.025000000,-0.017000000,0.000000000,0.000000000,0.001000000
1696856869.714363,481176.000000000,1696856869.713146687,-0.004000000,0.023000000,-0.019000000,0.000000000,0.000000000,0.001000000
1696856869.716176,481177.000000000,1696856869.715048790,-0.004000000,0.020000000,-0.019000000,0.001000000,0.000000000,0.002000000
1696856869.718287,481178.000000000,1696856869.717070103,-0.003000000,0.018000000,-0.019000000,0.001000000,0.000000000,0.001000000
1696856869.720859,481179.000000000,1696856869.719089746,-0.001000000,0.017000000,-0.021000000,0.001000000,0.000000000,0.001000000
1696856869.722216,481180.000000000,1696856869.721038818,0.000000000,0.016000000,-0.022000000,0.001000000,0.000000000,0.001000000
1696856869.724346,481181.000000000,1696856869.723024607,0.000000000,0.017000000,-0.021000000,0.001000000,0.000000000,0.001000000
1696856869.726291,481182.000000000,1696856869.725056887,0.000000000,0.019000000,-0.021000000,0.001000000,0.000000000,0.001000000
1696856869.728160,481183.000000000,1696856869.727020025,0.001000000,0.021000000,-0.021000000,0.000000000,0.000000000,0.001000000
1696856869.730742,481184.000000000,1696856869.729096651,0.001000000,0.023000000,-0.020000000,0.000000000,0.000000000,0.001000000
1696856869.732295,481185.000000000,1696856869.731011868,0.002000000,0.024000000,-0.019000000,0.000000000,0.000000000,0.001000000
1696856869.734243,481186.000000000,1696856869.733025551,0.004000000,0.024000000,-0.022000000,0.000000000,0.000000000,0.001000000
1696856869.736182,481187.000000000,1696856869.735014439,0.004000000,0.022000000,-0.022000000,0.000000000,0.000000000,0.001000000
1696856869.738227,481188.000000000,1696856869.737037659,0.005000000,0.021000000,-0.023000000,0.000000000,0.000000000,0.001000000
1696856869.740691,481189.000000000,1696856869.739027262,0.007000000,0.020000000,-0.023000000,0.000000000,0.000000000,0.001000000
1696856869.742207,481190.000000000,1696856869.741027355,0.007000000,0.019000000,-0.023000000,0.001000000,0.000000000,0.001000000
1696856869.744138,481191.000000000,1696856869.743010759,0.008000000,0.018000000,-0.024000000,0.001000000,0.000000000,0.001000000
1696856869.746176,481192.000000000,1696856869.745038509,0.009000000,0.019000000,-0.025000000,0.001000000,0.000000000,0.001000000
1696856869.748189,481193.000000000,1696856869.747054100,0.009000000,0.021000000,-0.025000000,0.000000000,0.000000000,0.001000000
1696856869.750188,481194.000000000,1696856869.749037504,0.009000000,0.025000000,-0.023000000,0.000000000,0.000000000,0.001000000
1696856869.752153,481195.000000000,1696856869.751026869,0.010000000,0.028000000,-0.022000000,0.000000000,0.000000000,0.001000000
1696856869.754372,481196.000000000,1696856869.753161907,0.010000000,0.030000000,-0.021000000,0.000000000,0.000000000,0.001000000
1696856869.756136,481197.000000000,1696856869.755016088,0.010000000,0.030000000,-0.022000000,0.000000000,0.000000000,0.001000000
1696856869.758168,481198.000000000,1696856869.757044077,0.010000000,0.030000000,-0.023000000,0.000000000,0.000000000,0.001000000
1696856869.760672,481199.000000000,1696856869.759029388,0.010000000,0.029000000,-0.023000000,0.000000000,0.000000000,0.001000000
1696856869.762258,481200.000000000,1696856869.761042595,0.011000000,0.028000000,-0.022000000,0.000000000,0.000000000,0.001000000
1696856869.764158,481201.000000000,1696856869.763025761,0.012000000,0.027000000,-0.023000000,0.000000000,0.000000000,0.001000000
1696856869.766204,481202.000000000,1696856869.765053511,0.011000000,0.027000000,-0.023000000,0.000000000,0.000000000,0.001000000
1696856869.768171,481203.000000000,1696856869.767025471,0.011000000,0.027000000,-0.024000000,0.000000000,0.000000000,0.001000000
1696856869.770214,481204.000000000,1696856869.769057274,0.011000000,0.029000000,-0.023000000,0.000000000,0.000000000,0.001000000
1696856869.772197,481205.000000000,1696856869.771024942,0.011000000,0.032000000,-0.021000000,0.000000000,0.000000000,0.001000000
1696856869.774521,481206.000000000,1696856869.773055315,0.010000000,0.035000000,-0.018000000,0.000000000,0.000000000,0.001000000
1696856869.776158,481207.000000000,1696856869.775019884,0.009000000,0.037000000,-0.019000000,0.000000000,0.000000000,0.001000000
1696856869.778174,481208.000000000,1696856869.777033567,0.008000000,0.038000000,-0.019000000,0.000000000,0.000000000,0.001000000
1696856869.780667,481209.000000000,1696856869.779033184,0.008000000,0.038000000,-0.019000000,0.000000000,0.000000000,0.002000000
1696856869.782186,481210.000000000,1696856869.781048775,0.007000000,0.037000000,-0.019000000,0.000000000,0.000000000,0.002000000
1696856869.784171,481211.000000000,1696856869.783028126,0.007000000,0.035000000,-0.019000000,0.000000000,0.000000000,0.002000000
1696856869.786279,481212.000000000,1696856869.785040379,0.006000000,0.034000000,-0.019000000,0.000000000,0.000000000,0.002000000
1696856869.788120,481213.000000000,1696856869.787009001,0.005000000,0.033000000,-0.019000000,0.000000000,0.000000000,0.002000000
1696856869.790189,481214.000000000,1696856869.789040565,0.005000000,0.032000000,-0.018000000,0.000000000,0.000000000,0.002000000
1696856869.792165,481215.000000000,1696856869.791053534,0.004000000,0.033000000,-0.019000000,0.000000000,0.000000000,0.002000000
1696856869.794181,481216.000000000,1696856869.793042421,0.003000000,0.035000000,-0.018000000,0.000000000,0.000000000,0.002000000
1696856869.796148,481217.000000000,1696856869.795013905,0.002000000,0.037000000,-0.016000000,0.000000000,0.000000000,0.002000000
1696856869.798176,481218.000000000,1696856869.797038078,0.001000000,0.039000000,-0.015000000,0.000000000,0.000000000,0.002000000
1696856869.800641,481219.000000000,1696856869.799038172,0.000000000,0.040000000,-0.014000000,0.000000000,0.000000000,0.002000000
1696856869.802994,481220.000000000,1696856869.801038027,0.000000000,0.040000000,-0.015000000,0.000000000,0.000000000,0.003000000
1696856869.804169,481221.000000000,1696856869.803037882,-0.001000000,0.038000000,-0.014000000,0.000000000,0.000000000,0.003000000
1696856869.806247,481222.000000000,1696856869.805058718,-0.001000000,0.036000000,-0.014000000,0.000000000,0.000000000,0.003000000
1696856869.808199,481223.000000000,1696856869.807084322,-0.002000000,0.035000000,-0.013000000,0.000000000,0.000000000,0.003000000
1696856869.810293,481224.000000000,1696856869.809082031,-0.002000000,0.033000000,-0.014000000,0.000000000,0.000000000,0.003000000
1696856869.812203,481225.000000000,1696856869.811059952,-0.003000000,0.032000000,-0.012000000,0.000000000,0.000000000,0.003000000
1696856869.814415,481226.000000000,1696856869.813193560,-0.003000000,0.032000000,-0.013000000,0.000000000,0.000000000,0.003000000
1696856869.816174,481227.000000000,1696856869.815053225,-0.004000000,0.033000000,-0.012000000,0.000000000,0.000000000,0.003000000
1696856869.818190,481228.000000000,1696856869.817052841,-0.004000000,0.036000000,-0.009000000,0.000000000,0.000000000,0.003000000
1696856869.820879,481229.000000000,1696856869.819060326,-0.005000000,0.038000000,-0.008000000,0.000000000,0.000000000,0.003000000
1696856869.822223,481230.000000000,1696856869.821074963,-0.006000000,0.039000000,-0.009000000,0.000000000,0.000000000,0.003000000
1696856869.824236,481231.000000000,1696856869.823043108,-0.006000000,0.039000000,-0.010000000,0.000000000,0.000000000,0.003000000
1696856869.826421,481232.000000000,1696856869.825065613,-0.006000000,0.039000000,-0.010000000,0.000000000,0.000000000,0.003000000
1696856869.828241,481233.000000000,1696856869.827050924,-0.006000000,0.038000000,-0.010000000,0.000000000,0.000000000,0.003000000
1696856869.830258,481234.000000000,1696856869.829122305,-0.005000000,0.037000000,-0.010000000,0.000000000,0.000000000,0.002000000
1696856869.832179,481235.000000000,1696856869.831040621,-0.005000000,0.035000000,-0.012000000,0.000000000,0.000000000,0.002000000
1696856869.834203,481236.000000000,1696856869.833059311,-0.004000000,0.035000000,-0.012000000,0.001000000,0.000000000,0.002000000
1696856869.836187,481237.000000000,1696856869.835067749,-0.004000000,0.036000000,-0.013000000,0.001000000,0.000000000,0.002000000
1696856869.838268,481238.000000000,1696856869.837064743,-0.003000000,0.037000000,-0.013000000,0.000000000,0.000000000,0.002000000
1696856869.840646,481239.000000000,1696856869.839075804,-0.003000000,0.040000000,-0.014000000,0.000000000,0.000000000,0.002000000
1696856869.842277,481240.000000000,1696856869.841062546,-0.003000000,0.044000000,-0.013000000,0.000000000,0.000000000,0.002000000
1696856869.844164,481241.000000000,1696856869.843039036,-0.002000000,0.047000000,-0.015000000,0.000000000,0.000000000,0.002000000
1696856869.846590,481242.000000000,1696856869.845168591,-0.002000000,0.049000000,-0.017000000,0.000000000,0.000000000,0.002000000
1696856869.849051,481243.000000000,1696856869.847661972,-0.001000000,0.051000000,-0.020000000,0.000000000,0.000000000,0.001000000
