__time,/hsrb/joint_states/arm_flex_joint/effort,/hsrb/joint_states/arm_flex_joint/position,/hsrb/joint_states/arm_flex_joint/velocity,/hsrb/joint_states/arm_lift_joint/effort,/hsrb/joint_states/arm_lift_joint/position,/hsrb/joint_states/arm_lift_joint/velocity,/hsrb/joint_states/arm_roll_joint/effort,/hsrb/joint_states/arm_roll_joint/position,/hsrb/joint_states/arm_roll_joint/velocity,/hsrb/joint_states/base_l_drive_wheel_joint/effort,/hsrb/joint_states/base_l_drive_wheel_joint/position,/hsrb/joint_states/base_l_drive_wheel_joint/velocity,/hsrb/joint_states/base_r_drive_wheel_joint/effort,/hsrb/joint_states/base_r_drive_wheel_joint/position,/hsrb/joint_states/base_r_drive_wheel_joint/velocity,/hsrb/joint_states/base_roll_joint/effort,/hsrb/joint_states/base_roll_joint/position,/hsrb/joint_states/base_roll_joint/velocity,/hsrb/joint_states/hand_l_spring_proximal_joint/effort,/hsrb/joint_states/hand_l_spring_proximal_joint/position,/hsrb/joint_states/hand_l_spring_proximal_joint/velocity,/hsrb/joint_states/hand_motor_joint/effort,/hsrb/joint_states/hand_motor_joint/position,/hsrb/joint_states/hand_motor_joint/velocity,/hsrb/joint_states/hand_r_spring_proximal_joint/effort,/hsrb/joint_states/hand_r_spring_proximal_joint/position,/hsrb/joint_states/hand_r_spring_proximal_joint/velocity,/hsrb/joint_states/head_pan_joint/effort,/hsrb/joint_states/head_pan_joint/position,/hsrb/joint_states/head_pan_joint/velocity,/hsrb/joint_states/head_tilt_joint/effort,/hsrb/joint_states/head_tilt_joint/position,/hsrb/joint_states/head_tilt_joint/velocity,/hsrb/joint_states/header/seq,/hsrb/joint_states/header/stamp,/hsrb/joint_states/wrist_flex_joint/effort,/hsrb/joint_states/wrist_flex_joint/position,/hsrb/joint_states/wrist_flex_joint/velocity,/hsrb/joint_states/wrist_roll_joint/effort,/hsrb/joint_states/wrist_roll_joint/position,/hsrb/joint_states/wrist_roll_joint/velocity,/hsrb/pressure_sensor/data,/hsrb/wrist_wrench/compensated/header/seq,/hsrb/wrist_wrench/compensated/header/stamp,/hsrb/wrist_wrench/compensated/wrench/force/x,/hsrb/wrist_wrench/compensated/wrench/force/y,/hsrb/wrist_wrench/compensated/wrench/force/z,/hsrb/wrist_wrench/compensated/wrench/torque/x,/hsrb/wrist_wrench/compensated/wrench/torque/y,/hsrb/wrist_wrench/compensated/wrench/torque/z
1692010466.866858,,,,,,,,,,,,,,,,,,,,,,,,,,,,,,,,,,,,,,,,,,,39390.000000,1692010466.852213,0.000000,0.000000,0.000000,0.000000,0.000000,0.000000
1692010466.872036,1.326531,-0.030253,0.000761,-75.964339,0.009999,0.000008,0.066240,0.000000,-0.000046,0.000000,-0.511538,-0.000653,0.010788,3.052562,-0.000653,1.468320,2.944824,0.006220,-1.940000,-0.054545,0.009999,-0.001225,1.407545,0.000000,-1.893000,-0.049545,-0.017999,0.068080,0.000000,-0.000138,-1.491714,0.000002,0.000038,20137.000000,1692010466.856545,0.630857,-1.569998,0.000048,0.236571,0.000153,-0.000048,,,,,,,,,
1692010466.880218,,,,,,,,,,,,,,,,,,,,,,,,,,,,,,,,,,,,,,,,,,,39391.000000,1692010466.862202,0.000000,0.000000,0.000000,0.000000,0.000000,0.000000
1692010466.883752,,,,,,,,,,,,,,,,,,,,,,,,,,,,,,,,,,,,,,,,,,,39392.000000,1692010466.872342,0.000000,0.000000,0.000000,0.000000,0.000000,0.000000
1692010466.891525,1.277999,-0.029869,-0.000466,-75.673288,0.009999,0.000008,-0.005520,0.000000,-0.000046,-0.002697,-0.511538,-0.000653,0.016182,3.052562,-0.000653,1.810560,2.944814,0.004105,-1.937000,-0.052955,0.014000,-0.000408,1.406954,0.000000,-1.893000,-0.048954,-0.017999,0.088320,0.000000,-0.000138,-1.334000,0.000002,0.000038,20138.000000,1692010466.876545,0.552000,-1.569998,0.000048,0.199771,0.000153,-0.000048,,,,,,,,,
1692010466.898446,,,,,,,,,,,,,,,,,,,,,,,,,,,,,,,,,,,,,,,,,,,39393.000000,1692010466.884803,0.000000,0.000000,0.000000,0.000000,0.000000,0.000000
1692010466.910721,,,,,,,,,,,,,,,,,,,,,,,,,,,,,,,,,,,,,,,,,,0.000000,,,,,,,,
1692010466.916086,,,,,,,,,,,,,,,,,,,,,,,,,,,,,,,,,,,,,,,,,,,39394.000000,1692010466.893821,0.000000,0.000000,0.000000,0.000000,0.000000,0.000000
1692010466.916111,2.135391,-0.030253,-0.000222,-75.382236,0.009999,0.000008,-0.011040,0.000000,-0.000046,-0.008091,-0.511538,-0.000653,0.016182,3.052562,-0.000653,1.148160,2.944814,-0.005476,-1.937000,-0.052545,0.014000,-0.000408,1.407545,-0.004727,-1.898000,-0.051546,-0.017999,0.036800,0.000000,-0.000138,-1.380000,0.000002,0.000038,20139.000000,1692010466.896547,0.804343,-1.569998,0.000048,0.178743,0.000153,-0.000048,,,,,,,,,
1692010466.925060,,,,,,,,,,,,,,,,,,,,,,,,,,,,,,,,,,,,,,,,,,,39395.000000,1692010466.905030,0.000000,0.000000,0.000000,0.000000,0.000000,0.000000
1692010466.931387,,,,,,,,,,,,,,,,,,,,,,,,,,,,,,,,,,,,,,,,,,,39396.000000,1692010466.912444,0.000000,0.000000,0.000000,0.000000,0.000000,0.000000
1692010466.932734,1.795669,-0.029869,-0.000105,-75.964339,0.009999,0.000008,0.044160,0.000000,-0.000046,-0.008091,-0.511538,-0.000653,0.010788,3.052562,-0.000653,1.225440,2.944814,-0.006188,-1.935000,-0.051954,0.017999,0.000408,1.406954,0.001181,-1.889000,-0.045955,-0.006000,0.068080,0.000000,-0.000138,-1.439143,0.000002,0.000038,20140.000000,1692010466.916534,0.678171,-1.569998,0.000048,0.184000,0.000153,-0.000048,,,,,,,,,
1692010466.932774,,,,,,,,,,,,,,,,,,,,,,,,,,,,,,,,,,,,,,,,,,,39397.000000,1692010466.922692,0.000000,0.000000,0.000000,0.000000,0.000000,0.000000
1692010466.944242,,,,,,,,,,,,,,,,,,,,,,,,,,,,,,,,,,,,,,,,,,,39398.000000,1692010466.932291,0.000000,0.000000,0.000000,0.000000,0.000000,0.000000
1692010466.952115,2.280986,-0.029869,-0.000181,-75.964339,0.009999,0.000008,0.071760,0.000000,-0.000046,-0.005394,-0.511538,-0.000653,0.008091,3.052562,-0.000653,0.938400,2.944803,-0.009979,-1.932000,-0.050955,0.027000,0.000408,1.406954,-0.001772,-1.891000,-0.047955,-0.009999,0.075440,0.000000,-0.000138,-1.544286,0.000002,0.000038,20141.000000,1692010466.936536,0.799086,-1.569998,0.000048,0.210286,0.000153,-0.000048,,,,,,,,,
1692010466.962063,,,,,,,,,,,,,,,,,,,,,,,,,,,,,,,,,,,,,,,,,,,39399.000000,1692010466.942888,0.000000,0.000000,0.000000,0.000000,0.000000,0.000000
1692010466.965778,,,,,,,,,,,,,,,,,,,,,,,,,,,,,,,,,,,,,,,,,,,39400.000000,1692010466.954166,0.000000,0.000000,0.000000,0.000000,0.000000,0.000000
1692010466.965919,0.954455,-0.029869,-0.000230,-75.673288,0.009999,0.000008,0.027600,0.000000,-0.000046,-0.002697,-0.511538,-0.000653,0.013485,3.052562,-0.000653,1.346880,2.944803,-0.007843,-1.932000,-0.051954,0.019999,0.000817,1.406954,-0.001772,-1.894000,-0.048954,-0.009999,0.079120,0.000000,-0.000138,-1.570571,0.000002,0.000038,20142.000000,1692010466.956540,0.820114,-1.569998,0.000048,0.205029,0.000153,-0.000048,,,,,,,,,
1692010466.970039,,,,,,,,,,,,,,,,,,,,,,,,,,,,,,,,,,,,,,,,,,,39401.000000,1692010466.962298,0.000000,0.000000,0.000000,0.000000,0.000000,0.000000
1692010466.983277,,,,,,,,,,,,,,,,,,,,,,,,,,,,,,,,,,,,,,,,,,,39402.000000,1692010466.972284,0.000000,0.000000,0.000000,0.000000,0.000000,0.000000
1692010466.989807,2.022150,-0.029869,-0.000115,-75.964339,0.009999,0.000008,0.055200,0.000000,-0.000046,-0.002697,-0.511538,-0.000653,0.008091,3.052562,-0.000653,1.545600,2.944803,-0.003979,-1.940000,-0.057955,0.014999,0.001225,1.406954,-0.001772,-1.893000,-0.047955,-0.014000,0.082800,0.000000,-0.000138,-1.531143,0.000002,0.000038,20143.000000,1692010466.976539,0.594057,-1.569998,0.000048,0.268114,0.000153,-0.000048,,,,,,,,,
1692010466.992839,,,,,,,,,,,,,,,,,,,,,,,,,,,,,,,,,,,,,,,,,,,39403.000000,1692010466.982430,0.000000,0.000000,0.000000,0.000000,0.000000,0.000000
1692010467.005038,,,,,,,,,,,,,,,,,,,,,,,,,,,,,,,,,,,,,,,,,,,39404.000000,1692010466.992334,0.000000,0.000000,0.000000,0.000000,0.000000,0.000000
1692010467.010163,1.035341,-0.029869,-0.000018,-76.255390,0.009999,0.000008,0.077280,0.000000,-0.000046,-0.002697,-0.511538,-0.000653,0.013485,3.052562,-0.000653,1.137120,2.944814,-0.004995,-1.934000,-0.053363,-0.004999,0.000408,1.406363,-0.001772,-1.886000,-0.043363,-0.004000,0.031280,0.000000,-0.000138,-1.445714,0.000002,0.000038,20144.000000,1692010466.996540,0.793829,-1.569998,0.000048,0.220800,0.000153,-0.000048,,,,,,,,,
1692010467.010205,,,,,,,,,,,,,,,,,,,,,,,,,,,,,,,,,,,,,,,,,,,39405.000000,1692010467.002288,0.000000,0.000000,0.000000,0.000000,0.000000,0.000000
1692010467.014321,,,,,,,,,,,,,,,,,,,,,,,,,,,,,,,,,,,,,,,,,,0.000000,,,,,,,,
1692010467.019215,,,,,,,,,,,,,,,,,,,,,,,,,,,,,,,,,,,,,,,,,,,39406.000000,1692010467.012278,0.000000,0.000000,0.000000,0.000000,0.000000,0.000000
1692010467.035031,,,,,,,,,,,,,,,,,,,,,,,,,,,,,,,,,,,,,,,,,,,39407.000000,1692010467.022599,0.000000,0.000000,0.000000,0.000000,0.000000,0.000000
1692010467.035051,0.566202,-0.029869,-0.000018,-76.255390,0.009999,0.000008,0.154560,0.000000,-0.000046,-0.005394,-0.511538,-0.000653,0.016182,3.052562,-0.000653,1.457280,2.944824,0.002419,-1.937000,-0.056363,-0.014999,0.001225,1.406363,-0.004136,-1.886000,-0.044364,0.010999,0.068080,0.000000,-0.000138,-1.550857,0.000002,0.000038,20145.000000,1692010467.016535,0.662400,-1.569998,0.000048,0.157714,0.000153,-0.000048,,,,,,,,,
1692010467.046476,,,,,,,,,,,,,,,,,,,,,,,,,,,,,,,,,,,,,,,,,,,39408.000000,1692010467.032373,0.000000,0.000000,0.000000,0.000000,0.000000,0.000000
1692010467.056616,1.520657,-0.030253,0.000171,-76.255390,0.009999,0.000008,0.022080,0.000000,-0.000046,-0.005394,-0.511538,-0.000653,0.013485,3.052562,-0.000653,1.302720,2.944824,0.000586,-1.940000,-0.056773,-0.009999,0.000408,1.405772,-0.001181,-1.879000,-0.040772,0.014999,0.038640,0.000000,-0.000138,-1.458857,0.000002,0.000038,20146.000000,1692010467.036533,0.651886,-1.569998,0.000048,0.273371,0.000153,-0.000048,,,,,,,,,
1692010467.056646,,,,,,,,,,,,,,,,,,,,,,,,,,,,,,,,,,,,,,,,,,,39409.000000,1692010467.042294,0.000000,0.000000,0.000000,0.000000,0.000000,0.000000
1692010467.067084,,,,,,,,,,,,,,,,,,,,,,,,,,,,,,,,,,,,,,,,,,,39410.000000,1692010467.057084,0.000000,0.000000,0.000000,0.000000,0.000000,0.000000
1692010467.070072,0.905923,-0.029869,-0.000377,-76.546441,0.009999,0.000008,-0.038640,0.000000,-0.000046,-0.010788,-0.511538,-0.000653,0.016182,3.052562,-0.000653,1.324800,2.944814,-0.004136,-1.937000,-0.055364,-0.004000,0.000817,1.406363,-0.003545,-1.879000,-0.042364,0.018999,0.044160,0.000000,-0.000138,-1.537714,0.000002,0.000038,20147.000000,1692010467.056540,0.625600,-1.569998,0.000048,0.189257,0.000153,-0.000048,,,,,,,,,
1692010467.072512,,,,,,,,,,,,,,,,,,,,,,,,,,,,,,,,,,,,,,,,,,,39411.000000,1692010467.062240,0.000000,0.000000,0.000000,0.000000,0.000000,0.000000
1692010467.087212,,,,,,,,,,,,,,,,,,,,,,,,,,,,,,,,,,,,,,,,,,,39412.000000,1692010467.072326,0.000000,0.000000,0.000000,0.000000,0.000000,0.000000
1692010467.087228,0.533848,-0.029869,-0.000018,-75.091185,0.009999,0.000095,0.077280,0.000000,-0.000046,-0.005394,-0.511538,-0.000653,0.016182,3.052562,-0.000653,1.600800,2.944824,0.005225,-1.935000,-0.054364,-0.004000,-0.001225,1.406363,-0.003545,-1.883000,-0.044364,0.004000,0.025760,0.000000,-0.000138,-1.524571,0.000002,0.000038,20148.000000,1692010467.076537,0.657143,-1.569998,0.000048,0.252343,0.000153,-0.000048,,,,,,,,,
1692010467.103734,,,,,,,,,,,,,,,,,,,,,,,,,,,,,,,,,,,,,,,,,,,39413.000000,1692010467.082354,0.000000,0.000000,0.000000,0.000000,0.000000,0.000000
1692010467.105375,,,,,,,,,,,,,,,,,,,,,,,,,,,,,,,,,,,,,,,,,,,39414.000000,1692010467.092329,0.000000,0.000000,0.000000,0.000000,0.000000,0.000000
1692010467.108827,1.148581,-0.029869,-0.000018,-75.091185,0.009999,0.000008,-0.049680,0.000000,-0.000046,-0.002697,-0.511538,-0.000653,0.013485,3.052562,-0.000653,1.280640,2.944814,-0.000178,-1.944000,-0.059363,0.004999,0.000000,1.406363,-0.003545,-1.883000,-0.044364,0.004000,0.029440,0.000000,-0.000138,-1.623143,0.000002,0.000038,20149.000000,1692010467.096550,0.783314,-1.569998,0.000048,0.226057,0.000153,-0.000048,,,,,,,,,
1692010467.115536,,,,,,,,,,,,,,,,,,,,,,,,,,,,,,,,,,,,,,,,,,,39415.000000,1692010467.102250,0.000000,0.000000,0.000000,0.000000,0.000000,0.000000
1692010467.121931,,,,,,,,,,,,,,,,,,,,,,,,,,,,,,,,,,,,,,,,,,0.000000,,,,,,,,
1692010467.130799,,,,,,,,,,,,,,,,,,,,,,,,,,,,,,,,,,,,,,,,,,,39416.000000,1692010467.113118,0.000000,0.000000,0.000000,0.000000,0.000000,0.000000
1692010467.130818,0.857392,-0.029869,-0.000365,-75.964339,0.009999,0.000008,-0.055200,0.000000,-0.000046,-0.002697,-0.511538,-0.000653,0.016182,3.052562,-0.000653,1.468320,2.944824,0.001968,-1.949000,-0.062364,-0.037999,-0.000408,1.406363,-0.003545,-1.883000,-0.045364,0.008000,0.051520,0.000000,-0.000138,-1.583714,0.000002,0.000038,20150.000000,1692010467.116539,0.488914,-1.569998,0.000048,0.189257,0.000153,-0.000048,,,,,,,,,
1692010467.138106,,,,,,,,,,,,,,,,,,,,,,,,,,,,,,,,,,,,,,,,,,,39417.000000,1692010467.123313,0.000000,0.000000,0.000000,0.000000,0.000000,0.000000
1692010467.139909,,,,,,,,,,,,,,,,,,,,,,,,,,,,,,,,,,,,,,,,,,,39418.000000,1692010467.132190,0.000000,0.000000,0.000000,0.000000,0.000000,0.000000
1692010467.146805,2.216277,-0.029869,-0.000638,-75.382236,0.009999,0.000008,0.126960,0.000000,-0.000046,-0.005394,-0.511538,-0.000653,0.016182,3.052562,-0.000653,1.203360,2.944814,-0.005298,-1.947000,-0.059363,-0.035999,0.000000,1.406363,-0.005909,-1.881000,-0.044364,0.003000,0.031280,0.000000,-0.000138,-1.478571,0.000002,0.000038,20151.000000,1692010467.136548,0.730743,-1.569998,0.000048,0.241829,0.000153,-0.000048,,,,,,,,,
1692010467.150058,,,,,,,,,,,,,,,,,,,,,,,,,,,,,,,,,,,,,,,,,,,39419.000000,1692010467.142315,0.000000,0.000000,0.000000,0.000000,0.000000,0.000000
1692010467.172742,,,,,,,,,,,,,,,,,,,,,,,,,,,,,,,,,,,,,,,,,,,39420.000000,1692010467.152303,0.000000,0.000000,0.000000,0.000000,0.000000,0.000000
1692010467.175018,0.242658,-0.029869,0.000753,-75.673288,0.009999,0.000008,0.038640,0.000000,-0.000046,-0.008091,-0.511538,-0.000653,0.016182,3.052562,-0.000653,1.843680,2.944814,-0.002209,-1.945000,-0.057772,-0.014000,0.001637,1.405772,-0.002954,-1.884000,-0.045772,-0.007000,0.101200,0.000000,-0.000138,-1.452286,0.000002,0.000038,20152.000000,1692010467.156540,0.446857,-1.569998,0.000048,0.168229,0.000153,-0.000048,,,,,,,,,
1692010467.178031,,,,,,,,,,,,,,,,,,,,,,,,,,,,,,,,,,,,,,,,,,,39422.000000,1692010467.172333,0.000000,0.000000,0.000000,0.000000,0.000000,0.000000
1692010467.197828,,,,,,,,,,,,,,,,,,,,,,,,,,,,,,,,,,,,,,,,,,,39423.000000,1692010467.184265,0.000000,0.000000,0.000000,0.000000,0.000000,0.000000
1692010467.197848,0.194126,-0.029869,-0.001001,-75.964339,0.009999,0.000008,0.060720,0.000000,-0.000046,-0.002697,-0.511538,-0.000653,0.010788,3.052562,-0.000653,1.070880,2.944824,-0.002670,-1.940000,-0.055364,0.001000,-0.000408,1.406363,-0.005318,-1.883000,-0.044364,0.003000,0.064400,0.000000,-0.000138,-1.577143,0.000002,0.000038,20153.000000,1692010467.176542,0.641371,-1.569998,0.000048,0.226057,0.000153,-0.000048,,,,,,,,,
1692010467.209585,0.485316,-0.029869,-0.000381,-75.382236,0.009999,0.000008,-0.016560,0.000000,-0.000046,-0.005394,-0.511538,-0.000653,0.018879,3.052562,-0.000653,1.523520,2.944814,-0.000691,-1.939000,-0.054364,0.001000,0.000408,1.406363,-0.002363,-1.883000,-0.044364,0.003000,0.038640,0.000000,-0.000138,-1.458857,0.000002,0.000038,20154.000000,1692010467.186546,0.841143,-1.569998,0.000048,0.278629,0.000153,-0.000048,,,,,,,,,
1692010467.209612,,,,,,,,,,,,,,,,,,,,,,,,,,,,,,,,,,,,,,,,,,,39424.000000,1692010467.192525,0.000000,0.000000,0.000000,0.000000,0.000000,0.000000
1692010467.216238,,,,,,,,,,,,,,,,,,,,,,,,,,,,,,,,,,,,,,,,,,,39425.000000,1692010467.202939,0.000000,0.000000,0.000000,0.000000,0.000000,0.000000
1692010467.224334,,,,,,,,,,,,,,,,,,,,,,,,,,,,,,,,,,,,,,,,,,,39426.000000,1692010467.212313,0.000000,0.000000,0.000000,0.000000,0.000000,0.000000
1692010467.227457,1.148581,-0.029869,-0.000169,-76.255390,0.009999,0.000008,0.110400,0.000000,-0.000046,-0.002697,-0.511538,-0.000653,0.018879,3.052562,-0.000653,1.413120,2.944814,-0.000094,-1.937000,-0.052772,0.008999,0.001637,1.405772,-0.002363,-1.883000,-0.044773,0.003000,0.036800,0.000000,-0.000138,-1.688857,0.000002,0.000038,20155.000000,1692010467.216539,0.657143,-1.569998,0.000048,0.252343,0.000153,-0.000048,,,,,,,,,
1692010467.229323,,,,,,,,,,,,,,,,,,,,,,,,,,,,,,,,,,,,,,,,,,0.000000,,,,,,,,
1692010467.233850,,,,,,,,,,,,,,,,,,,,,,,,,,,,,,,,,,,,,,,,,,,39427.000000,1692010467.222316,0.000000,0.000000,0.000000,0.000000,0.000000,0.000000
1692010467.246020,,,,,,,,,,,,,,,,,,,,,,,,,,,,,,,,,,,,,,,,,,,39428.000000,1692010467.232321,0.000000,0.000000,0.000000,0.000000,0.000000,0.000000
1692010467.251304,0.679443,-0.029869,-0.000545,-76.546441,0.009999,0.000008,0.121440,0.000000,-0.000046,-0.013485,-0.511538,-0.000653,0.016182,3.052562,-0.000653,1.357920,2.944824,0.001455,-1.934000,-0.051546,0.023000,-0.001637,1.407545,-0.001772,-1.886000,-0.046546,0.003000,0.001840,0.000000,-0.000138,-1.518000,0.000002,0.000038,20156.000000,1692010467.236536,0.320686,-1.569998,0.000048,0.215543,0.000153,-0.000048,,,,,,,,,
1692010467.258151,,,,,,,,,,,,,,,,,,,,,,,,,,,,,,,,,,,,,,,,,,,39429.000000,1692010467.242377,0.000000,0.000000,0.000000,0.000000,0.000000,0.000000
1692010467.259848,,,,,,,,,,,,,,,,,,,,,,,,,,,,,,,,,,,,,,,,,,,39430.000000,1692010467.252187,0.000000,0.000000,0.000000,0.000000,0.000000,0.000000
1692010467.268048,0.177949,-0.029869,0.000341,-76.255390,0.009999,0.000008,0.082800,0.000000,-0.000046,-0.005394,-0.511538,-0.000653,0.010788,3.052562,-0.000653,1.247520,2.944803,-0.005466,-1.930000,-0.050546,0.016000,-0.001225,1.407545,0.004136,-1.889000,-0.047545,-0.002000,0.033120,0.000000,-0.000138,-1.504857,0.000002,0.000038,20157.000000,1692010467.256543,0.615086,-1.569998,0.000048,0.262857,0.000153,-0.000048,,,,,,,,,
1692010467.272510,,,,,,,,,,,,,,,,,,,,,,,,,,,,,,,,,,,,,,,,,,,39431.000000,1692010467.262362,0.000000,0.000000,0.000000,0.000000,0.000000,0.000000
1692010467.283098,,,,,,,,,,,,,,,,,,,,,,,,,,,,,,,,,,,,,,,,,,,39432.000000,1692010467.272328,0.000000,0.000000,0.000000,0.000000,0.000000,0.000000
1692010467.286990,0.841215,-0.029869,-0.000018,-76.546441,0.009999,0.000008,-0.060720,0.000000,-0.000046,-0.002697,-0.511538,-0.000653,0.010788,3.052562,-0.000653,1.391040,2.944803,-0.001717,-1.925000,-0.047955,0.032999,0.000000,1.406954,0.001181,-1.893000,-0.048954,-0.014999,0.119600,0.000000,-0.000138,-1.432571,0.000002,0.000038,20158.000000,1692010467.276537,0.772800,-1.569998,0.000048,0.120914,0.000153,-0.000048,,,,,,,,,
1692010467.295193,,,,,,,,,,,,,,,,,,,,,,,,,,,,,,,,,,,,,,,,,,,39433.000000,1692010467.282330,0.000000,0.000000,0.000000,0.000000,0.000000,0.000000
1692010467.305967,,,,,,,,,,,,,,,,,,,,,,,,,,,,,,,,,,,,,,,,,,,39434.000000,1692010467.292571,0.000000,0.000000,0.000000,0.000000,0.000000,0.000000
1692010467.312603,,,,,,,,,,,,,,,,,,,,,,,,,,,,,,,,,,,,,,,,,,,39435.000000,1692010467.302320,0.000000,0.000000,0.000000,0.000000,0.000000,0.000000
1692010467.312770,0.064709,-0.029869,0.000478,-76.837492,0.009999,0.000008,-0.005520,0.000000,-0.000046,-0.005394,-0.511538,-0.000653,0.013485,3.052562,-0.000653,1.302720,2.944814,0.001361,-1.927000,-0.050955,0.026000,-0.001637,1.406954,0.001181,-1.894000,-0.048954,-0.014999,0.069920,0.000015,0.000138,-1.616571,0.000002,0.000038,20159.000000,1692010467.296547,0.651886,-1.569998,0.000048,0.115657,0.000153,-0.000048,,,,,,,,,
1692010467.319984,,,,,,,,,,,,,,,,,,,,,,,,,,,,,,,,,,,,,,,,,,,39436.000000,1692010467.312284,0.000000,0.000000,0.000000,0.000000,0.000000,0.000000
1692010467.333137,0.582379,-0.029869,-0.000290,-77.128543,0.009999,0.000008,0.022080,0.000000,-0.000046,-0.002697,-0.511538,-0.000653,0.013485,3.052562,-0.000653,1.037760,2.944814,-0.003947,-1.929000,-0.052364,0.009999,0.001225,1.406363,-0.001772,-1.894000,-0.048363,-0.014999,0.049680,0.000015,0.000138,-1.458857,0.000002,0.000038,20160.000000,1692010467.316532,0.757029,-1.569998,0.000048,0.178743,0.000153,-0.000048,,,,,,,,,
1692010467.336182,,,,,,,,,,,,,,,,,,,,,,,,,,,,,,,,,,,,,,,,,,,39437.000000,1692010467.322357,0.000000,0.000000,0.000000,0.000000,0.000000,0.000000
1692010467.341228,,,,,,,,,,,,,,,,,,,,,,,,,,,,,,,,,,,,,,,,,,0.000000,,,,,,,,
1692010467.348790,,,,,,,,,,,,,,,,,,,,,,,,,,,,,,,,,,,,,,,,,,,39438.000000,1692010467.332409,0.000000,0.000000,0.000000,0.000000,0.000000,0.000000
1692010467.348814,0.372076,-0.029869,-0.000240,-75.673288,0.009999,-0.000276,0.143520,0.000000,-0.000046,-0.005394,-0.511538,-0.000653,0.013485,3.052562,-0.000653,1.622880,2.944814,0.001801,-1.929000,-0.052364,0.004999,0.000408,1.406363,-0.001772,-1.901000,-0.052364,-0.028999,0.079120,0.000015,0.000138,-1.432571,0.000002,0.000038,20161.000000,1692010467.336539,0.720229,-1.569998,0.000048,0.147200,0.000153,-0.000048,,,,,,,,,
1692010467.353871,,,,,,,,,,,,,,,,,,,,,,,,,,,,,,,,,,,,,,,,,,,39439.000000,1692010467.342344,0.000000,0.000000,0.000000,0.000000,0.000000,0.000000
1692010467.363133,,,,,,,,,,,,,,,,,,,,,,,,,,,,,,,,,,,,,,,,,,,39440.000000,1692010467.354129,0.000000,0.000000,0.000000,0.000000,0.000000,0.000000
1692010467.374439,0.016177,-0.029869,-0.000870,-74.800134,0.009999,-0.000365,0.049680,0.000000,-0.000046,-0.002697,-0.511538,-0.000653,0.013485,3.052562,-0.000653,1.479360,2.944824,0.002366,-1.930000,-0.054364,0.004999,0.002454,1.406363,-0.001772,-1.902000,-0.052364,-0.030999,0.038640,0.000015,0.000138,-1.518000,-0.000003,-0.000038,20162.000000,1692010467.356536,0.704457,-1.569998,0.000048,0.157714,0.000153,-0.000048,,,,,,,,,
1692010467.375186,,,,,,,,,,,,,,,,,,,,,,,,,,,,,,,,,,,,,,,,,,,39441.000000,1692010467.364891,0.000000,0.000000,0.000000,0.000000,0.000000,0.000000
1692010467.383383,0.808860,-0.029869,-0.000078,-74.800134,0.009999,0.000022,0.193200,0.000000,-0.000046,-0.002697,-0.511538,-0.000653,0.016182,3.052562,-0.000653,1.678080,2.944824,0.005592,-1.932000,-0.054955,-0.004999,0.000000,1.406954,-0.001772,-1.901000,-0.050955,-0.029999,0.033120,0.000015,0.000138,-1.491714,-0.000003,-0.000038,20163.000000,1692010467.366545,0.630857,-1.569998,0.000048,0.131429,0.000153,-0.000048,,,,,,,,,
1692010467.383410,,,,,,,,,,,,,,,,,,,,,,,,,,,,,,,,,,,,,,,,,,,39442.000000,1692010467.372529,0.000000,0.000000,0.000000,0.000000,0.000000,0.000000
1692010467.392076,,,,,,,,,,,,,,,,,,,,,,,,,,,,,,,,,,,,,,,,,,,39443.000000,1692010467.382165,0.000000,0.000000,0.000000,0.000000,0.000000,0.000000
1692010467.398779,1.698606,-0.030253,0.000018,-75.091185,0.009999,0.000008,0.115920,0.000000,-0.000046,-0.008091,-0.511538,-0.000653,0.016182,3.052562,-0.000653,1.501440,2.944824,0.005445,-1.930000,-0.054955,0.004999,-0.000408,1.406954,0.001181,-1.899000,-0.049955,-0.014000,0.073600,0.000015,0.000138,-1.452286,-0.000003,-0.000038,20164.000000,1692010467.386563,0.688686,-1.570003,-0.000048,0.236571,0.000153,-0.000048,,,,,,,,,
1692010467.404638,,,,,,,,,,,,,,,,,,,,,,,,,,,,,,,,,,,,,,,,,,,39444.000000,1692010467.392955,0.000000,0.000000,0.000000,0.000000,0.000000,0.000000
1692010467.412448,,,,,,,,,,,,,,,,,,,,,,,,,,,,,,,,,,,,,,,,,,,39445.000000,1692010467.402339,0.000000,0.000000,0.000000,0.000000,0.000000,0.000000
1692010467.426336,,,,,,,,,,,,,,,,,,,,,,,,,,,,,,,,,,,,,,,,,,,39446.000000,1692010467.412278,0.000000,0.000000,0.000000,0.000000,0.000000,0.000000
1692010467.429160,1.035341,-0.029869,-0.000018,-74.800134,0.009999,0.000008,0.016560,0.000000,-0.000046,-0.002697,-0.511538,-0.000653,0.018879,3.052562,-0.000653,1.457280,2.944814,0.002419,-1.932000,-0.054955,0.004000,-0.000817,1.406954,0.001181,-1.901000,-0.049955,-0.014000,0.062560,0.000015,0.000138,-1.511429,-0.000003,-0.000038,20165.000000,1692010467.416536,0.599314,-1.570003,-0.000048,0.210286,0.000153,-0.000048,,,,,,,,,
1692010467.433563,,,,,,,,,,,,,,,,,,,,,,,,,,,,,,,,,,,,,,,,,,,39447.000000,1692010467.422266,0.000000,0.000000,0.000000,0.000000,0.000000,0.000000
1692010467.441013,0.889746,-0.030253,-0.000018,-74.509083,0.009999,-0.000324,0.171120,0.000000,-0.000046,-0.002697,-0.511538,-0.000653,0.018879,3.052562,-0.000653,1.225440,2.944803,-0.008702,-1.929000,-0.053954,-0.006000,-0.002046,1.406954,0.001181,-1.901000,-0.049955,-0.014000,0.040480,0.000015,0.000138,-1.458857,-0.000003,-0.000038,20166.000000,1692010467.426545,0.436343,-1.570003,-0.000048,0.247086,0.000153,-0.000048,,,,,,,,,
1692010467.448239,,,,,,,,,,,,,,,,,,,,,,,,,,,,,,,,,,,,,,,,,,,39448.000000,1692010467.439336,0.000000,0.000000,0.000000,0.000000,0.000000,0.000000
1692010467.448267,,,,,,,,,,,,,,,,,,,,,,,,,,,,,,,,,,,,,,,,,,0.000000,,,,,,,,
1692010467.461225,,,,,,,,,,,,,,,,,,,,,,,,,,,,,,,,,,,,,,,,,,,39450.000000,1692010467.452296,0.000000,0.000000,0.000000,0.000000,0.000000,0.000000
1692010467.469009,1.860378,-0.030253,0.000264,-74.509083,0.009999,0.000008,-0.055200,0.000000,-0.000046,-0.002697,-0.511538,-0.000653,0.010788,3.052562,-0.000653,1.490400,2.944803,-0.003487,-1.930000,-0.054545,-0.001000,-0.001225,1.407545,0.003545,-1.896000,-0.046546,0.004999,0.071760,0.000015,0.000138,-1.452286,-0.000003,-0.000038,20167.000000,1692010467.456542,0.709714,-1.570003,-0.000048,0.220800,0.000153,-0.000048,,,,,,,,,
1692010467.471792,,,,,,,,,,,,,,,,,,,,,,,,,,,,,,,,,,,,,,,,,,,39451.000000,1692010467.462336,0.000000,0.000000,0.000000,0.000000,0.000000,0.000000
1692010467.480172,,,,,,,,,,,,,,,,,,,,,,,,,,,,,,,,,,,,,,,,,,,39452.000000,1692010467.472403,0.000000,0.000000,0.000000,0.000000,0.000000,0.000000
1692010467.487367,1.569189,-0.030253,-0.000605,-74.800134,0.009999,0.000008,0.077280,0.000000,-0.000046,-0.005394,-0.511538,-0.000653,0.013485,3.052562,-0.000653,1.391040,2.944814,0.001371,-1.929000,-0.053954,-0.001000,0.000000,1.406954,0.003545,-1.893000,-0.044955,0.000000,0.066240,0.000015,0.000138,-1.498286,-0.000003,-0.000038,20168.000000,1692010467.476533,0.725486,-1.570003,-0.000048,0.094629,0.000153,-0.000048,,,,,,,,,
1692010467.487733,,,,,,,,,,,,,,,,,,,,,,,,,,,,,,,,,,,,,,,,,,,39453.000000,1692010467.482408,0.000000,0.000000,0.000000,0.000000,0.000000,0.000000
1692010467.499001,,,,,,,,,,,,,,,,,,,,,,,,,,,,,,,,,,,,,,,,,,,39454.000000,1692010467.492336,0.000000,0.000000,0.000000,0.000000,0.000000,0.000000
1692010467.508942,0.841215,-0.030253,0.000458,-74.800134,0.009999,0.000008,0.099360,0.000000,-0.000046,-0.005394,-0.511538,-0.000653,0.016182,3.052562,-0.000653,1.070880,2.944803,-0.007183,-1.927000,-0.053954,0.004000,0.000000,1.406954,0.000590,-1.896000,-0.047955,-0.006000,0.079120,0.000015,0.000138,-1.419429,-0.000003,-0.000038,20169.000000,1692010467.496539,0.767543,-1.570003,-0.000048,0.141943,0.000153,-0.000048,,,,,,,,,
1692010467.508988,,,,,,,,,,,,,,,,,,,,,,,,,,,,,,,,,,,,,,,,,,,39455.000000,1692010467.502433,0.000000,0.000000,0.000000,0.000000,0.000000,0.000000
1692010467.520242,1.197113,-0.029869,-0.001324,-75.091185,0.009999,0.000008,0.149040,0.000000,-0.000046,-0.008091,-0.511538,-0.000653,0.008091,3.052562,-0.000653,1.313760,2.944814,0.007351,-1.927000,-0.053954,-0.001000,-0.000817,1.406954,0.000590,-1.896000,-0.047955,-0.006000,0.075440,0.000015,0.000138,-1.564000,-0.000003,-0.000038,20170.000000,1692010467.506548,0.404800,-1.570003,-0.000048,0.184000,0.000153,-0.000048,,,,,,,,,
1692010467.520276,,,,,,,,,,,,,,,,,,,,,,,,,,,,,,,,,,,,,,,,,,,39456.000000,1692010467.513276,0.000000,0.000000,0.000000,0.000000,0.000000,0.000000
1692010467.532621,,,,,,,,,,,,,,,,,,,,,,,,,,,,,,,,,,,,,,,,,,,39457.000000,1692010467.522485,0.000000,0.000000,0.000000,0.000000,0.000000,0.000000
1692010467.546450,,,,,,,,,,,,,,,,,,,,,,,,,,,,,,,,,,,,,,,,,,,39458.000000,1692010467.533430,0.000000,0.000000,0.000000,0.000000,0.000000,0.000000
1692010467.548313,1.083873,-0.030253,0.001074,-74.509083,0.009999,0.000008,0.016560,0.000000,-0.000046,-0.010788,-0.511538,-0.000653,0.010788,3.052562,-0.000653,1.744320,2.944814,0.004701,-1.929000,-0.055955,-0.006000,0.000000,1.406954,0.000590,-1.898000,-0.048954,-0.009999,0.029440,0.000015,0.000138,-1.544286,-0.000003,-0.000038,20171.000000,1692010467.536541,0.720229,-1.570003,-0.000048,0.178743,0.000153,-0.000048,,,,,,,,,
1692010467.551447,,,,,,,,,,,,,,,,,,,,,,,,,,,,,,,,,,,,,,,,,,0.000000,,,,,,,,
1692010467.554486,,,,,,,,,,,,,,,,,,,,,,,,,,,,,,,,,,,,,,,,,,,39459.000000,1692010467.543275,0.000000,0.000000,0.000000,0.000000,0.000000,0.000000
1692010467.563977,,,,,,,,,,,,,,,,,,,,,,,,,,,,,,,,,,,,,,,,,,,39460.000000,1692010467.552295,0.000000,0.000000,0.000000,0.000000,0.000000,0.000000
1692010467.570575,0.647088,-0.029869,-0.000032,-74.218032,0.009999,0.000008,0.126960,0.000000,-0.000046,-0.005394,-0.511538,-0.000653,0.013485,3.052562,-0.000653,1.512480,2.944824,0.009822,-1.930000,-0.055955,-0.009999,0.001637,1.406954,0.000590,-1.896000,-0.046954,-0.004999,0.040480,0.000015,0.000138,-1.412857,-0.000003,-0.000038,20172.000000,1692010467.556537,0.762286,-1.570003,-0.000048,0.241829,0.000153,-0.000048,,,,,,,,,
1692010467.576262,,,,,,,,,,,,,,,,,,,,,,,,,,,,,,,,,,,,,,,,,,,39461.000000,1692010467.566315,0.000000,0.000000,0.000000,0.000000,0.000000,0.000000
1692010467.591113,,,,,,,,,,,,,,,,,,,,,,,,,,,,,,,,,,,,,,,,,,,39462.000000,1692010467.572435,0.000000,0.000000,0.000000,0.000000,0.000000,0.000000
1692010467.600636,,,,,,,,,,,,,,,,,,,,,,,,,,,,,,,,,,,,,,,,,,,39463.000000,1692010467.582165,0.000000,0.000000,0.000000,0.000000,0.000000,0.000000
1692010467.600655,1.876556,-0.029869,-0.000272,-75.091185,0.009999,0.000008,0.077280,0.000000,-0.000046,-0.005394,-0.511538,-0.000653,0.018879,3.052562,-0.000653,1.490400,2.944824,0.002157,-1.927000,-0.052955,-0.009999,-0.002046,1.406954,0.000590,-1.896000,-0.047955,-0.004999,0.066240,0.000015,0.000138,-1.478571,-0.000003,-0.000038,20173.000000,1692010467.576537,0.746514,-1.570003,-0.000048,0.178743,0.000153,-0.000048,,,,,,,,,
1692010467.606477,,,,,,,,,,,,,,,,,,,,,,,,,,,,,,,,,,,,,,,,,,,39464.000000,1692010467.592425,0.000000,0.000000,0.000000,0.000000,0.000000,0.000000
1692010467.614387,1.730961,-0.029869,0.000036,-74.800134,0.009999,0.000008,0.121440,0.000000,-0.000046,-0.002697,-0.511538,-0.000653,0.013485,3.052562,-0.000653,1.368960,2.944824,0.004419,-1.924000,-0.050546,0.000000,0.000408,1.407545,0.000590,-1.896000,-0.047545,-0.004999,0.025760,0.000015,0.000138,-1.504857,-0.000003,-0.000038,20174.000000,1692010467.596538,0.778057,-1.570003,-0.000048,0.057829,0.000153,-0.000048,,,,,,,,,
1692010467.614410,,,,,,,,,,,,,,,,,,,,,,,,,,,,,,,,,,,,,,,,,,,39465.000000,1692010467.602404,0.000000,0.000000,0.000000,0.000000,0.000000,0.000000
1692010467.628548,,,,,,,,,,,,,,,,,,,,,,,,,,,,,,,,,,,,,,,,,,,39466.000000,1692010467.612393,0.000000,0.000000,0.000000,0.000000,0.000000,0.000000
1692010467.629377,1.197113,-0.029869,-0.000127,-74.218032,0.009999,0.000172,-0.011040,0.000000,-0.000046,-0.002697,-0.511538,-0.000653,0.018879,3.052562,-0.000653,1.280640,2.944803,-0.007874,-1.924000,-0.050955,0.014000,-0.000408,1.406954,0.002954,-1.893000,-0.045955,0.004000,0.046000,0.000015,0.000138,-1.504857,-0.000003,-0.000038,20175.000000,1692010467.616536,0.730743,-1.570003,-0.000048,0.099886,0.000153,-0.002743,,,,,,,,,
1692010467.636956,,,,,,,,,,,,,,,,,,,,,,,,,,,,,,,,,,,,,,,,,,,39467.000000,1692010467.622213,0.000000,0.000000,0.000000,0.000000,0.000000,0.000000
1692010467.645444,,,,,,,,,,,,,,,,,,,,,,,,,,,,,,,,,,,,,,,,,,,39468.000000,1692010467.634614,0.000000,0.000000,0.000000,0.000000,0.000000,0.000000
1692010467.651569,1.650075,-0.029869,-0.000131,-73.635930,0.009999,0.000344,0.000000,0.000000,-0.000046,-0.002697,-0.511538,-0.000653,0.016182,3.052562,-0.000653,1.280640,2.944814,-0.004366,-1.924000,-0.051363,0.014000,-0.000817,1.406363,0.000000,-1.893000,-0.046363,0.004000,0.088320,0.000015,0.000138,-1.419429,-0.000003,-0.000038,20176.000000,1692010467.636534,0.720229,-1.570003,-0.000048,0.094629,0.000153,-0.000048,,,,,,,,,
1692010467.655435,,,,,,,,,,,,,,,,,,,,,,,,,,,,,,,,,,,,,,,,,,,39469.000000,1692010467.642783,0.000000,0.000000,0.000000,0.000000,0.000000,0.000000
1692010467.660193,,,,,,,,,,,,,,,,,,,,,,,,,,,,,,,,,,,,,,,,,,0.000000,,,,,,,,
1692010467.663124,,,,,,,,,,,,,,,,,,,,,,,,,,,,,,,,,,,,,,,,,,,39470.000000,1692010467.652185,0.000000,0.000000,0.000000,0.000000,0.000000,0.000000
1692010467.668592,0.873569,-0.030253,0.000753,-74.218032,0.009999,0.000015,0.121440,0.000000,-0.000046,0.000000,-0.511538,-0.000653,0.013485,3.052562,-0.000653,1.181280,2.944803,-0.009979,-1.922000,-0.052364,0.008999,-0.000408,1.406363,-0.002363,-1.889000,-0.044364,-0.001000,0.016560,0.000015,0.000138,-1.518000,-0.000003,-0.000038,20177.000000,1692010467.656542,0.725486,-1.570003,-0.000048,0.199771,0.000153,-0.000048,,,,,,,,,
1692010467.674342,,,,,,,,,,,,,,,,,,,,,,,,,,,,,,,,,,,,,,,,,,,39471.000000,1692010467.664920,0.000000,0.000000,0.000000,0.000000,0.000000,0.000000
1692010467.688362,,,,,,,,,,,,,,,,,,,,,,,,,,,,,,,,,,,,,,,,,,,39472.000000,1692010467.672284,0.000000,0.000000,0.000000,0.000000,0.000000,0.000000
1692010467.688632,0.905923,-0.030253,0.001143,-74.218032,0.009999,0.000008,0.126960,0.000000,-0.000046,0.000000,-0.511538,-0.000653,0.016182,3.052562,-0.000653,1.689120,2.944814,0.004408,-1.922000,-0.052364,0.008000,-0.001225,1.406363,-0.002363,-1.891000,-0.047364,-0.001000,0.046000,0.000015,0.000138,-1.498286,-0.000003,-0.000038,20178.000000,1692010467.676535,0.641371,-1.570003,-0.000048,0.199771,0.000153,-0.000048,,,,,,,,,
1692010467.697447,,,,,,,,,,,,,,,,,,,,,,,,,,,,,,,,,,,,,,,,,,,39473.000000,1692010467.682347,0.000000,0.000000,0.000000,0.000000,0.000000,0.000000
1692010467.708780,,,,,,,,,,,,,,,,,,,,,,,,,,,,,,,,,,,,,,,,,,,39474.000000,1692010467.692175,0.000000,0.000000,0.000000,0.000000,0.000000,0.000000
1692010467.708798,0.517670,-0.029869,-0.000044,-74.509083,0.009999,0.000008,-0.005520,0.000000,-0.000046,-0.002697,-0.511538,-0.000653,0.010788,3.052562,-0.000653,1.357920,2.944803,-0.003099,-1.922000,-0.051954,0.003000,0.000408,1.406954,-0.002363,-1.891000,-0.045955,-0.008999,0.025760,0.000015,0.000138,-1.353714,-0.000003,-0.000038,20179.000000,1692010467.696535,0.762286,-1.570003,-0.000048,0.152457,0.000153,-0.000048,,,,,,,,,
1692010467.711021,,,,,,,,,,,,,,,,,,,,,,,,,,,,,,,,,,,,,,,,,,,39475.000000,1692010467.702187,0.000000,0.000000,0.000000,0.000000,0.000000,0.000000
1692010467.728457,,,,,,,,,,,,,,,,,,,,,,,,,,,,,,,,,,,,,,,,,,,39476.000000,1692010467.717599,0.000000,0.000000,0.000000,0.000000,0.000000,0.000000
1692010467.738783,1.148581,-0.029869,-0.000256,-74.509083,0.009999,0.000008,0.110400,0.000000,-0.000046,0.000000,-0.511538,-0.000653,0.018879,3.052562,-0.000653,1.192320,2.944814,0.001487,-1.922000,-0.052955,0.002000,-0.001637,1.406954,0.000590,-1.888000,-0.043954,0.001000,0.082800,0.000015,0.000138,-1.432571,0.000002,0.000038,20180.000000,1692010467.716543,0.730743,-1.570003,-0.000048,0.099886,0.000153,-0.000048,,,,,,,,,
1692010467.744165,,,,,,,,,,,,,,,,,,,,,,,,,,,,,,,,,,,,,,,,,,,39477.000000,1692010467.722804,0.000000,0.000000,0.000000,0.000000,0.000000,0.000000
1692010467.748836,1.116227,-0.029869,-0.000068,-74.218032,0.009999,0.000008,0.060720,0.000005,0.000046,-0.002697,-0.511538,-0.000653,0.018879,3.052562,-0.000653,1.247520,2.944814,0.001193,-1.924000,-0.053546,0.002000,0.000000,1.407545,0.000590,-1.888000,-0.044545,0.014999,0.000000,0.000015,0.000138,-1.334000,0.000002,0.000038,20181.000000,1692010467.726551,0.651886,-1.570003,-0.000048,0.105143,0.000153,-0.000048,,,,,,,,,
1692010467.753061,,,,,,,,,,,,,,,,,,,,,,,,,,,,,,,,,,,,,,,,,,,39479.000000,1692010467.742508,0.000000,0.000000,0.000000,0.000000,0.000000,0.000000
1692010467.770010,,,,,,,,,,,,,,,,,,,,,,,,,,,,,,,,,,,,,,,,,,,39480.000000,1692010467.753901,0.000000,0.000000,0.000000,0.000000,0.000000,0.000000
1692010467.773773,0.679443,-0.029869,-0.000208,-74.509083,0.009999,0.000008,0.126960,0.000005,0.000046,-0.002697,-0.511538,-0.000653,0.016182,3.052562,-0.000653,1.589760,2.944814,0.004586,-1.924000,-0.053954,0.002000,0.000817,1.406954,0.000000,-1.888000,-0.045955,0.009999,0.112240,0.000015,0.000138,-1.557429,0.000002,0.000038,20182.000000,1692010467.756541,0.651886,-1.570003,-0.000048,0.120914,0.000153,-0.000048,,,,,,,,,
1692010467.776077,,,,,,,,,,,,,,,,,,,,,,,,,,,,,,,,,,,,,,,,,,0.000000,,,,,,,,
1692010467.776691,,,,,,,,,,,,,,,,,,,,,,,,,,,,,,,,,,,,,,,,,,,39481.000000,1692010467.763801,0.000000,0.000000,0.000000,0.000000,0.000000,0.000000
1692010467.787233,,,,,,,,,,,,,,,,,,,,,,,,,,,,,,,,,,,,,,,,,,,39482.000000,1692010467.772273,0.000000,0.000000,0.000000,0.000000,0.000000,0.000000
1692010467.791586,0.663265,-0.029869,-0.001494,-74.218032,0.009999,0.000008,0.121440,0.000005,0.000046,-0.005394,-0.511538,-0.000653,0.013485,3.052562,-0.000653,1.313760,2.944824,0.006576,-1.924000,-0.053546,-0.003000,0.000817,1.407545,0.002363,-1.888000,-0.047545,0.004999,-0.031280,0.000015,0.000138,-1.524571,0.000002,0.000038,20183.000000,1692010467.776541,0.709714,-1.570003,-0.000048,0.178743,0.000153,-0.000048,,,,,,,,,
1692010467.796063,,,,,,,,,,,,,,,,,,,,,,,,,,,,,,,,,,,,,,,,,,,39483.000000,1692010467.782415,0.000000,0.000000,0.000000,0.000000,0.000000,0.000000
1692010467.808342,,,,,,,,,,,,,,,,,,,,,,,,,,,,,,,,,,,,,,,,,,,39484.000000,1692010467.792234,0.000000,0.000000,0.000000,0.000000,0.000000,0.000000
1692010467.811127,0.080886,-0.029485,-0.000230,-74.800134,0.009999,0.000008,-0.038640,0.000005,0.000046,0.002697,-0.511538,-0.000653,0.010788,3.052562,-0.000653,1.479360,2.944824,0.008314,-1.924000,-0.053546,0.002000,-0.000408,1.407545,0.002363,-1.889000,-0.047545,0.000000,0.077280,0.000015,0.000138,-1.412857,0.000002,0.000038,20184.000000,1692010467.796535,0.683429,-1.570003,-0.000048,0.157714,0.000153,-0.000048,,,,,,,,,
1692010467.818872,,,,,,,,,,,,,,,,,,,,,,,,,,,,,,,,,,,,,,,,,,,39485.000000,1692010467.802396,0.000000,0.000000,0.000000,0.000000,0.000000,0.000000
1692010467.821226,,,,,,,,,,,,,,,,,,,,,,,,,,,,,,,,,,,,,,,,,,,39486.000000,1692010467.812281,0.000000,0.000000,0.000000,0.000000,0.000000,0.000000
1692010467.829014,0.064709,-0.029869,0.000169,-74.800134,0.009999,0.000008,0.082800,0.000005,0.000046,-0.005394,-0.511538,-0.000653,0.016182,3.052562,-0.000653,1.391040,2.944824,0.009707,-1.921000,-0.052137,0.010999,0.001225,1.408136,0.004727,-1.888000,-0.046137,0.008999,0.040480,0.000015,0.000138,-1.472000,0.000002,0.000038,20185.000000,1692010467.816535,0.799086,-1.570003,-0.000048,0.068343,0.000153,-0.000048,,,,,,,,,
1692010467.836056,,,,,,,,,,,,,,,,,,,,,,,,,,,,,,,,,,,,,,,,,,,39487.000000,1692010467.822289,0.000000,0.000000,0.000000,0.000000,0.000000,0.000000
1692010467.845648,,,,,,,,,,,,,,,,,,,,,,,,,,,,,,,,,,,,,,,,,,,39488.000000,1692010467.832306,0.000000,0.000000,0.000000,0.000000,0.000000,0.000000
1692010467.846194,0.323544,-0.029869,-0.000086,-74.800134,0.009999,0.000008,0.071760,0.000005,0.000046,-0.005394,-0.511538,-0.000653,0.018879,3.052562,-0.000653,1.545600,2.944803,-0.003560,-1.919000,-0.051546,0.010999,-0.000817,1.407545,0.001772,-1.888000,-0.045546,0.008999,0.044160,0.000015,0.000138,-1.432571,0.000002,0.000038,20186.000000,1692010467.836538,0.730743,-1.570003,-0.000048,0.068343,0.000153,-0.000048,,,,,,,,,
1692010467.860568,,,,,,,,,,,,,,,,,,,,,,,,,,,,,,,,,,,,,,,,,,,39489.000000,1692010467.842943,0.000000,0.000000,0.000000,0.000000,0.000000,0.000000
1692010467.867282,0.889746,-0.030253,-0.000700,-75.091185,0.009999,0.000008,-0.016560,0.000005,0.000046,-0.005394,-0.511538,-0.000653,0.010788,3.052562,-0.000653,1.203360,2.944814,0.000691,-1.917000,-0.049955,0.014999,0.000408,1.406954,0.001772,-1.889000,-0.046954,0.013000,0.016560,0.000015,0.000138,-1.557429,0.000002,0.000038,20187.000000,1692010467.856537,0.825371,-1.570003,-0.000048,0.057829,0.000153,-0.000048,,,,,,,,,
1692010467.872816,,,,,,,,,,,,,,,,,,,,,,,,,,,,,,,,,,,,,,,,,,,39491.000000,1692010467.862467,0.000000,0.000000,0.000000,0.000000,0.000000,0.000000
1692010467.884134,,,,,,,,,,,,,,,,,,,,,,,,,,,,,,,,,,,,,,,,,,0.000000,,,,,,,,
1692010467.884146,,,,,,,,,,,,,,,,,,,,,,,,,,,,,,,,,,,,,,,,,,,39492.000000,1692010467.872406,0.000000,0.000000,0.000000,0.000000,0.000000,0.000000
1692010467.892074,0.048532,-0.029869,-0.001435,-74.800134,0.009999,0.000008,0.011040,0.000005,0.000046,-0.002697,-0.511538,-0.000653,0.008091,3.052562,-0.000653,1.457280,2.944814,0.003183,-1.922000,-0.054545,0.014999,0.000408,1.407545,-0.001181,-1.889000,-0.047545,-0.006000,0.034960,0.000015,0.000138,-1.511429,0.000002,0.000038,20188.000000,1692010467.876537,0.804343,-1.570003,-0.000048,0.110400,0.000153,-0.000048,,,,,,,,,
1692010467.892679,,,,,,,,,,,,,,,,,,,,,,,,,,,,,,,,,,,,,,,,,,,39493.000000,1692010467.882535,0.000000,0.000000,0.000000,0.000000,0.000000,0.000000
1692010467.903265,,,,,,,,,,,,,,,,,,,,,,,,,,,,,,,,,,,,,,,,,,,39494.000000,1692010467.892288,0.000000,0.000000,0.000000,0.000000,0.000000,0.000000
1692010467.910006,0.922101,-0.029869,-0.000840,-75.091185,0.009999,0.000008,0.016560,0.000005,0.000046,-0.002697,-0.511538,-0.000653,0.010788,3.052562,-0.000653,1.567680,2.944803,-0.003487,-1.922000,-0.052137,-0.014000,-0.000817,1.408136,0.001772,-1.889000,-0.047137,0.008999,0.090160,0.000015,0.000138,-1.544286,0.000002,0.000038,20189.000000,1692010467.896544,0.657143,-1.570003,-0.000048,0.099886,0.000153,-0.000048,,,,,,,,,
1692010467.917866,,,,,,,,,,,,,,,,,,,,,,,,,,,,,,,,,,,,,,,,,,,39495.000000,1692010467.902208,0.000000,0.000000,0.000000,0.000000,0.000000,0.000000
1692010467.922034,,,,,,,,,,,,,,,,,,,,,,,,,,,,,,,,,,,,,,,,,,,39496.000000,1692010467.912291,0.000000,0.000000,0.000000,0.000000,0.000000,0.000000
1692010467.936261,,,,,,,,,,,,,,,,,,,,,,,,,,,,,,,,,,,,,,,,,,,39497.000000,1692010467.922443,0.000000,0.000000,0.000000,0.000000,0.000000,0.000000
1692010467.939635,0.339721,-0.029869,-0.000240,-75.091185,0.009999,0.000008,-0.022080,0.000005,0.000046,-0.008091,-0.511538,-0.000653,0.010788,3.052562,-0.000653,1.479360,2.944814,0.006576,-1.922000,-0.053136,0.010999,0.000408,1.408136,0.006499,-1.891000,-0.048136,-0.001000,0.023920,0.000015,0.000138,-1.360286,0.000002,0.000038,20190.000000,1692010467.916550,0.704457,-1.570003,-0.000048,0.147200,0.000153,-0.000048,,,,,,,,,
1692010467.953646,,,,,,,,,,,,,,,,,,,,,,,,,,,,,,,,,,,,,,,,,,,39498.000000,1692010467.932923,0.000000,0.000000,0.000000,0.000000,0.000000,0.000000
1692010467.954987,-0.080886,-0.029869,0.000331,-75.382236,0.009999,0.000008,-0.060720,0.000005,0.000046,-0.005394,-0.511538,-0.000653,0.008091,3.052562,-0.000653,1.203360,2.944814,0.001413,-1.922000,-0.052545,0.006000,0.000817,1.407545,0.003545,-1.891000,-0.047545,-0.001000,0.014720,0.000015,0.000138,-1.518000,0.000002,0.000038,20191.000000,1692010467.936544,0.678171,-1.570003,-0.000048,0.178743,0.000153,-0.000048,,,,,,,,,
1692010467.962741,,,,,,,,,,,,,,,,,,,,,,,,,,,,,,,,,,,,,,,,,,,39499.000000,1692010467.942176,0.000000,0.000000,0.000000,0.000000,0.000000,0.000000
1692010467.968865,0.129418,-0.029869,0.000094,-75.091185,0.009999,0.000008,-0.077280,0.000005,0.000046,-0.002697,-0.511538,-0.000653,0.010788,3.052562,-0.000653,1.170240,2.944803,-0.000471,-1.925000,-0.054545,0.006000,-0.000817,1.407545,0.000590,-1.891000,-0.047545,-0.001000,0.007360,0.000015,0.000138,-1.380000,0.000002,0.000038,20192.000000,1692010467.956538,0.877943,-1.570003,-0.000048,0.147200,0.000153,-0.000048,,,,,,,,,
1692010467.970385,,,,,,,,,,,,,,,,,,,,,,,,,,,,,,,,,,,,,,,,,,,39501.000000,1692010467.964692,0.000000,0.000000,0.000000,0.000000,0.000000,0.000000
1692010467.983049,,,,,,,,,,,,,,,,,,,,,,,,,,,,,,,,,,,,,,,,,,,39502.000000,1692010467.972289,0.000000,0.000000,0.000000,0.000000,0.000000,0.000000
1692010467.990176,0.339721,-0.029869,-0.000036,-75.091185,0.009999,0.000008,-0.088320,0.000005,0.000046,0.002697,-0.511538,-0.000653,0.018879,3.052562,-0.000653,1.490400,2.944814,0.002816,-1.927000,-0.054545,-0.013000,0.001225,1.407545,0.000590,-1.891000,-0.047545,-0.001000,0.042320,0.000015,0.000138,-1.472000,0.000002,0.000038,20193.000000,1692010467.976537,0.793829,-1.570003,-0.000048,0.084114,0.000153,-0.000048,,,,,,,,,
1692010467.991159,,,,,,,,,,,,,,,,,,,,,,,,,,,,,,,,,,,,,,,,,,0.000000,,,,,,,,
1692010467.993933,,,,,,,,,,,,,,,,,,,,,,,,,,,,,,,,,,,,,,,,,,,39503.000000,1692010467.982202,0.000000,0.000000,0.000000,0.000000,0.000000,0.000000
1692010468.003554,,,,,,,,,,,,,,,,,,,,,,,,,,,,,,,,,,,,,,,,,,,39504.000000,1692010467.992445,0.000000,0.000000,0.000000,0.000000,0.000000,0.000000
1692010468.005280,0.355898,-0.029869,-0.000153,-75.382236,0.009999,0.000008,-0.154560,0.000000,-0.000046,-0.005394,-0.511538,-0.000653,0.016182,3.052562,-0.000653,1.291680,2.944803,-0.004209,-1.929000,-0.055546,-0.003000,0.000408,1.407545,0.000590,-1.896000,-0.049545,-0.009999,0.062560,0.000015,0.000138,-1.485143,0.000002,0.000038,20194.000000,1692010467.996549,0.746514,-1.570003,-0.000048,0.110400,0.000153,-0.000048,,,,,,,,,
1692010468.017184,,,,,,,,,,,,,,,,,,,,,,,,,,,,,,,,,,,,,,,,,,,39505.000000,1692010468.002677,0.000000,0.000000,0.000000,0.000000,0.000000,0.000000
1692010468.026022,,,,,,,,,,,,,,,,,,,,,,,,,,,,,,,,,,,,,,,,,,,39506.000000,1692010468.012381,0.000000,0.000000,0.000000,0.000000,0.000000,0.000000
1692010468.026038,0.242658,-0.029869,-0.000605,-75.382236,0.009999,0.000008,-0.022080,0.000000,-0.000046,-0.002697,-0.511538,-0.000653,0.016182,3.052562,-0.000653,1.192320,2.944814,0.000764,-1.927000,-0.054137,0.003000,0.001637,1.408136,0.002954,-1.896000,-0.049137,-0.014000,0.046000,0.000015,0.000138,-1.504857,0.000002,0.000038,20195.000000,1692010468.016539,0.783314,-1.570003,-0.000048,0.168229,0.000153,-0.000048,,,,,,,,,
1692010468.037545,,,,,,,,,,,,,,,,,,,,,,,,,,,,,,,,,,,,,,,,,,,39507.000000,1692010468.022691,0.000000,0.000000,0.000000,0.000000,0.000000,0.000000
1692010468.041437,,,,,,,,,,,,,,,,,,,,,,,,,,,,,,,,,,,,,,,,,,,39508.000000,1692010468.032525,0.000000,0.000000,0.000000,0.000000,0.000000,0.000000
1692010468.051721,2.426580,-0.030253,0.001470,-75.382236,0.009999,0.000008,-0.027600,0.000000,-0.000046,-0.002697,-0.511538,-0.000653,0.016182,3.052562,-0.000653,1.656000,2.944814,0.003853,-1.927000,-0.053546,0.003000,0.002454,1.407545,0.000000,-1.893000,-0.047545,-0.008000,0.034960,0.000015,0.000138,-1.734857,0.000002,0.000038,20196.000000,1692010468.036537,0.820114,-1.570003,-0.000048,0.084114,0.000153,-0.000048,,,,,,,,,
1692010468.053270,,,,,,,,,,,,,,,,,,,,,,,,,,,,,,,,,,,,,,,,,,,39509.000000,1692010468.042370,0.000000,0.000000,0.000000,0.000000,0.000000,0.000000
1692010468.065812,,,,,,,,,,,,,,,,,,,,,,,,,,,,,,,,,,,,,,,,,,,39510.000000,1692010468.052453,0.000000,0.000000,0.000000,0.000000,0.000000,0.000000
1692010468.071313,0.598556,-0.029869,-0.001553,-75.382236,0.009999,0.000008,-0.110400,0.000000,-0.000046,-0.002697,-0.511538,-0.000653,0.010788,3.052562,-0.000653,1.424160,2.944814,-0.000911,-1.925000,-0.053546,0.003000,0.000000,1.407545,0.000000,-1.891000,-0.047545,0.006000,0.022080,0.000015,0.000138,-1.557429,0.000002,0.000038,20197.000000,1692010468.056541,0.751771,-1.570003,-0.000048,0.047314,0.000153,-0.000048,,,,,,,,,
1692010468.080595,,,,,,,,,,,,,,,,,,,,,,,,,,,,,,,,,,,,,,,,,,,39511.000000,1692010468.062849,0.000000,0.000000,0.000000,0.000000,0.000000,0.000000
1692010468.085921,0.339721,-0.029869,-0.000133,-75.382236,0.009999,0.000008,-0.055200,0.000000,-0.000046,0.000000,-0.511538,-0.000653,0.016182,3.052562,-0.000653,1.357920,2.944814,-0.000565,-1.924000,-0.052545,0.003000,0.000817,1.407545,0.000000,-1.886000,-0.044545,0.001000,0.023920,0.000015,0.000138,-1.504857,-0.000003,-0.000876,20198.000000,1692010468.066548,0.841143,-1.570003,-0.000048,0.047314,0.000153,-0.000048,,,,,,,,,
1692010468.088427,,,,,,,,,,,,,,,,,,,,,,,,,,,,,,,,,,,,,,,,,,,39513.000000,1692010468.082261,0.000000,0.000000,0.000000,0.000000,0.000000,0.000000
1692010468.095946,,,,,,,,,,,,,,,,,,,,,,,,,,,,,,,,,,,,,,,,,,0.000000,,,,,,,,
1692010468.100790,,,,,,,,,,,,,,,,,,,,,,,,,,,,,,,,,,,,,,,,,,,39514.000000,1692010468.092422,0.000000,0.000000,0.000000,0.000000,0.000000,0.000000
1692010468.109900,0.291190,-0.029869,-0.000407,-75.673288,0.009999,0.000008,-0.022080,0.000000,-0.000046,-0.005394,-0.511538,-0.000653,0.016182,3.052562,-0.000653,1.402080,2.944824,0.003979,-1.922000,-0.050364,0.010999,0.000408,1.406363,0.000000,-1.888000,-0.044364,0.008999,0.058880,0.000015,0.000138,-1.656000,-0.000003,-0.000038,20199.000000,1692010468.096547,0.699200,-1.570003,-0.000048,0.078857,0.000153,-0.000075,,,,,,,,,
1692010468.109931,,,,,,,,,,,,,,,,,,,,,,,,,,,,,,,,,,,,,,,,,,,39515.000000,1692010468.103192,0.000000,0.000000,0.000000,0.000000,0.000000,0.000000
1692010468.122660,,,,,,,,,,,,,,,,,,,,,,,,,,,,,,,,,,,,,,,,,,,39516.000000,1692010468.112331,0.000000,0.000000,0.000000,0.000000,0.000000,0.000000
1692010468.127862,1.860378,-0.030253,0.000018,-75.673288,0.009999,0.000008,-0.049680,0.000000,-0.000046,-0.008091,-0.511538,-0.000653,0.016182,3.052562,-0.000653,1.611840,2.944814,-0.001068,-1.924000,-0.052955,0.001000,0.001225,1.406954,-0.002363,-1.889000,-0.045955,-0.001000,0.068080,0.000015,0.000138,-1.485143,-0.000003,-0.000038,20200.000000,1692010468.116534,0.751771,-1.570003,-0.000048,0.047314,0.000153,-0.000048,,,,,,,,,
1692010468.133387,,,,,,,,,,,,,,,,,,,,,,,,,,,,,,,,,,,,,,,,,,,39517.000000,1692010468.122750,0.000000,0.000000,0.000000,0.000000,0.000000,0.000000
1692010468.143315,,,,,,,,,,,,,,,,,,,,,,,,,,,,,,,,,,,,,,,,,,,39518.000000,1692010468.132327,0.000000,0.000000,0.000000,0.000000,0.000000,0.000000
1692010468.151622,0.436784,-0.029869,-0.000240,-75.382236,0.009999,0.000008,-0.038640,0.000000,-0.000046,-0.008091,-0.511538,-0.000653,0.013485,3.052562,-0.000653,1.357920,2.944814,-0.000356,-1.924000,-0.051773,0.001000,0.000000,1.405772,-0.004727,-1.886000,-0.044773,0.004000,0.025760,0.000015,0.000138,-1.518000,-0.000003,-0.000038,20201.000000,1692010468.136543,0.867429,-1.569998,0.000048,0.099886,0.000153,-0.000048,,,,,,,,,
1692010468.152555,,,,,,,,,,,,,,,,,,,,,,,,,,,,,,,,,,,,,,,,,,,39519.000000,1692010468.142141,0.000000,0.000000,0.000000,0.000000,0.000000,0.000000
1692010468.162464,,,,,,,,,,,,,,,,,,,,,,,,,,,,,,,,,,,,,,,,,,,39520.000000,1692010468.152308,0.000000,0.000000,0.000000,0.000000,0.000000,0.000000
1692010468.168440,0.113240,-0.029869,-0.000214,-73.926981,0.009999,0.000233,-0.060720,0.000000,-0.000046,0.000000,-0.511538,-0.000653,0.010788,3.052562,-0.000653,1.402080,2.944824,0.002858,-1.924000,-0.052955,-0.004000,-0.000408,1.406954,-0.004136,-1.886000,-0.044955,0.008000,0.044160,0.000015,0.000138,-1.439143,-0.000003,-0.000038,20202.000000,1692010468.156537,0.751771,-1.569998,0.000048,0.226057,0.000153,-0.000048,,,,,,,,,
1692010468.173368,,,,,,,,,,,,,,,,,,,,,,,,,,,,,,,,,,,,,,,,,,,39521.000000,1692010468.162457,0.000000,0.000000,0.000000,0.000000,0.000000,0.000000
1692010468.184097,,,,,,,,,,,,,,,,,,,,,,,,,,,,,,,,,,,,,,,,,,,39522.000000,1692010468.172191,0.000000,0.000000,0.000000,0.000000,0.000000,0.000000
1692010468.186554,-0.048532,-0.029869,-0.000725,-74.218032,0.009999,0.000008,0.016560,0.000000,-0.000046,0.000000,-0.511538,-0.000653,0.016182,3.052562,-0.000653,1.368960,2.944814,-0.000722,-1.929000,-0.055546,0.004999,0.000408,1.407545,0.001772,-1.889000,-0.047545,0.003000,0.014720,0.000015,0.000138,-1.518000,-0.000003,-0.000038,20203.000000,1692010468.176546,0.730743,-1.569998,0.000048,0.210286,0.000153,-0.000048,,,,,,,,,
1692010468.188552,,,,,,,,,,,,,,,,,,,,,,,,,,,,,,,,,,,,,,,,,,,39523.000000,1692010468.182188,0.000000,0.000000,0.000000,0.000000,0.000000,0.000000
1692010468.201937,,,,,,,,,,,,,,,,,,,,,,,,,,,,,,,,,,,,,,,,,,,39524.000000,1692010468.192370,0.000000,0.000000,0.000000,0.000000,0.000000,0.000000
1692010468.203768,0.113240,-0.029869,0.000036,-73.053828,0.009999,0.000131,-0.099360,0.000000,-0.000046,-0.002697,-0.511538,-0.000653,0.010788,3.052562,-0.000653,1.656000,2.944814,-0.001507,-1.925000,-0.053546,-0.009999,0.000817,1.407545,0.001772,-1.889000,-0.047545,-0.002000,0.055200,0.000015,0.000138,-1.478571,-0.000003,-0.000038,20204.000000,1692010468.186545,0.688686,-1.569998,0.000048,0.194514,0.000153,-0.000048,,,,,,,,,
1692010468.206973,,,,,,,,,,,,,,,,,,,,,,,,,,,,,,,,,,,,,,,,,,0.000000,,,,,,,,
1692010468.210049,,,,,,,,,,,,,,,,,,,,,,,,,,,,,,,,,,,,,,,,,,,39525.000000,1692010468.202319,0.000000,0.000000,0.000000,0.000000,0.000000,0.000000
1692010468.221312,,,,,,,,,,,,,,,,,,,,,,,,,,,,,,,,,,,,,,,,,,,39526.000000,1692010468.212399,0.000000,0.000000,0.000000,0.000000,0.000000,0.000000
1692010468.227719,0.533848,-0.030253,-0.000018,-73.344879,0.009999,0.000008,0.011040,0.000000,-0.000046,-0.010788,-0.511538,-0.000653,0.013485,3.052562,-0.000653,1.313760,2.944814,0.000094,-1.934000,-0.057137,-0.009999,-0.000408,1.408136,0.004136,-1.888000,-0.045136,-0.002000,0.014720,0.000015,0.000138,-1.452286,-0.000003,-0.000038,20205.000000,1692010468.216535,0.767543,-1.569998,0.000048,0.236571,0.000153,-0.000048,,,,,,,,,
1692010468.232778,,,,,,,,,,,,,,,,,,,,,,,,,,,,,,,,,,,,,,,,,,,39527.000000,1692010468.222200,0.000000,0.000000,0.000000,0.000000,0.000000,0.000000
1692010468.245795,,,,,,,,,,,,,,,,,,,,,,,,,,,,,,,,,,,,,,,,,,,39528.000000,1692010468.232651,0.000000,0.000000,0.000000,0.000000,0.000000,0.000000
1692010468.253242,0.194126,-0.029869,0.000361,-73.635930,0.009999,0.000008,0.027600,0.000000,-0.000046,-0.002697,-0.511538,-0.000653,0.018879,3.052562,-0.000653,1.302720,2.944814,0.000848,-1.932000,-0.055546,-0.014000,-0.002454,1.407545,0.001181,-1.888000,-0.045546,0.008000,0.040480,0.000015,0.000138,-1.445714,-0.000003,-0.000038,20206.000000,1692010468.236539,0.809600,-1.569998,0.000048,0.168229,0.000153,-0.000048,,,,,,,,,
1692010468.260401,,,,,,,,,,,,,,,,,,,,,,,,,,,,,,,,,,,,,,,,,,,39529.000000,1692010468.243387,0.000000,0.000000,0.000000,0.000000,0.000000,0.000000
1692010468.284043,,,,,,,,,,,,,,,,,,,,,,,,,,,,,,,,,,,,,,,,,,,39530.000000,1692010468.252272,0.000000,0.000000,0.000000,0.000000,0.000000,0.000000
1692010468.284060,0.226481,-0.029869,-0.000278,-73.344879,0.009999,0.000008,0.016560,0.000000,-0.000046,-0.005394,-0.511538,-0.000653,0.008091,3.052562,-0.000653,1.346880,2.944814,-0.000094,-1.932000,-0.054545,-0.004000,0.000817,1.407545,0.001181,-1.891000,-0.048546,-0.002000,0.012880,0.000015,0.000138,-1.504857,-0.000003,-0.000038,20207.000000,1692010468.256538,0.725486,-1.569998,0.000048,0.052571,0.000153,-0.000053,,,,,,,,,
1692010468.287470,,,,,,,,,,,,,,,,,,,,,,,,,,,,,,,,,,,,,,,,,,,39531.000000,1692010468.264467,0.000000,0.000000,0.000000,0.000000,0.000000,0.000000
1692010468.297504,0.485316,-0.030253,0.000904,-73.344879,0.009999,0.000008,-0.110400,0.000000,-0.000046,-0.005394,-0.511538,-0.000653,0.016182,3.052562,-0.000653,1.324800,2.944814,-0.000094,-1.934000,-0.055955,-0.008000,-0.000408,1.406954,0.001181,-1.891000,-0.047955,-0.006000,-0.007360,0.000015,0.000138,-1.485143,-0.000003,-0.000038,20208.000000,1692010468.276536,0.746514,-1.569998,0.000048,0.021029,0.000153,-0.000048,,,,,,,,,
1692010468.297524,,,,,,,,,,,,,,,,,,,,,,,,,,,,,,,,,,,,,,,,,,,39533.000000,1692010468.282404,0.000000,0.000000,0.000000,0.000000,0.000000,0.000000
1692010468.309094,,,,,,,,,,,,,,,,,,,,,,,,,,,,,,,,,,,,,,,,,,,39534.000000,1692010468.292281,0.000000,0.000000,0.000000,0.000000,0.000000,0.000000
1692010468.319110,0.323544,-0.029869,-0.000278,-73.635930,0.009999,0.000008,0.005520,0.000000,-0.000046,0.002697,-0.511538,-0.000653,0.010788,3.052562,-0.000653,1.291680,2.944814,-0.000188,-1.939000,-0.059954,-0.030999,-0.001225,1.406954,-0.001772,-1.891000,-0.047955,-0.006000,0.062560,0.000015,0.000138,-1.419429,-0.000003,-0.000038,20209.000000,1692010468.296538,0.762286,-1.569998,0.000048,0.131429,0.000153,-0.000048,,,,,,,,,
1692010468.322532,,,,,,,,,,,,,,,,,,,,,,,,,,,,,,,,,,,,,,,,,,,39535.000000,1692010468.307143,0.000000,0.000000,0.000000,0.000000,0.000000,0.000000
1692010468.322544,,,,,,,,,,,,,,,,,,,,,,,,,,,,,,,,,,,,,,,,,,0.000000,,,,,,,,
1692010468.330521,,,,,,,,,,,,,,,,,,,,,,,,,,,,,,,,,,,,,,,,,,,39536.000000,1692010468.312294,0.000000,0.000000,0.000000,0.000000,0.000000,0.000000
1692010468.331984,0.679443,-0.029869,-0.000199,-73.635930,0.009999,0.000008,0.033120,0.000000,-0.000046,0.002697,-0.511538,-0.000653,0.016182,3.052562,-0.000653,1.457280,2.944824,0.007414,-1.939000,-0.059137,-0.028999,0.000408,1.408136,0.004136,-1.889000,-0.047137,0.008999,-0.003680,0.000015,0.000138,-1.419429,-0.000003,-0.000038,20210.000000,1692010468.316534,0.799086,-1.569998,0.000048,0.057829,0.000153,-0.003038,,,,,,,,,
1692010468.335517,,,,,,,,,,,,,,,,,,,,,,,,,,,,,,,,,,,,,,,,,,,39537.000000,1692010468.322802,0.000000,0.000000,0.000000,0.000000,0.000000,0.000000
1692010468.344191,,,,,,,,,,,,,,,,,,,,,,,,,,,,,,,,,,,,,,,,,,,39538.000000,1692010468.332415,0.000000,0.000000,0.000000,0.000000,0.000000,0.000000
1692010468.354837,0.000000,-0.029869,0.000151,-73.926981,0.009999,0.000008,-0.011040,0.000000,-0.000046,-0.002697,-0.511538,-0.000653,0.016182,3.052562,-0.000653,0.861120,2.944803,-0.007843,-1.937000,-0.057137,-0.008000,-0.000817,1.408136,0.004136,-1.891000,-0.048136,0.004000,0.082800,0.000015,0.000138,-1.478571,-0.000003,-0.000038,20211.000000,1692010468.336540,0.746514,-1.569998,0.000048,0.120914,0.000153,-0.008482,,,,,,,,,
1692010468.364332,,,,,,,,,,,,,,,,,,,,,,,,,,,,,,,,,,,,,,,,,,,39539.000000,1692010468.342635,0.000000,0.000000,0.000000,0.000000,0.000000,0.000000
1692010468.380253,,,,,,,,,,,,,,,,,,,,,,,,,,,,,,,,,,,,,,,,,,,39540.000000,1692010468.352274,0.000000,0.000000,0.000000,0.000000,0.000000,0.000000
1692010468.383059,0.404430,-0.030253,0.000957,-73.926981,0.009999,0.000008,-0.038640,0.000000,-0.000046,-0.005394,-0.511538,-0.000653,0.010788,3.052562,-0.000653,1.391040,2.944803,-0.002293,-1.934000,-0.055955,-0.008000,0.000000,1.406954,0.001181,-1.889000,-0.045955,-0.001000,0.016560,0.000015,0.000138,-1.334000,-0.000003,-0.000038,20212.000000,1692010468.356538,0.746514,-1.569998,0.000048,0.141943,0.000153,-0.008423,,,,,,,,,
1692010468.386885,,,,,,,,,,,,,,,,,,,,,,,,,,,,,,,,,,,,,,,,,,,39541.000000,1692010468.362389,0.000000,0.000000,0.000000,0.000000,0.000000,0.000000
1692010468.394773,,,,,,,,,,,,,,,,,,,,,,,,,,,,,,,,,,,,,,,,,,,39543.000000,1692010468.382155,0.000000,0.000000,0.000000,0.000000,0.000000,0.000000
1692010468.400413,2.361872,-0.030253,0.000638,-73.926981,0.009999,0.000008,0.027600,0.000000,-0.000046,0.002697,-0.511538,-0.000653,0.013485,3.052562,-0.000653,1.203360,2.944814,0.000963,-1.932000,-0.052955,0.007000,0.000408,1.406954,-0.001772,-1.888000,-0.044955,0.008000,0.042320,0.000015,0.000138,-1.616571,-0.000003,-0.000038,20213.000000,1692010468.376545,0.693943,-1.569998,0.000048,0.184000,-0.000228,-0.000676,,,,,,,,,
1692010468.418496,,,,,,,,,,,,,,,,,,,,,,,,,,,,,,,,,,,,,,,,,,,39544.000000,1692010468.392279,0.000000,0.000000,0.000000,0.000000,0.000000,0.000000
1692010468.422007,0.275012,-0.029869,-0.000050,-73.926981,0.009999,0.000008,-0.088320,0.000000,-0.000046,-0.002697,-0.511538,-0.000653,0.010788,3.052562,-0.000653,1.181280,2.944814,0.000628,-1.929000,-0.052772,0.026000,-0.000408,1.405772,-0.007090,-1.886000,-0.044773,-0.002000,0.005520,0.000015,0.000138,-1.511429,-0.000003,-0.000038,20214.000000,1692010468.396542,0.746514,-1.569998,0.000048,0.236571,-0.000228,-0.000612,,,,,,,,,
1692010468.422135,,,,,,,,,,,,,,,,,,,,,,,,,,,,,,,,,,,,,,,,,,,39545.000000,1692010468.402439,0.000000,0.000000,0.000000,0.000000,0.000000,0.000000
1692010468.423863,,,,,,,,,,,,,,,,,,,,,,,,,,,,,,,,,,,,,,,,,,0.000000,,,,,,,,
1692010468.430673,,,,,,,,,,,,,,,,,,,,,,,,,,,,,,,,,,,,,,,,,,,39546.000000,1692010468.412413,0.000000,0.000000,0.000000,0.000000,0.000000,0.000000
1692010468.434181,,,,,,,,,,,,,,,,,,,,,,,,,,,,,,,,,,,,,,,,,,,39547.000000,1692010468.422333,0.000000,0.000000,0.000000,0.000000,0.000000,0.000000
1692010468.434194,2.766302,-0.029869,-0.000872,-74.218032,0.009999,0.000008,-0.071760,0.000000,-0.000046,0.000000,-0.511538,-0.000653,0.018879,3.052562,-0.000653,1.545600,2.944803,0.000251,-1.932000,-0.055364,-0.009999,-0.001225,1.406363,-0.007090,-1.886000,-0.044364,0.003000,0.046000,0.000015,0.000138,-1.432571,0.000002,0.000038,20215.000000,1692010468.416540,0.772800,-1.569998,0.000048,0.157714,-0.000228,-0.000048,,,,,,,,,
1692010468.445739,,,,,,,,,,,,,,,,,,,,,,,,,,,,,,,,,,,,,,,,,,,39548.000000,1692010468.432346,0.000000,0.000000,0.000000,0.000000,0.000000,0.000000
1692010468.450736,2.070682,-0.029869,-0.000658,-73.635930,0.009999,0.000008,-0.022080,0.000000,-0.000046,-0.005394,-0.511538,-0.000653,0.016182,3.052562,-0.000653,1.203360,2.944803,-0.007990,-1.940000,-0.060364,-0.034000,0.001637,1.406363,-0.004136,-1.884000,-0.044364,0.010999,0.031280,0.000015,0.000138,-1.465429,0.000002,0.000038,20216.000000,1692010468.436536,0.772800,-1.569998,0.000048,0.262857,-0.000609,-0.000048,,,,,,,,,
1692010468.456130,,,,,,,,,,,,,,,,,,,,,,,,,,,,,,,,,,,,,,,,,,,39549.000000,1692010468.442406,0.000000,0.000000,0.000000,0.000000,0.000000,0.000000
1692010468.465140,,,,,,,,,,,,,,,,,,,,,,,,,,,,,,,,,,,,,,,,,,,39550.000000,1692010468.452133,0.000000,0.000000,0.000000,0.000000,0.000000,0.000000
