__time,/kms40_driver/wrench/header/seq,/kms40_driver/wrench/header/stamp,/kms40_driver/wrench/wrench/force/x,/kms40_driver/wrench/wrench/force/y,/kms40_driver/wrench/wrench/force/z,/kms40_driver/wrench/wrench/torque/x,/kms40_driver/wrench/wrench/torque/y,/kms40_driver/wrench/wrench/torque/z,/wrench/header/seq,/wrench/header/stamp,/wrench/wrench/force/x,/wrench/wrench/force/y,/wrench/wrench/force/z,/wrench/wrench/torque/x,/wrench/wrench/torque/y,/wrench/wrench/torque/z
1696594321.997774,689125.000000000,1696594321.996983051,-0.001000000,-0.004000000,0.047000000,0.000000000,0.000000000,-0.001000000,,,,,,,,
1696594321.999908,689126.000000000,1696594321.999144077,-0.002000000,-0.004000000,0.046000000,0.000000000,0.000000000,-0.001000000,,,,,,,,
1696594322.001719,689127.000000000,1696594322.000974894,-0.003000000,-0.004000000,0.045000000,0.000000000,0.000000000,-0.001000000,,,,,,,,
1696594322.003067,,,,,,,,,203980.000000000,1696594322.001615286,28.441027448,-5.023559759,-0.267448202,-1.448032897,-5.365321450,1.456987801
1696594322.003743,689128.000000000,1696594322.002977610,-0.004000000,-0.004000000,0.042000000,0.000000000,0.000000000,-0.001000000,,,,,,,,
1696594322.005772,689129.000000000,1696594322.005017281,-0.005000000,-0.004000000,0.040000000,0.000000000,0.000000000,-0.001000000,,,,,,,,
1696594322.008683,689130.000000000,1696594322.006972313,-0.006000000,-0.004000000,0.038000000,0.000000000,0.000000000,-0.001000000,,,,,,,,
1696594322.009781,689131.000000000,1696594322.008986473,-0.006000000,-0.004000000,0.037000000,0.000000000,0.000000000,-0.001000000,,,,,,,,
1696594322.010655,,,,,,,,,203981.000000000,1696594322.009640932,27.913799539,-4.663660637,-0.130131517,-1.318869066,-5.214277476,1.423551668
1696594322.011953,689132.000000000,1696594322.011009932,-0.006000000,-0.004000000,0.036000000,0.000000000,0.000000000,-0.001000000,,,,,,,,
1696594322.013829,689133.000000000,1696594322.013000488,-0.006000000,-0.004000000,0.036000000,0.000000000,0.000000000,-0.001000000,,,,,,,,
1696594322.015750,689134.000000000,1696594322.014996052,-0.006000000,-0.004000000,0.035000000,0.000000000,0.000000000,0.000000000,,,,,,,,
1696594322.017773,689135.000000000,1696594322.016965628,-0.006000000,-0.004000000,0.034000000,0.000000000,0.000000000,0.000000000,,,,,,,,
1696594322.018541,,,,,,,,,203982.000000000,1696594322.017718554,28.657534045,-4.432029538,-0.160792511,-1.235958748,-5.589727573,1.356613275
1696594322.019814,689136.000000000,1696594322.018987179,-0.006000000,-0.004000000,0.033000000,0.000000000,0.000000000,0.000000000,,,,,,,,
1696594322.021765,689137.000000000,1696594322.020974398,-0.007000000,-0.004000000,0.032000000,0.000000000,0.000000000,0.000000000,,,,,,,,
1696594322.023769,689138.000000000,1696594322.022961140,-0.008000000,-0.004000000,0.031000000,0.000000000,0.000000000,0.000000000,,,,,,,,
1696594322.025768,689139.000000000,1696594322.024975300,-0.009000000,-0.005000000,0.029000000,0.000000000,0.000000000,0.000000000,,,,,,,,
1696594322.027098,,,,,,,,,203983.000000000,1696594322.025764942,28.674984909,-4.664995936,-0.522822430,-1.345909117,-5.592580968,1.441258694
1696594322.028508,689140.000000000,1696594322.026998758,-0.011000000,-0.005000000,0.027000000,0.000000000,0.000000000,0.000000000,,,,,,,,
1696594322.029743,689141.000000000,1696594322.028980017,-0.012000000,-0.005000000,0.028000000,0.000000000,0.000000000,0.000000000,,,,,,,,
1696594322.031750,689142.000000000,1696594322.030971050,-0.013000000,-0.006000000,0.028000000,0.000000000,0.000000000,0.000000000,,,,,,,,
1696594322.033879,689143.000000000,1696594322.033024311,-0.013000000,-0.006000000,0.027000000,0.000000000,0.000000000,0.000000000,,,,,,,,
1696594322.034879,,,,,,,,,203984.000000000,1696594322.033665180,28.375650535,-5.116046684,-0.500252682,-1.453282957,-5.383629247,1.402487762
1696594322.035771,689144.000000000,1696594322.034995556,-0.013000000,-0.006000000,0.027000000,0.000000000,0.000000000,0.000000000,,,,,,,,
1696594322.039129,689145.000000000,1696594322.037179232,-0.013000000,-0.007000000,0.027000000,0.000000000,0.000000000,0.000000000,,,,,,,,
1696594322.040484,689146.000000000,1696594322.039077282,-0.013000000,-0.007000000,0.027000000,0.000000000,0.000000000,0.000000000,,,,,,,,
1696594322.041719,689147.000000000,1696594322.040951014,-0.013000000,-0.007000000,0.028000000,0.000000000,0.000000000,0.000000000,,,,,,,,
1696594322.042869,,,,,,,,,203985.000000000,1696594322.041632652,27.681543004,-4.918259955,-0.585870770,-1.407430041,-5.019903270,1.410870193
1696594322.043746,689148.000000000,1696594322.042927027,-0.013000000,-0.008000000,0.027000000,0.000000000,0.000000000,0.000000000,,,,,,,,
1696594322.045693,689149.000000000,1696594322.044941664,-0.014000000,-0.008000000,0.027000000,0.000000000,0.000000000,0.000000000,,,,,,,,
1696594322.047744,689150.000000000,1696594322.046981573,-0.015000000,-0.009000000,0.026000000,0.000000000,0.000000000,0.000000000,,,,,,,,
1696594322.049732,689151.000000000,1696594322.048958540,-0.016000000,-0.009000000,0.027000000,0.000000000,0.000000000,0.000000000,,,,,,,,
1696594322.050624,,,,,,,,,203986.000000000,1696594322.049602747,28.657053751,-4.338632049,-0.137521808,-1.188583645,-5.607654042,1.424509928
1696594322.051872,689152.000000000,1696594322.051084995,-0.017000000,-0.010000000,0.027000000,0.000000000,0.000000000,0.000000000,,,,,,,,
1696594322.053830,689153.000000000,1696594322.052976131,-0.018000000,-0.010000000,0.026000000,0.000000000,0.000000000,0.000000000,,,,,,,,
1696594322.055820,689154.000000000,1696594322.054992676,-0.018000000,-0.011000000,0.027000000,0.000000000,0.000000000,0.000000000,,,,,,,,
1696594322.057820,689155.000000000,1696594322.057030201,-0.017000000,-0.011000000,0.027000000,0.000000000,0.000000000,0.000000000,,,,,,,,
1696594322.058438,,,,,,,,,203987.000000000,1696594322.057674885,28.591787836,-4.204672362,-0.309270548,-1.153034549,-5.577141627,1.299260137
1696594322.060115,689156.000000000,1696594322.058987856,-0.017000000,-0.011000000,0.028000000,0.000000000,0.000000000,0.000000000,,,,,,,,
1696594322.062574,689157.000000000,1696594322.060976267,-0.016000000,-0.012000000,0.028000000,0.000000000,0.000000000,0.000000000,,,,,,,,
1696594322.063795,689158.000000000,1696594322.062990665,-0.015000000,-0.012000000,0.027000000,0.000000000,0.000000000,0.000000000,,,,,,,,
1696594322.065789,689159.000000000,1696594322.064990759,-0.015000000,-0.012000000,0.027000000,0.000000000,0.000000000,0.000000000,,,,,,,,
1696594322.067236,,,,,,,,,203988.000000000,1696594322.065593004,29.199573367,-3.756520280,0.113745155,-0.953708891,-5.974007183,1.367149721
1696594322.068233,689160.000000000,1696594322.067000866,-0.016000000,-0.013000000,0.027000000,0.000000000,0.000000000,0.000000000,,,,,,,,
1696594322.069898,689161.000000000,1696594322.069024324,-0.016000000,-0.013000000,0.028000000,0.000000000,0.000000000,0.000000000,,,,,,,,
1696594322.071800,689162.000000000,1696594322.071019888,-0.016000000,-0.013000000,0.026000000,0.000000000,0.000000000,0.000000000,,,,,,,,
1696594322.073886,689163.000000000,1696594322.072995663,-0.017000000,-0.014000000,0.026000000,0.000000000,0.000000000,0.000000000,,,,,,,,
1696594322.075003,,,,,,,,,203989.000000000,1696594322.073655128,28.264309369,-5.087073613,-0.542847913,-1.497009720,-5.308982067,1.291681093
1696594322.075749,689164.000000000,1696594322.074981689,-0.017000000,-0.014000000,0.025000000,0.000000000,0.000000000,0.000000000,,,,,,,,
1696594322.077864,689165.000000000,1696594322.077033281,-0.016000000,-0.014000000,0.025000000,0.000000000,0.000000000,0.000000000,,,,,,,,
1696594322.079802,689166.000000000,1696594322.078989983,-0.016000000,-0.014000000,0.025000000,0.000000000,0.000000000,0.000000000,,,,,,,,
1696594322.081759,689167.000000000,1696594322.080967903,-0.015000000,-0.014000000,0.025000000,0.000000000,0.000000000,0.000000000,,,,,,,,
1696594322.082957,,,,,,,,,203990.000000000,1696594322.081722975,28.707780341,-4.699222930,0.121835932,-1.321025863,-5.657549268,1.373002205
1696594322.083827,689168.000000000,1696594322.083002090,-0.014000000,-0.014000000,0.024000000,0.000000000,0.000000000,0.000000000,,,,,,,,
1696594322.085807,689169.000000000,1696594322.084988356,-0.013000000,-0.014000000,0.025000000,0.000000000,0.000000000,0.000000000,,,,,,,,
1696594322.088482,689170.000000000,1696594322.087028980,-0.012000000,-0.013000000,0.024000000,0.000000000,0.000000000,0.000000000,,,,,,,,
1696594322.089811,689171.000000000,1696594322.088987589,-0.011000000,-0.013000000,0.022000000,0.000000000,0.000000000,0.000000000,,,,,,,,
1696594322.091134,,,,,,,,,203991.000000000,1696594322.089709759,28.877999485,-4.507913366,-0.670462064,-1.287192946,-5.560738850,1.385926183
1696594322.091789,689172.000000000,1696594322.091022015,-0.011000000,-0.013000000,0.022000000,0.000000000,0.000000000,0.000000000,,,,,,,,
1696594322.093912,689173.000000000,1696594322.093065262,-0.011000000,-0.013000000,0.020000000,0.000000000,0.000000000,0.000000000,,,,,,,,
1696594322.095809,689174.000000000,1696594322.094986916,-0.011000000,-0.013000000,0.019000000,0.000000000,0.000000000,0.000000000,,,,,,,,
1696594322.097756,689175.000000000,1696594322.097002029,-0.011000000,-0.013000000,0.018000000,0.000000000,0.000000000,0.000000000,,,,,,,,
1696594322.099021,,,,,,,,,203992.000000000,1696594322.097590446,28.655184560,-4.880288204,-0.208315764,-1.384120792,-5.577583564,1.456821575
1696594322.099823,689176.000000000,1696594322.098979235,-0.011000000,-0.012000000,0.017000000,0.000000000,0.000000000,0.000000000,,,,,,,,
1696594322.101830,689177.000000000,1696594322.100983858,-0.011000000,-0.012000000,0.016000000,0.000000000,0.000000000,0.000000000,,,,,,,,
1696594322.103802,689178.000000000,1696594322.102976322,-0.010000000,-0.012000000,0.016000000,0.000000000,0.000000000,0.000000000,,,,,,,,
1696594322.105783,689179.000000000,1696594322.104990721,-0.009000000,-0.011000000,0.016000000,0.000000000,0.000000000,0.000000000,,,,,,,,
1696594322.106817,,,,,,,,,203993.000000000,1696594322.105644226,28.552842054,-5.794948353,-0.063956827,-1.730651029,-5.616631183,1.450698025
1696594322.108583,689180.000000000,1696594322.106979132,-0.007000000,-0.011000000,0.015000000,0.000000000,0.000000000,0.000000000,,,,,,,,
1696594322.110332,689181.000000000,1696594322.109028101,-0.006000000,-0.010000000,0.015000000,0.000000000,0.000000000,0.000000000,,,,,,,,
1696594322.112024,689182.000000000,1696594322.111137629,-0.006000000,-0.010000000,0.014000000,0.000000000,0.000000000,0.000000000,,,,,,,,
1696594322.113809,689183.000000000,1696594322.113016605,-0.006000000,-0.009000000,0.014000000,0.000000000,0.000000000,0.000000000,,,,,,,,
1696594322.114690,,,,,,,,,203994.000000000,1696594322.113697529,28.266672255,-4.839057484,-0.476977350,-1.353057685,-5.342840257,1.413199577
1696594322.115887,689184.000000000,1696594322.115061045,-0.006000000,-0.009000000,0.013000000,0.000000000,0.000000000,0.000000000,,,,,,,,
1696594322.117887,689185.000000000,1696594322.117088795,-0.006000000,-0.009000000,0.012000000,0.000000000,0.000000000,0.000000000,,,,,,,,
1696594322.119825,689186.000000000,1696594322.119068384,-0.007000000,-0.008000000,0.014000000,0.000000000,0.000000000,0.000000000,,,,,,,,
1696594322.121714,689187.000000000,1696594322.120981693,-0.007000000,-0.008000000,0.012000000,0.000000000,0.000000000,0.000000000,,,,,,,,
1696594322.122751,,,,,,,,,203995.000000000,1696594322.121664047,28.706583198,-5.294997519,0.548033847,-1.594255968,-5.700711756,1.405799776
1696594322.123785,689188.000000000,1696594322.123006582,-0.008000000,-0.007000000,0.011000000,0.000000000,0.000000000,0.000000000,,,,,,,,
1696594322.125904,689189.000000000,1696594322.125041008,-0.007000000,-0.006000000,0.013000000,0.000000000,0.000000000,0.000000000,,,,,,,,
1696594322.128469,689190.000000000,1696594322.127101183,-0.007000000,-0.006000000,0.013000000,0.000000000,0.000000000,0.000000000,,,,,,,,
1696594322.129783,689191.000000000,1696594322.129020929,-0.006000000,-0.005000000,0.013000000,0.000000000,0.000000000,0.000000000,,,,,,,,
1696594322.130478,,,,,,,,,203996.000000000,1696594322.129619837,27.965281676,-4.740488819,-0.384365865,-1.345350880,-5.220367303,1.451996372
1696594322.131943,689192.000000000,1696594322.131010771,-0.006000000,-0.004000000,0.013000000,0.000000000,0.000000000,0.000000000,,,,,,,,
1696594322.133936,689193.000000000,1696594322.133074284,-0.006000000,-0.003000000,0.013000000,0.000000000,0.000000000,0.000000000,,,,,,,,
1696594322.135888,689194.000000000,1696594322.135005236,-0.006000000,-0.003000000,0.013000000,0.000000000,0.000000000,0.000000000,,,,,,,,
1696594322.144395,689195.000000000,1696594322.137035608,-0.007000000,-0.002000000,0.013000000,0.000000000,0.000000000,0.000000000,,,,,,,,
1696594322.144424,,,,,,,,,203997.000000000,1696594322.137629509,28.663068736,-4.462606161,-0.246166455,-1.191490788,-5.578305795,1.384407311
1696594322.144780,689196.000000000,1696594322.139021635,-0.008000000,-0.002000000,0.013000000,0.000000000,0.000000000,0.000000000,,,,,,,,
1696594322.144833,689197.000000000,1696594322.141062975,-0.009000000,-0.001000000,0.012000000,0.000000000,0.000000000,0.000000000,,,,,,,,
1696594322.144957,689198.000000000,1696594322.143010616,-0.010000000,0.000000000,0.011000000,0.000000000,0.000000000,0.000000000,,,,,,,,
1696594322.146780,689199.000000000,1696594322.144999981,-0.012000000,0.000000000,0.011000000,0.000000000,0.000000000,0.000000000,,,,,,,,
1696594322.148744,,,,,,,,,203998.000000000,1696594322.145610094,28.152094986,-4.569676206,-0.304644351,-1.255466996,-5.224501127,1.313979308
1696594322.149481,689200.000000000,1696594322.147014141,-0.012000000,0.000000000,0.011000000,0.000000000,0.000000000,0.000000000,,,,,,,,
1696594322.151741,689201.000000000,1696594322.149050951,-0.012000000,0.002000000,0.011000000,0.000000000,0.000000000,0.000000000,,,,,,,,
1696594322.152095,689202.000000000,1696594322.151046753,-0.012000000,0.003000000,0.010000000,0.000000000,0.000000000,0.000000000,,,,,,,,
1696594322.155299,,,,,,,,,203999.000000000,1696594322.153671503,28.173067078,-4.859320112,-0.167266008,-1.417146810,-5.324239740,1.481626221
1696594322.155668,689203.000000000,1696594322.154281378,-0.012000000,0.004000000,0.010000000,0.000000000,0.000000000,0.000000000,,,,,,,,
1696594322.155985,689204.000000000,1696594322.155247450,-0.012000000,0.005000000,0.008000000,0.000000000,0.000000000,0.000000000,,,,,,,,
1696594322.158672,689205.000000000,1696594322.157058001,-0.013000000,0.006000000,0.007000000,0.000000000,0.000000000,0.000000000,,,,,,,,
1696594322.159877,689206.000000000,1696594322.159041882,-0.014000000,0.008000000,0.004000000,0.000000000,0.000000000,0.000000000,,,,,,,,
1696594322.161783,689207.000000000,1696594322.161023378,-0.015000000,0.009000000,0.003000000,0.000000000,0.000000000,0.000000000,,,,,,,,
1696594322.162883,,,,,,,,,204000.000000000,1696594322.161623716,28.576334344,-4.726238556,0.437521228,-1.360254747,-5.640990200,1.441292879
1696594322.164250,689208.000000000,1696594322.162996769,-0.017000000,0.010000000,0.000000000,0.000000000,0.000000000,0.000000000,,,,,,,,
1696594322.165879,689209.000000000,1696594322.165054798,-0.018000000,0.011000000,0.000000000,0.000000000,0.000000000,0.000000000,,,,,,,,
1696594322.168358,689210.000000000,1696594322.167009115,-0.019000000,0.012000000,-0.002000000,0.000000000,0.000000000,0.000000000,,,,,,,,
1696594322.169868,689211.000000000,1696594322.169034004,-0.019000000,0.013000000,-0.005000000,0.000000000,0.000000000,0.000000000,,,,,,,,
1696594322.170568,,,,,,,,,204001.000000000,1696594322.169636250,28.224597254,-5.443057732,-0.555127281,-1.626218622,-5.306010964,1.418365669
1696594322.171798,689212.000000000,1696594322.171003103,-0.019000000,0.015000000,-0.007000000,0.000000000,0.000000000,0.000000000,,,,,,,,
1696594322.173832,689213.000000000,1696594322.172996044,-0.019000000,0.016000000,-0.010000000,0.000000000,0.000000000,0.000000000,,,,,,,,
1696594322.175731,689214.000000000,1696594322.174985409,-0.019000000,0.017000000,-0.012000000,0.000000000,0.000000000,0.000000000,,,,,,,,
1696594322.177877,689215.000000000,1696594322.176998377,-0.018000000,0.018000000,-0.014000000,0.000000000,0.000000000,0.000000000,,,,,,,,
1696594322.179328,,,,,,,,,204002.000000000,1696594322.177600145,28.548791669,-4.819126665,0.273464993,-1.378907940,-5.604649517,1.441978049
1696594322.179746,689216.000000000,1696594322.178997517,-0.018000000,0.019000000,-0.018000000,0.000000000,0.000000000,0.000000000,,,,,,,,
1696594322.182302,689217.000000000,1696594322.181014299,-0.019000000,0.020000000,-0.021000000,0.000000000,0.000000000,0.000000000,,,,,,,,
1696594322.183725,689218.000000000,1696594322.182972193,-0.019000000,0.021000000,-0.024000000,0.000000000,0.000000000,0.000000000,,,,,,,,
1696594322.185734,689219.000000000,1696594322.184980631,-0.020000000,0.022000000,-0.027000000,0.000000000,0.000000000,0.000000000,,,,,,,,
1696594322.187021,,,,,,,,,204003.000000000,1696594322.185620785,28.110814547,-4.795722122,-0.282686584,-1.365081928,-5.205640189,1.384511983
1696594322.188090,689220.000000000,1696594322.186975956,-0.021000000,0.022000000,-0.030000000,0.000000000,0.000000000,0.000000000,,,,,,,,
1696594322.189766,689221.000000000,1696594322.188990116,-0.021000000,0.023000000,-0.034000000,0.000000000,0.000000000,0.000000000,,,,,,,,
1696594322.191816,689222.000000000,1696594322.190982819,-0.021000000,0.023000000,-0.035000000,0.000000000,0.000000000,0.000000000,,,,,,,,
1696594322.193767,689223.000000000,1696594322.192986965,-0.021000000,0.024000000,-0.036000000,0.000000000,0.000000000,0.000000000,,,,,,,,
1696594322.195702,,,,,,,,,204004.000000000,1696594322.193615675,28.188122362,-4.906526416,-0.476983253,-1.432895154,-5.356099767,1.454632529
1696594322.195856,689224.000000000,1696594322.195013046,-0.020000000,0.024000000,-0.038000000,0.000000000,0.000000000,0.000000000,,,,,,,,
1696594322.198179,689225.000000000,1696594322.196991920,-0.019000000,0.024000000,-0.041000000,0.000000000,0.000000000,0.000000000,,,,,,,,
1696594322.199800,689226.000000000,1696594322.198979139,-0.018000000,0.024000000,-0.042000000,0.000000000,0.000000000,0.000000000,,,,,,,,
1696594322.202397,689227.000000000,1696594322.200991392,-0.017000000,0.024000000,-0.043000000,0.000000000,0.000000000,0.000000000,,,,,,,,
1696594322.203315,,,,,,,,,204005.000000000,1696594322.201649427,28.202876607,-4.429664741,0.085777781,-1.153102188,-5.350856306,1.436711710
1696594322.204303,689228.000000000,1696594322.203045130,-0.017000000,0.024000000,-0.044000000,0.000000000,0.000000000,0.000000000,,,,,,,,
1696594322.205914,689229.000000000,1696594322.205054760,-0.017000000,0.024000000,-0.043000000,0.000000000,0.000000000,0.000000000,,,,,,,,
1696594322.208642,689230.000000000,1696594322.207097292,-0.017000000,0.023000000,-0.045000000,0.000000000,0.000000000,0.000000000,,,,,,,,
1696594322.209844,689231.000000000,1696594322.209004402,-0.017000000,0.022000000,-0.045000000,0.000000000,0.000000000,0.000000000,,,,,,,,
1696594322.210930,,,,,,,,,204006.000000000,1696594322.209662437,28.652656500,-4.595834872,-0.054892883,-1.308965160,-5.526975951,1.413033712
1696594322.211808,689232.000000000,1696594322.211010456,-0.018000000,0.022000000,-0.045000000,0.000000000,0.000000000,0.000000000,,,,,,,,
1696594322.213856,689233.000000000,1696594322.212999344,-0.018000000,0.021000000,-0.044000000,0.000000000,0.000000000,0.000000000,,,,,,,,
1696594322.215887,689234.000000000,1696594322.215019464,-0.017000000,0.020000000,-0.042000000,0.000000000,0.000000000,0.000000000,,,,,,,,
1696594322.217788,689235.000000000,1696594322.216999054,-0.017000000,0.019000000,-0.039000000,0.000000000,0.000000000,0.000000000,,,,,,,,
1696594322.219209,,,,,,,,,204007.000000000,1696594322.217635155,28.069568636,-4.846472423,-0.137575895,-1.314293755,-5.120205914,1.343511440
1696594322.220062,689236.000000000,1696594322.219117641,-0.016000000,0.018000000,-0.037000000,0.000000000,0.000000000,0.000000000,,,,,,,,
1696594322.221831,689237.000000000,1696594322.220961571,-0.015000000,0.017000000,-0.034000000,0.000000000,0.000000000,0.000000000,,,,,,,,
1696594322.223816,689238.000000000,1696594322.223030090,-0.014000000,0.016000000,-0.031000000,0.000000000,0.000000000,0.000000000,,,,,,,,
1696594322.226030,689239.000000000,1696594322.225047112,-0.014000000,0.015000000,-0.028000000,0.000000000,0.000000000,0.000000000,,,,,,,,
1696594322.227045,,,,,,,,,204008.000000000,1696594322.225715637,28.607632270,-4.796975912,-0.027929686,-1.368680464,-5.569798059,1.497071192
1696594322.228437,689240.000000000,1696594322.226987123,-0.014000000,0.014000000,-0.024000000,0.000000000,0.000000000,0.000000000,,,,,,,,
1696594322.229893,689241.000000000,1696594322.229050398,-0.014000000,0.012000000,-0.022000000,0.000000000,0.000000000,0.000000000,,,,,,,,
1696594322.231841,689242.000000000,1696594322.231025696,-0.015000000,0.011000000,-0.018000000,0.000000000,0.000000000,0.000000000,,,,,,,,
1696594322.233850,689243.000000000,1696594322.233003855,-0.016000000,0.009000000,-0.015000000,0.000000000,0.000000000,0.000000000,,,,,,,,
1696594322.234991,,,,,,,,,204009.000000000,1696594322.233640194,28.352492992,-4.403012480,-0.012605106,-1.240210674,-5.483494334,1.492235636
1696594322.235854,689244.000000000,1696594322.235008001,-0.017000000,0.008000000,-0.010000000,0.000000000,0.000000000,0.000000000,,,,,,,,
1696594322.237912,689245.000000000,1696594322.237104893,-0.017000000,0.007000000,-0.006000000,0.000000000,0.000000000,0.000000000,,,,,,,,
1696594322.239774,689246.000000000,1696594322.239018440,-0.017000000,0.006000000,-0.002000000,0.000000000,0.000000000,0.000000000,,,,,,,,
1696594322.241849,689247.000000000,1696594322.241058350,-0.016000000,0.004000000,0.002000000,0.000000000,0.000000000,0.000000000,,,,,,,,
1696594322.242485,,,,,,,,,204010.000000000,1696594322.241578341,28.784758257,-4.278495796,0.803189458,-1.172555721,-5.718468795,1.369650965
1696594322.243850,689248.000000000,1696594322.242982149,-0.016000000,0.004000000,0.007000000,0.000000000,0.000000000,0.000000000,,,,,,,,
1696594322.246046,689249.000000000,1696594322.245110035,-0.015000000,0.003000000,0.012000000,0.000000000,0.000000000,0.000000000,,,,,,,,
1696594322.248655,689250.000000000,1696594322.247035503,-0.015000000,0.001000000,0.014000000,0.000000000,0.000000000,0.000000000,,,,,,,,
1696594322.249859,689251.000000000,1696594322.248999596,-0.016000000,0.001000000,0.019000000,0.000000000,0.000000000,0.000000000,,,,,,,,
1696594322.250934,,,,,,,,,204011.000000000,1696594322.249661684,27.919240422,-4.471481939,-0.078936184,-1.248570526,-5.123345869,1.408120476
1696594322.251797,689252.000000000,1696594322.251008749,-0.016000000,0.000000000,0.023000000,0.000000000,0.000000000,0.000000000,,,,,,,,
1696594322.253880,689253.000000000,1696594322.253006935,-0.017000000,0.000000000,0.025000000,0.000000000,0.000000000,0.000000000,,,,,,,,
1696594322.255869,689254.000000000,1696594322.255012035,-0.018000000,-0.001000000,0.028000000,0.000000000,0.000000000,0.000000000,,,,,,,,
1696594322.257794,689255.000000000,1696594322.256993532,-0.019000000,-0.002000000,0.032000000,0.000000000,0.000000000,0.000000000,,,,,,,,
1696594322.258738,,,,,,,,,204012.000000000,1696594322.257626534,28.234140959,-4.809980844,0.126266217,-1.345125017,-5.300694712,1.440264227
1696594322.259850,689256.000000000,1696594322.258998156,-0.020000000,-0.003000000,0.035000000,0.000000000,0.000000000,0.000000000,,,,,,,,
1696594322.262107,689257.000000000,1696594322.261016846,-0.020000000,-0.003000000,0.037000000,0.000000000,0.000000000,0.000000000,,,,,,,,
1696594322.263764,689258.000000000,1696594322.262996674,-0.019000000,-0.004000000,0.041000000,0.000000000,0.000000000,-0.001000000,,,,,,,,
1696594322.265833,689259.000000000,1696594322.264995575,-0.019000000,-0.004000000,0.042000000,0.000000000,0.000000000,-0.001000000,,,,,,,,
1696594322.266593,,,,,,,,,204013.000000000,1696594322.265641451,28.544670295,-4.799297392,0.426298180,-1.303052270,-5.531672463,1.345555550
1696594322.268550,689260.000000000,1696594322.267023325,-0.018000000,-0.005000000,0.044000000,0.000000000,0.000000000,-0.001000000,,,,,,,,
1696594322.270100,689261.000000000,1696594322.269207478,-0.017000000,-0.005000000,0.045000000,0.000000000,0.000000000,-0.001000000,,,,,,,,
1696594322.271759,689262.000000000,1696594322.271007776,-0.018000000,-0.005000000,0.046000000,0.000000000,0.000000000,-0.001000000,,,,,,,,
1696594322.273850,689263.000000000,1696594322.273016691,-0.018000000,-0.006000000,0.047000000,0.000000000,0.000000000,-0.001000000,,,,,,,,
1696594322.274495,,,,,,,,,204014.000000000,1696594322.273618937,28.523505290,-4.434206061,0.236701977,-1.238654329,-5.534559750,1.424669123
1696594322.275779,689264.000000000,1696594322.275011301,-0.018000000,-0.006000000,0.046000000,0.000000000,0.000000000,-0.001000000,,,,,,,,
1696594322.277822,689265.000000000,1696594322.277060032,-0.019000000,-0.006000000,0.046000000,0.000000000,0.000000000,-0.001000000,,,,,,,,
1696594322.279755,689266.000000000,1696594322.279019117,-0.019000000,-0.007000000,0.046000000,0.000000000,0.000000000,-0.001000000,,,,,,,,
1696594322.281753,689267.000000000,1696594322.281012774,-0.019000000,-0.007000000,0.045000000,0.000000000,0.000000000,-0.001000000,,,,,,,,
1696594322.283032,,,,,,,,,204015.000000000,1696594322.281637669,28.502663783,-4.796204303,-0.152536672,-1.395501363,-5.528291167,1.469027161
1696594322.283764,689268.000000000,1696594322.283000946,-0.019000000,-0.007000000,0.045000000,0.000000000,0.000000000,-0.001000000,,,,,,,,
1696594322.285766,689269.000000000,1696594322.285006046,-0.018000000,-0.008000000,0.044000000,0.000000000,0.000000000,-0.001000000,,,,,,,,
1696594322.288430,689270.000000000,1696594322.287005424,-0.017000000,-0.008000000,0.044000000,0.000000000,0.000000000,-0.001000000,,,,,,,,
1696594322.289778,689271.000000000,1696594322.289012909,-0.016000000,-0.008000000,0.043000000,0.000000000,0.000000000,-0.001000000,,,,,,,,
1696594322.290746,,,,,,,,,204016.000000000,1696594322.289615393,28.113563875,-4.320674232,-0.230419178,-1.166038961,-5.240096251,1.366545056
1696594322.291871,689272.000000000,1696594322.291053534,-0.015000000,-0.008000000,0.043000000,0.000000000,0.000000000,-0.001000000,,,,,,,,
1696594322.294001,689273.000000000,1696594322.293163538,-0.014000000,-0.008000000,0.040000000,0.000000000,0.000000000,-0.001000000,,,,,,,,
1696594322.295838,689274.000000000,1696594322.295059919,-0.013000000,-0.008000000,0.039000000,0.000000000,0.000000000,-0.001000000,,,,,,,,
1696594322.297769,689275.000000000,1696594322.297003984,-0.013000000,-0.009000000,0.037000000,0.000000000,0.000000000,0.000000000,,,,,,,,
1696594322.298824,,,,,,,,,204017.000000000,1696594322.297637224,28.579045461,-4.818348703,0.412758460,-1.406756047,-5.579225606,1.428381685
1696594322.299769,689276.000000000,1696594322.299013138,-0.013000000,-0.009000000,0.035000000,0.000000000,0.000000000,0.000000000,,,,,,,,
1696594322.301811,689277.000000000,1696594322.301038742,-0.013000000,-0.010000000,0.033000000,0.000000000,0.000000000,0.000000000,,,,,,,,
1696594322.303804,689278.000000000,1696594322.303013802,-0.013000000,-0.010000000,0.032000000,0.000000000,0.000000000,0.000000000,,,,,,,,
1696594322.305737,689279.000000000,1696594322.304998398,-0.013000000,-0.010000000,0.031000000,0.000000000,0.000000000,0.000000000,,,,,,,,
1696594322.306459,,,,,,,,,204018.000000000,1696594322.305686474,27.666960562,-4.935037202,0.294063544,-1.404253850,-5.020433005,1.424690346
1696594322.308111,689280.000000000,1696594322.307014227,-0.012000000,-0.010000000,0.029000000,0.000000000,0.000000000,0.000000000,,,,,,,,
1696594322.310245,689281.000000000,1696594322.309044838,-0.011000000,-0.011000000,0.029000000,0.000000000,0.000000000,0.000000000,,,,,,,,
1696594322.311762,689282.000000000,1696594322.311034679,-0.010000000,-0.011000000,0.028000000,0.000000000,0.000000000,0.000000000,,,,,,,,
1696594322.313834,689283.000000000,1696594322.313063383,-0.008000000,-0.011000000,0.028000000,0.000000000,0.000000000,0.000000000,,,,,,,,
1696594322.315238,,,,,,,,,204019.000000000,1696594322.313638449,28.330868862,-4.901892332,0.226702322,-1.393375109,-5.413359462,1.304121955
1696594322.315922,689284.000000000,1696594322.315013170,-0.008000000,-0.011000000,0.027000000,0.000000000,0.000000000,0.000000000,,,,,,,,
1696594322.317789,689285.000000000,1696594322.317003727,-0.007000000,-0.011000000,0.025000000,0.000000000,0.000000000,0.000000000,,,,,,,,
1696594322.320051,689286.000000000,1696594322.319053888,-0.007000000,-0.012000000,0.025000000,0.000000000,0.000000000,0.000000000,,,,,,,,
1696594322.321762,689287.000000000,1696594322.321002245,-0.007000000,-0.012000000,0.024000000,0.000000000,0.000000000,0.000000000,,,,,,,,
1696594322.323046,,,,,,,,,204020.000000000,1696594322.321673155,28.593490922,-5.475398207,0.088842996,-1.628944247,-5.554611286,1.585523739
1696594322.323798,689288.000000000,1696594322.323015451,-0.008000000,-0.012000000,0.023000000,0.000000000,0.000000000,0.000000000,,,,,,,,
1696594322.325938,689289.000000000,1696594322.325002670,-0.008000000,-0.013000000,0.022000000,0.000000000,0.000000000,0.000000000,,,,,,,,
1696594322.328463,689290.000000000,1696594322.327019215,-0.008000000,-0.013000000,0.022000000,0.000000000,0.000000000,0.000000000,,,,,,,,
1696594322.329978,689291.000000000,1696594322.329012156,-0.008000000,-0.013000000,0.023000000,0.000000000,0.000000000,0.000000000,,,,,,,,
1696594322.330885,,,,,,,,,204021.000000000,1696594322.329680920,28.598042345,-4.363685122,-0.351076735,-1.196140289,-5.531574378,1.451919883
1696594322.331938,689292.000000000,1696594322.331010818,-0.008000000,-0.013000000,0.024000000,0.000000000,0.000000000,0.000000000,,,,,,,,
1696594322.333917,689293.000000000,1696594322.333021879,-0.007000000,-0.013000000,0.023000000,0.000000000,0.000000000,0.000000000,,,,,,,,
1696594322.336007,689294.000000000,1696594322.335039377,-0.006000000,-0.013000000,0.024000000,0.000000000,0.000000000,0.000000000,,,,,,,,
1696594322.337850,689295.000000000,1696594322.337025642,-0.006000000,-0.013000000,0.025000000,0.000000000,0.000000000,0.000000000,,,,,,,,
1696594322.338511,,,,,,,,,204022.000000000,1696594322.337641001,28.163914816,-4.433968804,0.095774830,-1.182367595,-5.370541293,1.505279696
1696594322.339900,689296.000000000,1696594322.339053154,-0.005000000,-0.013000000,0.025000000,0.000000000,0.000000000,0.000000000,,,,,,,,
1696594322.341897,689297.000000000,1696594322.341007710,-0.006000000,-0.013000000,0.026000000,0.000000000,0.000000000,0.000000000,,,,,,,,
1696594322.345304,689298.000000000,1696594322.342992306,-0.006000000,-0.013000000,0.026000000,0.000000000,0.000000000,0.000000000,,,,,,,,
1696594322.348009,689299.000000000,1696594322.345018625,-0.007000000,-0.013000000,0.027000000,0.000000000,0.000000000,0.000000000,,,,,,,,
1696594322.348400,,,,,,,,,204023.000000000,1696594322.345662594,28.616482173,-5.068643259,-0.246327507,-1.506807983,-5.534993562,1.403314530
1696594322.348993,689300.000000000,1696594322.346989393,-0.008000000,-0.013000000,0.027000000,0.000000000,0.000000000,0.000000000,,,,,,,,
1696594322.349778,689301.000000000,1696594322.349001646,-0.008000000,-0.013000000,0.027000000,0.000000000,0.000000000,0.000000000,,,,,,,,
1696594322.351726,689302.000000000,1696594322.350986242,-0.009000000,-0.012000000,0.028000000,0.000000000,0.000000000,0.000000000,,,,,,,,
1696594322.354055,689303.000000000,1696594322.353018999,-0.009000000,-0.012000000,0.030000000,0.000000000,0.000000000,0.000000000,,,,,,,,
1696594322.355437,,,,,,,,,204024.000000000,1696594322.353632927,28.646922242,-4.633678387,-0.578158226,-1.306280520,-5.514331197,1.427087561
1696594322.355814,689304.000000000,1696594322.355015278,-0.008000000,-0.012000000,0.030000000,0.000000000,0.000000000,0.000000000,,,,,,,,
1696594322.357824,689305.000000000,1696594322.357033968,-0.008000000,-0.011000000,0.031000000,0.000000000,0.000000000,0.000000000,,,,,,,,
1696594322.359780,689306.000000000,1696594322.358983994,-0.007000000,-0.011000000,0.031000000,0.000000000,0.000000000,0.000000000,,,,,,,,
1696594322.361859,689307.000000000,1696594322.361042500,-0.007000000,-0.011000000,0.033000000,0.000000000,0.000000000,0.000000000,,,,,,,,
1696594322.362755,,,,,,,,,204025.000000000,1696594322.361666679,28.217206904,-4.477169360,-0.148530159,-1.209571221,-5.299875375,1.354731420
1696594322.363814,689308.000000000,1696594322.363000154,-0.007000000,-0.010000000,0.032000000,0.000000000,0.000000000,0.000000000,,,,,,,,
1696594322.366652,689309.000000000,1696594322.364982843,-0.007000000,-0.010000000,0.032000000,0.000000000,0.000000000,0.000000000,,,,,,,,
1696594322.368464,689310.000000000,1696594322.366982222,-0.008000000,-0.010000000,0.033000000,0.000000000,0.000000000,0.000000000,,,,,,,,
1696594322.369890,689311.000000000,1696594322.369067430,-0.008000000,-0.010000000,0.033000000,0.000000000,0.000000000,0.000000000,,,,,,,,
1696594322.370566,,,,,,,,,204026.000000000,1696594322.369629383,28.886081237,-4.148158457,-0.286305438,-1.133817060,-5.791187749,1.424000061
1696594322.371770,689312.000000000,1696594322.371016264,-0.009000000,-0.010000000,0.032000000,0.000000000,0.000000000,0.000000000,,,,,,,,
1696594322.373803,689313.000000000,1696594322.373004913,-0.009000000,-0.009000000,0.033000000,0.000000000,0.000000000,0.000000000,,,,,,,,
1696594322.375752,689314.000000000,1696594322.375002146,-0.009000000,-0.009000000,0.033000000,0.000000000,0.000000000,0.000000000,,,,,,,,
1696594322.377875,689315.000000000,1696594322.376997471,-0.008000000,-0.009000000,0.033000000,0.000000000,0.000000000,0.000000000,,,,,,,,
1696594322.378984,,,,,,,,,204027.000000000,1696594322.377646208,28.211847539,-4.408609380,-0.130076568,-1.240759792,-5.360038198,1.367838814
1696594322.379972,689316.000000000,1696594322.379028082,-0.008000000,-0.009000000,0.034000000,0.000000000,0.000000000,0.000000000,,,,,,,,
1696594322.381828,689317.000000000,1696594322.380994797,-0.007000000,-0.008000000,0.034000000,0.000000000,0.000000000,0.000000000,,,,,,,,
1696594322.383767,689318.000000000,1696594322.382987261,-0.006000000,-0.008000000,0.035000000,0.000000000,0.000000000,0.000000000,,,,,,,,
1696594322.385894,689319.000000000,1696594322.384994268,-0.006000000,-0.007000000,0.034000000,0.000000000,0.000000000,0.000000000,,,,,,,,
1696594322.386949,,,,,,,,,204028.000000000,1696594322.385582209,28.644050554,-4.827616491,-0.046627191,-1.338807700,-5.608658811,1.428801525
1696594322.389750,689320.000000000,1696594322.386979103,-0.006000000,-0.007000000,0.033000000,0.000000000,0.000000000,0.000000000,,,,,,,,
1696594322.390117,689321.000000000,1696594322.389002800,-0.007000000,-0.007000000,0.033000000,0.000000000,0.000000000,0.000000000,,,,,,,,
1696594322.391812,689322.000000000,1696594322.390983582,-0.007000000,-0.007000000,0.033000000,0.000000000,0.000000000,0.000000000,,,,,,,,
1696594322.393819,689323.000000000,1696594322.393014431,-0.008000000,-0.007000000,0.032000000,0.000000000,0.000000000,0.000000000,,,,,,,,
1696594322.394854,,,,,,,,,204029.000000000,1696594322.393617392,28.897623987,-4.766539135,-0.675918203,-1.369350883,-5.792164965,1.429572496
1696594322.395847,689324.000000000,1696594322.395101786,-0.009000000,-0.007000000,0.031000000,0.000000000,0.000000000,0.000000000,,,,,,,,
1696594322.398455,689325.000000000,1696594322.397054911,-0.009000000,-0.007000000,0.033000000,0.000000000,0.000000000,0.000000000,,,,,,,,
1696594322.399744,689326.000000000,1696594322.399001837,-0.008000000,-0.007000000,0.032000000,0.000000000,0.000000000,0.000000000,,,,,,,,
1696594322.401824,689327.000000000,1696594322.401064157,-0.008000000,-0.006000000,0.032000000,0.000000000,0.000000000,0.000000000,,,,,,,,
1696594322.402633,,,,,,,,,204030.000000000,1696594322.401681185,28.649132024,-5.040039004,-0.175842849,-1.469974310,-5.596712032,1.458214275
1696594322.403862,689328.000000000,1696594322.403006315,-0.007000000,-0.006000000,0.033000000,0.000000000,0.000000000,0.000000000,,,,,,,,
1696594322.405855,689329.000000000,1696594322.405027390,-0.006000000,-0.006000000,0.032000000,0.000000000,0.000000000,0.000000000,,,,,,,,
1696594322.408315,689330.000000000,1696594322.407080412,-0.007000000,-0.006000000,0.033000000,0.000000000,0.000000000,0.000000000,,,,,,,,
1696594322.409944,689331.000000000,1696594322.409045219,-0.007000000,-0.006000000,0.032000000,0.000000000,0.000000000,0.000000000,,,,,,,,
1696594322.410537,,,,,,,,,204031.000000000,1696594322.409648180,28.662206406,-5.244597909,0.645163252,-1.536457537,-5.777036739,1.501344629
1696594322.411869,689332.000000000,1696594322.411024332,-0.008000000,-0.006000000,0.031000000,0.000000000,0.000000000,0.000000000,,,,,,,,
1696594322.413881,689333.000000000,1696594322.413014174,-0.008000000,-0.006000000,0.029000000,0.000000000,0.000000000,0.000000000,,,,,,,,
1696594322.415811,689334.000000000,1696594322.415047407,-0.010000000,-0.006000000,0.029000000,0.000000000,0.000000000,0.000000000,,,,,,,,
1696594322.417803,689335.000000000,1696594322.417002678,-0.011000000,-0.006000000,0.029000000,0.000000000,0.000000000,0.000000000,,,,,,,,
1696594322.418453,,,,,,,,,204032.000000000,1696594322.417607307,29.079834765,-4.687667691,-0.034846827,-1.345272758,-5.959210038,1.443561013
1696594322.419895,689336.000000000,1696594322.419033051,-0.012000000,-0.005000000,0.028000000,0.000000000,0.000000000,0.000000000,,,,,,,,
1696594322.421879,689337.000000000,1696594322.421043634,-0.012000000,-0.005000000,0.028000000,0.000000000,0.000000000,0.000000000,,,,,,,,
1696594322.423843,689338.000000000,1696594322.423036337,-0.012000000,-0.005000000,0.028000000,0.000000000,0.000000000,0.000000000,,,,,,,,
1696594322.425793,689339.000000000,1696594322.425003290,-0.012000000,-0.004000000,0.027000000,0.000000000,0.000000000,0.000000000,,,,,,,,
1696594322.426855,,,,,,,,,204033.000000000,1696594322.425760031,28.917621309,-5.131197634,-0.407720427,-1.502351654,-5.753897797,1.474166106
1696594322.429353,689340.000000000,1696594322.427071333,-0.013000000,-0.003000000,0.026000000,0.000000000,0.000000000,0.000000000,,,,,,,,
1696594322.430220,689341.000000000,1696594322.428990602,-0.013000000,-0.002000000,0.026000000,0.000000000,0.000000000,0.000000000,,,,,,,,
1696594322.431825,689342.000000000,1696594322.431038380,-0.014000000,-0.002000000,0.025000000,0.000000000,0.000000000,0.000000000,,,,,,,,
1696594322.433904,689343.000000000,1696594322.433007956,-0.015000000,-0.001000000,0.022000000,0.000000000,0.000000000,0.000000000,,,,,,,,
1696594322.434721,,,,,,,,,204034.000000000,1696594322.433634043,29.107146304,-4.288262329,-0.297899877,-1.184482124,-5.892162376,1.440142195
1696594322.435987,689344.000000000,1696594322.435135126,-0.016000000,-0.001000000,0.021000000,0.000000000,0.000000000,0.000000000,,,,,,,,
1696594322.437780,689345.000000000,1696594322.437019348,-0.018000000,0.000000000,0.019000000,0.000000000,0.000000000,0.000000000,,,,,,,,
1696594322.439793,689346.000000000,1696594322.438998222,-0.020000000,0.000000000,0.017000000,0.000000000,0.000000000,0.000000000,,,,,,,,
1696594322.441949,689347.000000000,1696594322.441051245,-0.021000000,0.001000000,0.014000000,0.000000000,0.000000000,0.000000000,,,,,,,,
1696594322.443278,,,,,,,,,204035.000000000,1696594322.441634417,28.810786686,-4.879795235,0.046125760,-1.387696245,-5.859286773,1.388892650
1696594322.445329,689348.000000000,1696594322.443433523,-0.022000000,0.002000000,0.012000000,0.000000000,0.000000000,0.000000000,,,,,,,,
1696594322.446438,689349.000000000,1696594322.445676327,-0.023000000,0.003000000,0.010000000,0.000000000,0.000000000,0.000000000,,,,,,,,
1696594322.448663,689350.000000000,1696594322.447018147,-0.023000000,0.004000000,0.008000000,0.000000000,0.000000000,0.000000000,,,,,,,,
1696594322.449847,689351.000000000,1696594322.449010849,-0.023000000,0.005000000,0.006000000,0.000000000,0.000000000,0.000000000,,,,,,,,
1696594322.450417,,,,,,,,,204036.000000000,1696594322.449590921,28.739891579,-4.902095300,0.283790707,-1.352888996,-5.592276869,1.457455403
1696594322.451773,689352.000000000,1696594322.451015234,-0.024000000,0.007000000,0.003000000,0.000000000,0.000000000,0.000000000,,,,,,,,
1696594322.453793,689353.000000000,1696594322.453023911,-0.024000000,0.008000000,0.000000000,0.000000000,0.000000000,0.000000000,,,,,,,,
1696594322.455844,689354.000000000,1696594322.455012560,-0.025000000,0.009000000,-0.001000000,0.000000000,0.000000000,0.000000000,,,,,,,,
1696594322.457746,689355.000000000,1696594322.457008839,-0.027000000,0.010000000,-0.005000000,0.000000000,0.000000000,0.000000000,,,,,,,,
1696594322.458922,,,,,,,,,204037.000000000,1696594322.457624912,28.207598830,-4.352831347,0.034452978,-1.220644236,-5.289789845,1.394812288
1696594322.459844,689356.000000000,1696594322.459027529,-0.028000000,0.011000000,-0.007000000,0.000000000,0.000000000,0.000000000,,,,,,,,
1696594322.462301,689357.000000000,1696594322.461194277,-0.030000000,0.012000000,-0.012000000,0.000000000,0.000000000,0.000000000,,,,,,,,
1696594322.463854,689358.000000000,1696594322.463023424,-0.031000000,0.013000000,-0.015000000,0.000000000,0.000000000,0.000000000,,,,,,,,
1696594322.465843,689359.000000000,1696594322.465020895,-0.032000000,0.014000000,-0.017000000,0.000000000,0.000000000,0.000000000,,,,,,,,
1696594322.466766,,,,,,,,,204038.000000000,1696594322.465605497,27.916672091,-5.226518422,-0.357318205,-1.535514664,-5.224707470,1.428584167
1696594322.468471,689360.000000000,1696594322.467058897,-0.032000000,0.015000000,-0.019000000,0.000000000,0.000000000,0.000000000,,,,,,,,
1696594322.469804,689361.000000000,1696594322.469035149,-0.031000000,0.016000000,-0.022000000,0.000000000,0.000000000,0.000000000,,,,,,,,
1696594322.471845,689362.000000000,1696594322.471023083,-0.031000000,0.017000000,-0.022000000,0.000000000,0.000000000,0.000000000,,,,,,,,
1696594322.473861,689363.000000000,1696594322.473064184,-0.031000000,0.018000000,-0.025000000,0.000000000,0.000000000,0.000000000,,,,,,,,
1696594322.474617,,,,,,,,,204039.000000000,1696594322.473626614,28.563672000,-4.992517158,0.003613520,-1.453740443,-5.565310235,1.402361944
1696594322.475773,689364.000000000,1696594322.475014448,-0.030000000,0.018000000,-0.027000000,0.000000000,0.000000000,0.000000000,,,,,,,,
1696594322.477877,689365.000000000,1696594322.477015018,-0.031000000,0.019000000,-0.029000000,0.000000000,0.000000000,0.000000000,,,,,,,,
1696594322.479764,689366.000000000,1696594322.479010344,-0.031000000,0.019000000,-0.030000000,0.000000000,0.000000000,0.000000000,,,,,,,,
1696594322.481776,689367.000000000,1696594322.481023550,-0.032000000,0.019000000,-0.031000000,0.000000000,0.000000000,0.000000000,,,,,,,,
1696594322.482422,,,,,,,,,204040.000000000,1696594322.481599092,28.309863044,-5.044008994,-0.101041778,-1.457889830,-5.447498126,1.387757927
1696594322.483791,689368.000000000,1696594322.483018160,-0.032000000,0.019000000,-0.033000000,0.000000000,0.000000000,0.000000000,,,,,,,,
1696594322.485770,689369.000000000,1696594322.485013723,-0.033000000,0.019000000,-0.034000000,0.000000000,0.000000000,0.000000000,,,,,,,,
1696594322.488835,689370.000000000,1696594322.487004995,-0.033000000,0.019000000,-0.033000000,0.000000000,0.000000000,0.000000000,,,,,,,,
1696594322.489837,689371.000000000,1696594322.489044905,-0.033000000,0.018000000,-0.033000000,0.000000000,0.000000000,0.000000000,,,,,,,,
1696594322.491117,,,,,,,,,204041.000000000,1696594322.489660978,27.742457098,-5.212809095,0.279633502,-1.531576215,-4.979289186,1.427558192
1696594322.491776,689372.000000000,1696594322.491024017,-0.031000000,0.018000000,-0.033000000,0.000000000,0.000000000,0.000000000,,,,,,,,
1696594322.493888,689373.000000000,1696594322.493021011,-0.030000000,0.017000000,-0.031000000,0.000000000,0.000000000,0.000000000,,,,,,,,
1696594322.495820,689374.000000000,1696594322.494994640,-0.029000000,0.017000000,-0.029000000,0.000000000,0.000000000,0.000000000,,,,,,,,
1696594322.497746,689375.000000000,1696594322.496996164,-0.028000000,0.016000000,-0.028000000,0.000000000,0.000000000,0.000000000,,,,,,,,
1696594322.498638,,,,,,,,,204042.000000000,1696594322.497671127,28.175226131,-4.421734861,-0.560416772,-1.227848104,-5.184383440,1.450243953
1696594322.499794,689376.000000000,1696594322.499014139,-0.027000000,0.015000000,-0.026000000,0.000000000,0.000000000,0.000000000,,,,,,,,
1696594322.501830,689377.000000000,1696594322.500996828,-0.027000000,0.014000000,-0.025000000,0.000000000,0.000000000,0.000000000,,,,,,,,
1696594322.503860,689378.000000000,1696594322.503019810,-0.027000000,0.013000000,-0.022000000,0.000000000,0.000000000,0.000000000,,,,,,,,
1696594322.506699,689379.000000000,1696594322.505048513,-0.027000000,0.011000000,-0.019000000,0.000000000,0.000000000,0.000000000,,,,,,,,
1696594322.507019,,,,,,,,,204043.000000000,1696594322.505631447,28.229514100,-5.249862218,-0.576434315,-1.542759564,-5.330695580,1.471654296
1696594322.508864,689380.000000000,1696594322.507011175,-0.027000000,0.010000000,-0.017000000,0.000000000,0.000000000,0.000000000,,,,,,,,
1696594322.510217,689381.000000000,1696594322.509018660,-0.027000000,0.008000000,-0.015000000,0.000000000,0.000000000,0.000000000,,,,,,,,
1696594322.512107,689382.000000000,1696594322.511060476,-0.026000000,0.007000000,-0.011000000,0.000000000,0.000000000,0.000000000,,,,,,,,
1696594322.513800,689383.000000000,1696594322.513008356,-0.025000000,0.005000000,-0.007000000,0.000000000,0.000000000,0.000000000,,,,,,,,
1696594322.514425,,,,,,,,,204044.000000000,1696594322.513599157,28.415959978,-3.816753934,0.500643319,-0.973569411,-5.333206079,1.336128963
1696594322.515825,689384.000000000,1696594322.515004158,-0.024000000,0.004000000,-0.003000000,0.000000000,0.000000000,0.000000000,,,,,,,,
1696594322.517836,689385.000000000,1696594322.517007113,-0.023000000,0.003000000,0.000000000,0.000000000,0.000000000,0.000000000,,,,,,,,
1696594322.519836,689386.000000000,1696594322.519009590,-0.021000000,0.001000000,0.003000000,0.000000000,0.000000000,0.000000000,,,,,,,,
1696594322.522321,689387.000000000,1696594322.521009684,-0.020000000,0.000000000,0.007000000,0.000000000,0.000000000,0.000000000,,,,,,,,
1696594322.522826,,,,,,,,,204045.000000000,1696594322.521629095,28.298747624,-4.584655974,0.243620681,-1.265241958,-5.406336286,1.342366373
1696594322.523860,689388.000000000,1696594322.523001194,-0.019000000,0.000000000,0.011000000,0.000000000,0.000000000,0.000000000,,,,,,,,
1696594322.525951,689389.000000000,1696594322.525012970,-0.019000000,-0.002000000,0.013000000,0.000000000,0.000000000,0.000000000,,,,,,,,
1696594322.529000,689390.000000000,1696594322.527032852,-0.019000000,-0.003000000,0.016000000,0.000000000,0.000000000,0.000000000,,,,,,,,
1696594322.529807,689391.000000000,1696594322.529011488,-0.019000000,-0.004000000,0.020000000,0.000000000,0.000000000,0.000000000,,,,,,,,
1696594322.530765,,,,,,,,,204046.000000000,1696594322.529700756,28.733195172,-4.836070350,-0.287795620,-1.368013189,-5.631249006,1.415593096
1696594322.531856,689392.000000000,1696594322.531027794,-0.019000000,-0.006000000,0.022000000,0.000000000,0.000000000,0.000000000,,,,,,,,
1696594322.534449,689393.000000000,1696594322.533075571,-0.018000000,-0.006000000,0.025000000,0.000000000,0.000000000,0.000000000,,,,,,,,
1696594322.535858,689394.000000000,1696594322.535009384,-0.018000000,-0.007000000,0.028000000,0.000000000,0.000000000,0.000000000,,,,,,,,
1696594322.537849,689395.000000000,1696594322.537015915,-0.016000000,-0.008000000,0.030000000,0.000000000,0.000000000,0.000000000,,,,,,,,
1696594322.538479,,,,,,,,,204047.000000000,1696594322.537623882,28.560079247,-4.653545663,-0.494313477,-1.273400679,-5.594576806,1.426814158
1696594322.539910,689396.000000000,1696594322.539033890,-0.014000000,-0.009000000,0.033000000,0.000000000,0.000000000,0.000000000,,,,,,,,
1696594322.541912,689397.000000000,1696594322.541099310,-0.013000000,-0.009000000,0.036000000,0.000000000,0.000000000,0.000000000,,,,,,,,
1696594322.543831,689398.000000000,1696594322.543030739,-0.012000000,-0.009000000,0.038000000,0.000000000,0.000000000,0.000000000,,,,,,,,
1696594322.545769,689399.000000000,1696594322.545002460,-0.011000000,-0.009000000,0.039000000,0.000000000,0.000000000,0.000000000,,,,,,,,
1696594322.547318,,,,,,,,,204048.000000000,1696594322.545594215,28.634940110,-5.276078207,-0.677363891,-1.525844309,-5.650767780,1.542722935
1696594322.548946,689400.000000000,1696594322.547067881,-0.010000000,-0.009000000,0.040000000,0.000000000,0.000000000,0.000000000,,,,,,,,
1696594322.550128,689401.000000000,1696594322.549095869,-0.010000000,-0.010000000,0.042000000,0.000000000,0.000000000,0.000000000,,,,,,,,
1696594322.551916,689402.000000000,1696594322.551117420,-0.010000000,-0.010000000,0.042000000,0.000000000,0.000000000,0.000000000,,,,,,,,
1696594322.553899,689403.000000000,1696594322.553014994,-0.010000000,-0.009000000,0.041000000,0.000000000,0.000000000,0.000000000,,,,,,,,
1696594322.554892,,,,,,,,,204049.000000000,1696594322.553658485,29.236109672,-3.788312274,-0.489731100,-0.934253757,-5.958758144,1.340130053
1696594322.555868,689404.000000000,1696594322.555046320,-0.010000000,-0.009000000,0.042000000,0.000000000,0.000000000,0.000000000,,,,,,,,
1696594322.557893,689405.000000000,1696594322.557076454,-0.009000000,-0.009000000,0.043000000,0.000000000,0.000000000,0.000000000,,,,,,,,
1696594322.559787,689406.000000000,1696594322.559028387,-0.008000000,-0.009000000,0.043000000,0.000000000,0.000000000,0.000000000,,,,,,,,
1696594322.563413,689407.000000000,1696594322.561135769,-0.007000000,-0.008000000,0.043000000,0.000000000,0.000000000,0.000000000,,,,,,,,
1696594322.563849,,,,,,,,,204050.000000000,1696594322.561667919,29.229613485,-5.436113104,-0.267874583,-1.587908371,-6.064231936,1.533488138
1696594322.564098,689408.000000000,1696594322.563041210,-0.005000000,-0.007000000,0.044000000,0.000000000,0.000000000,0.000000000,,,,,,,,
1696594322.565906,689409.000000000,1696594322.565091372,-0.004000000,-0.006000000,0.044000000,0.000000000,0.000000000,-0.001000000,,,,,,,,
1696594322.568539,689410.000000000,1696594322.567073107,-0.002000000,-0.006000000,0.044000000,0.000000000,0.000000000,0.000000000,,,,,,,,
1696594322.569911,689411.000000000,1696594322.569075108,-0.002000000,-0.005000000,0.043000000,0.000000000,0.000000000,0.000000000,,,,,,,,
1696594322.570604,,,,,,,,,204051.000000000,1696594322.569661617,28.477917176,-4.255563002,-0.147197418,-1.185133284,-5.458193594,1.450332863
1696594322.571876,689412.000000000,1696594322.571045637,-0.002000000,-0.004000000,0.044000000,0.000000000,0.000000000,0.000000000,,,,,,,,
1696594322.573796,689413.000000000,1696594322.573012829,-0.001000000,-0.004000000,0.041000000,0.000000000,0.000000000,0.000000000,,,,,,,,
1696594322.575778,689414.000000000,1696594322.575014353,-0.002000000,-0.003000000,0.042000000,0.000000000,0.000000000,0.000000000,,,,,,,,
1696594322.578003,689415.000000000,1696594322.577146530,-0.002000000,-0.003000000,0.041000000,0.000000000,0.000000000,0.000000000,,,,,,,,
1696594322.578784,,,,,,,,,204052.000000000,1696594322.577604055,28.948041099,-4.467324353,-0.751531051,-1.273805911,-5.748164162,1.413420451
1696594322.580006,689416.000000000,1696594322.579032421,-0.002000000,-0.002000000,0.041000000,0.000000000,0.000000000,0.000000000,,,,,,,,
1696594322.581904,689417.000000000,1696594322.581031561,-0.001000000,-0.001000000,0.041000000,0.000000000,0.000000000,0.000000000,,,,,,,,
1696594322.583809,689418.000000000,1696594322.583008766,0.000000000,-0.001000000,0.041000000,0.000000000,0.000000000,0.000000000,,,,,,,,
1696594322.585801,689419.000000000,1696594322.584980726,0.000000000,0.000000000,0.041000000,0.000000000,0.000000000,0.000000000,,,,,,,,
1696594322.587063,,,,,,,,,204053.000000000,1696594322.585712433,28.612698952,-4.943085416,-0.216306610,-1.462175635,-5.595862159,1.415921993
1696594322.588509,689420.000000000,1696594322.587013483,0.001000000,0.000000000,0.041000000,0.000000000,0.000000000,0.000000000,,,,,,,,
1696594322.589802,689421.000000000,1696594322.588981152,0.002000000,0.000000000,0.041000000,0.000000000,0.000000000,0.000000000,,,,,,,,
1696594322.591777,689422.000000000,1696594322.590980530,0.002000000,0.000000000,0.042000000,0.000000000,0.000000000,0.000000000,,,,,,,,
1696594322.593776,689423.000000000,1696594322.592971563,0.002000000,0.000000000,0.042000000,0.000000000,0.000000000,0.000000000,,,,,,,,
1696594322.595087,,,,,,,,,204054.000000000,1696594322.593733549,28.350948203,-5.219160178,-0.303819473,-1.575857577,-5.533725248,1.430771435
1696594322.595774,689424.000000000,1696594322.594996929,0.001000000,0.000000000,0.042000000,0.000000000,0.000000000,0.000000000,,,,,,,,
1696594322.598308,689425.000000000,1696594322.596987247,0.000000000,0.000000000,0.042000000,0.000000000,0.000000000,0.000000000,,,,,,,,
1696594322.599739,689426.000000000,1696594322.599001408,0.000000000,0.000000000,0.042000000,0.000000000,0.000000000,0.000000000,,,,,,,,
1696594322.602063,689427.000000000,1696594322.600977182,0.000000000,0.000000000,0.043000000,0.000000000,0.000000000,0.000000000,,,,,,,,
1696594322.602683,,,,,,,,,204055.000000000,1696594322.601630449,28.788440126,-4.211305136,-0.500860168,-1.141172031,-5.709549486,1.424056456
1696594322.603805,689428.000000000,1696594322.603004932,0.000000000,0.000000000,0.044000000,0.000000000,0.000000000,0.000000000,,,,,,,,
1696594322.605814,689429.000000000,1696594322.605008602,0.000000000,0.000000000,0.045000000,0.000000000,0.000000000,-0.001000000,,,,,,,,
1696594322.608337,689430.000000000,1696594322.607049227,0.000000000,0.000000000,0.047000000,0.000000000,0.000000000,-0.001000000,,,,,,,,
1696594322.609760,689431.000000000,1696594322.609003782,0.000000000,0.000000000,0.048000000,0.000000000,0.000000000,-0.001000000,,,,,,,,
1696594322.610542,,,,,,,,,204056.000000000,1696594322.609596014,28.130371730,-4.774094229,0.524084199,-1.349160954,-5.348224168,1.356927888
1696594322.611828,689432.000000000,1696594322.611050844,0.000000000,0.000000000,0.049000000,0.000000000,0.000000000,-0.001000000,,,,,,,,
1696594322.613894,689433.000000000,1696594322.613027811,0.000000000,0.000000000,0.051000000,0.000000000,0.000000000,-0.001000000,,,,,,,,
1696594322.615757,689434.000000000,1696594322.614998579,-0.001000000,0.000000000,0.052000000,0.000000000,0.000000000,-0.001000000,,,,,,,,
1696594322.617862,689435.000000000,1696594322.617017508,-0.002000000,0.000000000,0.052000000,0.000000000,0.000000000,-0.001000000,,,,,,,,
1696594322.618411,,,,,,,,,204057.000000000,1696594322.617625475,28.474207168,-5.011780008,0.236779822,-1.475714774,-5.538521333,1.402069552
1696594322.619909,689436.000000000,1696594322.619084597,-0.003000000,-0.001000000,0.053000000,0.000000000,0.000000000,-0.001000000,,,,,,,,
1696594322.622655,689437.000000000,1696594322.621046543,-0.005000000,-0.001000000,0.054000000,0.000000000,0.000000000,-0.001000000,,,,,,,,
1696594322.623918,689438.000000000,1696594322.623017550,-0.006000000,-0.002000000,0.055000000,0.000000000,0.000000000,-0.001000000,,,,,,,,
1696594322.625854,689439.000000000,1696594322.625011206,-0.007000000,-0.002000000,0.056000000,0.000000000,0.000000000,-0.001000000,,,,,,,,
1696594322.627030,,,,,,,,,204058.000000000,1696594322.625677586,28.979958383,-4.909719829,0.369341111,-1.427961226,-5.918926092,1.500007738
1696594322.628966,689440.000000000,1696594322.627080202,-0.007000000,-0.002000000,0.058000000,0.000000000,0.000000000,-0.001000000,,,,,,,,
1696594322.629863,689441.000000000,1696594322.629028797,-0.007000000,-0.002000000,0.059000000,0.000000000,0.000000000,-0.001000000,,,,,,,,
1696594322.631791,689442.000000000,1696594322.630995274,-0.007000000,-0.003000000,0.060000000,0.000000000,0.000000000,-0.001000000,,,,,,,,
1696594322.633830,689443.000000000,1696594322.632999897,-0.007000000,-0.003000000,0.061000000,0.000000000,0.000000000,-0.001000000,,,,,,,,
1696594322.634746,,,,,,,,,204059.000000000,1696594322.633630037,29.071418200,-4.479138770,-0.416876899,-1.239398297,-5.899901070,1.427912045
1696594322.635805,689444.000000000,1696594322.635011435,-0.008000000,-0.003000000,0.062000000,0.000000000,0.000000000,-0.001000000,,,,,,,,
1696594322.637862,689445.000000000,1696594322.637018681,-0.008000000,-0.003000000,0.063000000,0.000000000,0.000000000,-0.001000000,,,,,,,,
1696594322.639781,689446.000000000,1696594322.639008760,-0.010000000,-0.003000000,0.064000000,0.000000000,0.000000000,-0.001000000,,,,,,,,
1696594322.641796,689447.000000000,1696594322.641009569,-0.011000000,-0.003000000,0.064000000,0.000000000,0.000000000,-0.001000000,,,,,,,,
1696594322.642558,,,,,,,,,204060.000000000,1696594322.641595602,28.829139119,-4.778572331,-0.071936546,-1.335427313,-5.768032516,1.511802603
1696594322.643858,689448.000000000,1696594322.643058538,-0.012000000,-0.004000000,0.064000000,0.000000000,0.000000000,-0.001000000,,,,,,,,
1696594322.645826,689449.000000000,1696594322.645018578,-0.013000000,-0.004000000,0.063000000,0.000000000,0.000000000,-0.001000000,,,,,,,,
1696594322.648555,689450.000000000,1696594322.646995783,-0.014000000,-0.004000000,0.064000000,0.000000000,0.000000000,-0.001000000,,,,,,,,
1696594322.649848,689451.000000000,1696594322.649018288,-0.015000000,-0.004000000,0.064000000,0.000000000,0.000000000,-0.001000000,,,,,,,,
1696594322.650455,,,,,,,,,204061.000000000,1696594322.649625540,28.474612721,-4.856605261,0.279363198,-1.405672901,-5.527526340,1.359449228
1696594322.651796,689452.000000000,1696594322.651025772,-0.015000000,-0.004000000,0.065000000,0.000000000,0.000000000,-0.001000000,,,,,,,,
1696594322.653911,689453.000000000,1696594322.653072119,-0.014000000,-0.004000000,0.065000000,0.000000000,0.000000000,-0.001000000,,,,,,,,
1696594322.655797,689454.000000000,1696594322.655017138,-0.014000000,-0.003000000,0.066000000,0.000000000,0.000000000,-0.001000000,,,,,,,,
1696594322.657818,689455.000000000,1696594322.657012224,-0.014000000,-0.003000000,0.066000000,0.000000000,0.000000000,-0.001000000,,,,,,,,
1696594322.658994,,,,,,,,,204062.000000000,1696594322.657602787,29.039369588,-4.068352684,-0.296735016,-1.104784176,-5.836144125,1.506561946
1696594322.659843,689456.000000000,1696594322.659026623,-0.014000000,-0.003000000,0.065000000,0.000000000,0.000000000,-0.001000000,,,,,,,,
1696594322.662037,689457.000000000,1696594322.661206484,-0.014000000,-0.003000000,0.064000000,0.000000000,0.000000000,-0.001000000,,,,,,,,
1696594322.663767,689458.000000000,1696594322.663006783,-0.015000000,-0.003000000,0.063000000,0.000000000,0.000000000,-0.001000000,,,,,,,,
1696594322.665883,689459.000000000,1696594322.665111780,-0.016000000,-0.003000000,0.062000000,0.000000000,0.000000000,-0.001000000,,,,,,,,
1696594322.666814,,,,,,,,,204063.000000000,1696594322.665628195,28.529382716,-5.250202715,-0.133286464,-1.505274257,-5.581385903,1.418227576
1696594322.668577,689460.000000000,1696594322.667020798,-0.017000000,-0.003000000,0.060000000,0.000000000,0.000000000,-0.001000000,,,,,,,,
1696594322.669806,689461.000000000,1696594322.669041872,-0.018000000,-0.003000000,0.060000000,0.000000000,0.000000000,-0.001000000,,,,,,,,
1696594322.671765,689462.000000000,1696594322.671011209,-0.018000000,-0.003000000,0.058000000,0.000000000,0.000000000,-0.001000000,,,,,,,,
1696594322.673818,689463.000000000,1696594322.673026085,-0.017000000,-0.003000000,0.058000000,0.000000000,0.000000000,-0.001000000,,,,,,,,
1696594322.674696,,,,,,,,,204064.000000000,1696594322.673607588,28.854317848,-5.248936684,-0.133962733,-1.561085905,-5.838866649,1.392409185
1696594322.675832,689464.000000000,1696594322.675034285,-0.017000000,-0.002000000,0.058000000,0.000000000,0.000000000,-0.001000000,,,,,,,,
1696594322.677830,689465.000000000,1696594322.677013397,-0.016000000,-0.002000000,0.056000000,0.000000000,0.000000000,-0.001000000,,,,,,,,
1696594322.679744,689466.000000000,1696594322.678985357,-0.015000000,-0.002000000,0.055000000,0.000000000,0.000000000,-0.001000000,,,,,,,,
1696594322.681803,689467.000000000,1696594322.680984020,-0.015000000,-0.002000000,0.056000000,0.000000000,0.000000000,-0.001000000,,,,,,,,
1696594322.682514,,,,,,,,,204065.000000000,1696594322.681619644,28.794019247,-3.890734247,-0.414601423,-1.052319747,-5.629163915,1.448720417
