__time,/kms40_driver/wrench/header/seq,/kms40_driver/wrench/header/stamp,/kms40_driver/wrench/wrench/force/x,/kms40_driver/wrench/wrench/force/y,/kms40_driver/wrench/wrench/force/z,/kms40_driver/wrench/wrench/torque/x,/kms40_driver/wrench/wrench/torque/y,/kms40_driver/wrench/wrench/torque/z
1696853696.872034,4769102.000000000,1696853696.872345448,-0.019000000,-0.127000000,0.064000000,0.007000000,-0.001000000,-0.005000000
1696853696.874097,4769103.000000000,1696853696.874326944,-0.018000000,-0.128000000,0.065000000,0.007000000,-0.001000000,-0.005000000
1696853696.876052,4769104.000000000,1696853696.876289129,-0.016000000,-0.129000000,0.061000000,0.007000000,-0.001000000,-0.005000000
1696853696.878017,4769105.000000000,1696853696.878275156,-0.016000000,-0.130000000,0.063000000,0.007000000,-0.001000000,-0.005000000
1696853696.880094,4769106.000000000,1696853696.880282640,-0.015000000,-0.131000000,0.063000000,0.007000000,-0.001000000,-0.005000000
1696853696.882213,4769107.000000000,1696853696.882428646,-0.014000000,-0.131000000,0.061000000,0.007000000,0.000000000,-0.005000000
1696853696.884067,4769108.000000000,1696853696.884292603,-0.013000000,-0.132000000,0.062000000,0.007000000,0.000000000,-0.005000000
1696853696.886081,4769109.000000000,1696853696.886259794,-0.012000000,-0.131000000,0.062000000,0.007000000,0.000000000,-0.005000000
1696853696.888021,4769110.000000000,1696853696.888260841,-0.011000000,-0.130000000,0.063000000,0.007000000,0.000000000,-0.006000000
1696853696.890008,4769111.000000000,1696853696.890264273,-0.011000000,-0.129000000,0.063000000,0.007000000,0.000000000,-0.006000000
1696853696.892081,4769112.000000000,1696853696.892290115,-0.010000000,-0.128000000,0.063000000,0.007000000,0.000000000,-0.006000000
1696853696.894061,4769113.000000000,1696853696.894274712,-0.010000000,-0.127000000,0.063000000,0.007000000,0.000000000,-0.006000000
1696853696.896057,4769114.000000000,1696853696.896286964,-0.009000000,-0.126000000,0.064000000,0.007000000,0.000000000,-0.006000000
1696853696.898043,4769115.000000000,1696853696.898289680,-0.009000000,-0.127000000,0.063000000,0.007000000,0.000000000,-0.006000000
1696853696.900169,4769116.000000000,1696853696.900412560,-0.008000000,-0.127000000,0.062000000,0.007000000,0.000000000,-0.006000000
1696853696.902025,4769117.000000000,1696853696.902267456,-0.007000000,-0.128000000,0.061000000,0.007000000,0.000000000,-0.006000000
1696853696.903991,4769118.000000000,1696853696.904262066,-0.007000000,-0.129000000,0.060000000,0.007000000,0.000000000,-0.006000000
1696853696.906073,4769119.000000000,1696853696.906335592,-0.006000000,-0.129000000,0.060000000,0.007000000,0.000000000,-0.006000000
1696853696.908193,4769120.000000000,1696853696.908389091,-0.006000000,-0.128000000,0.060000000,0.007000000,0.000000000,-0.006000000
1696853696.910018,4769121.000000000,1696853696.910290956,-0.006000000,-0.127000000,0.060000000,0.007000000,0.000000000,-0.006000000
1696853696.912102,4769122.000000000,1696853696.912329435,-0.005000000,-0.126000000,0.061000000,0.007000000,0.000000000,-0.006000000
1696853696.914203,4769123.000000000,1696853696.914309025,-0.005000000,-0.124000000,0.061000000,0.007000000,0.000000000,-0.006000000
1696853696.916040,4769124.000000000,1696853696.916291952,-0.006000000,-0.123000000,0.061000000,0.007000000,0.000000000,-0.006000000
1696853696.918255,4769125.000000000,1696853696.918488026,-0.006000000,-0.122000000,0.061000000,0.007000000,0.000000000,-0.006000000
1696853696.920082,4769126.000000000,1696853696.920282125,-0.006000000,-0.122000000,0.061000000,0.007000000,0.000000000,-0.006000000
1696853696.922067,4769127.000000000,1696853696.922291040,-0.006000000,-0.122000000,0.061000000,0.007000000,0.000000000,-0.006000000
1696853696.924030,4769128.000000000,1696853696.924271107,-0.006000000,-0.122000000,0.059000000,0.007000000,0.000000000,-0.006000000
1696853696.926067,4769129.000000000,1696853696.926276207,-0.006000000,-0.123000000,0.058000000,0.007000000,0.000000000,-0.006000000
1696853696.928029,4769130.000000000,1696853696.928276300,-0.006000000,-0.123000000,0.058000000,0.007000000,0.000000000,-0.006000000
1696853696.930288,4769131.000000000,1696853696.930280924,-0.006000000,-0.122000000,0.059000000,0.007000000,0.000000000,-0.006000000
1696853696.932462,4769132.000000000,1696853696.932294607,-0.007000000,-0.121000000,0.060000000,0.007000000,0.000000000,-0.006000000
1696853696.934199,4769133.000000000,1696853696.934275866,-0.007000000,-0.119000000,0.060000000,0.007000000,0.000000000,-0.006000000
1696853696.935989,4769134.000000000,1696853696.936277390,-0.008000000,-0.118000000,0.061000000,0.007000000,0.000000000,-0.006000000
1696853696.938037,4769135.000000000,1696853696.938279390,-0.008000000,-0.116000000,0.063000000,0.007000000,0.000000000,-0.006000000
1696853696.940071,4769136.000000000,1696853696.940299511,-0.009000000,-0.114000000,0.063000000,0.007000000,0.000000000,-0.006000000
1696853696.942019,4769137.000000000,1696853696.942269802,-0.010000000,-0.114000000,0.064000000,0.007000000,0.000000000,-0.006000000
1696853696.944031,4769138.000000000,1696853696.944277048,-0.010000000,-0.114000000,0.064000000,0.007000000,0.000000000,-0.006000000
1696853696.946084,4769139.000000000,1696853696.946288824,-0.011000000,-0.115000000,0.064000000,0.007000000,0.000000000,-0.006000000
1696853696.948081,4769140.000000000,1696853696.948282957,-0.011000000,-0.115000000,0.065000000,0.007000000,0.000000000,-0.006000000
1696853696.949898,4769141.000000000,1696853696.950275421,-0.012000000,-0.116000000,0.065000000,0.007000000,0.000000000,-0.006000000
1696853696.951961,4769142.000000000,1696853696.952286959,-0.013000000,-0.115000000,0.066000000,0.007000000,0.000000000,-0.006000000
1696853696.953975,4769143.000000000,1696853696.954275608,-0.014000000,-0.115000000,0.067000000,0.006000000,0.000000000,-0.006000000
1696853696.956318,4769144.000000000,1696853696.956294298,-0.015000000,-0.114000000,0.069000000,0.006000000,0.000000000,-0.006000000
1696853696.958108,4769145.000000000,1696853696.958288193,-0.016000000,-0.112000000,0.072000000,0.006000000,0.000000000,-0.006000000
1696853696.959975,4769146.000000000,1696853696.960282564,-0.017000000,-0.111000000,0.073000000,0.006000000,0.000000000,-0.006000000
1696853696.962077,4769147.000000000,1696853696.962327003,-0.018000000,-0.110000000,0.076000000,0.006000000,0.000000000,-0.006000000
1696853696.963937,4769148.000000000,1696853696.964271069,-0.020000000,-0.110000000,0.077000000,0.006000000,0.000000000,-0.006000000
1696853696.966471,4769149.000000000,1696853696.966375589,-0.021000000,-0.111000000,0.078000000,0.006000000,0.000000000,-0.006000000
1696853696.968465,4769150.000000000,1696853696.968355417,-0.022000000,-0.112000000,0.078000000,0.006000000,-0.001000000,-0.006000000
1696853696.970060,4769151.000000000,1696853696.970311165,-0.022000000,-0.113000000,0.079000000,0.006000000,-0.001000000,-0.006000000
1696853696.971997,4769152.000000000,1696853696.972287655,-0.024000000,-0.114000000,0.080000000,0.006000000,-0.001000000,-0.006000000
1696853696.973900,4769153.000000000,1696853696.974247217,-0.025000000,-0.115000000,0.081000000,0.006000000,-0.001000000,-0.006000000
1696853696.975914,4769154.000000000,1696853696.976282835,-0.026000000,-0.115000000,0.082000000,0.006000000,-0.001000000,-0.006000000
1696853696.978007,4769155.000000000,1696853696.978281736,-0.027000000,-0.115000000,0.083000000,0.006000000,-0.001000000,-0.006000000
1696853696.979921,4769156.000000000,1696853696.980227470,-0.029000000,-0.115000000,0.085000000,0.006000000,-0.001000000,-0.006000000
1696853696.981939,4769157.000000000,1696853696.982248306,-0.030000000,-0.115000000,0.086000000,0.006000000,-0.001000000,-0.006000000
1696853696.983961,4769158.000000000,1696853696.984332800,-0.031000000,-0.114000000,0.086000000,0.006000000,-0.001000000,-0.005000000
1696853696.986135,4769159.000000000,1696853696.986382484,-0.033000000,-0.115000000,0.089000000,0.006000000,-0.001000000,-0.005000000
1696853696.988027,4769160.000000000,1696853696.988347530,-0.033000000,-0.116000000,0.087000000,0.006000000,-0.001000000,-0.005000000
1696853696.989919,4769161.000000000,1696853696.990286350,-0.034000000,-0.117000000,0.087000000,0.006000000,-0.001000000,-0.005000000
1696853696.991985,4769162.000000000,1696853696.992299557,-0.036000000,-0.119000000,0.087000000,0.007000000,-0.001000000,-0.005000000
1696853696.993933,4769163.000000000,1696853696.994286060,-0.036000000,-0.122000000,0.085000000,0.007000000,-0.001000000,-0.005000000
1696853696.996065,4769164.000000000,1696853696.996345043,-0.037000000,-0.123000000,0.085000000,0.007000000,-0.002000000,-0.005000000
1696853696.997938,4769165.000000000,1696853696.998296499,-0.038000000,-0.124000000,0.084000000,0.007000000,-0.002000000,-0.005000000
1696853696.999983,4769166.000000000,1696853697.000354528,-0.039000000,-0.125000000,0.083000000,0.007000000,-0.002000000,-0.005000000
1696853697.002507,4769167.000000000,1696853697.002862453,-0.039000000,-0.125000000,0.082000000,0.007000000,-0.002000000,-0.005000000
1696853697.003917,4769168.000000000,1696853697.004281759,-0.040000000,-0.125000000,0.082000000,0.007000000,-0.002000000,-0.005000000
1696853697.006020,4769169.000000000,1696853697.006351709,-0.040000000,-0.124000000,0.080000000,0.007000000,-0.002000000,-0.005000000
1696853697.007982,4769170.000000000,1696853697.008345604,-0.041000000,-0.125000000,0.077000000,0.007000000,-0.002000000,-0.005000000
1696853697.010708,4769171.000000000,1696853697.010400534,-0.041000000,-0.125000000,0.075000000,0.007000000,-0.002000000,-0.005000000
1696853697.012028,4769172.000000000,1696853697.012272596,-0.041000000,-0.126000000,0.070000000,0.007000000,-0.002000000,-0.005000000
1696853697.013951,4769173.000000000,1696853697.014324188,-0.041000000,-0.128000000,0.068000000,0.007000000,-0.002000000,-0.005000000
1696853697.015923,4769174.000000000,1696853697.016288042,-0.040000000,-0.129000000,0.062000000,0.007000000,-0.002000000,-0.005000000
1696853697.018515,4769175.000000000,1696853697.018303394,-0.039000000,-0.130000000,0.058000000,0.007000000,-0.002000000,-0.005000000
1696853697.019937,4769176.000000000,1696853697.020268917,-0.038000000,-0.131000000,0.053000000,0.007000000,-0.002000000,-0.005000000
1696853697.021933,4769177.000000000,1696853697.022275686,-0.038000000,-0.130000000,0.050000000,0.007000000,-0.002000000,-0.005000000
1696853697.023972,4769178.000000000,1696853697.024336100,-0.037000000,-0.129000000,0.045000000,0.007000000,-0.002000000,-0.004000000
1696853697.025914,4769179.000000000,1696853697.026282787,-0.035000000,-0.127000000,0.041000000,0.007000000,-0.002000000,-0.004000000
1696853697.027960,4769180.000000000,1696853697.028334379,-0.034000000,-0.126000000,0.035000000,0.007000000,-0.002000000,-0.004000000
1696853697.029929,4769181.000000000,1696853697.030273676,-0.033000000,-0.124000000,0.031000000,0.007000000,-0.002000000,-0.004000000
1696853697.031966,4769182.000000000,1696853697.032301664,-0.031000000,-0.123000000,0.025000000,0.007000000,-0.002000000,-0.004000000
1696853697.033963,4769183.000000000,1696853697.034289122,-0.029000000,-0.122000000,0.018000000,0.007000000,-0.002000000,-0.004000000
1696853697.035974,4769184.000000000,1696853697.036340714,-0.027000000,-0.121000000,0.011000000,0.007000000,-0.001000000,-0.004000000
1696853697.038567,4769185.000000000,1696853697.038926601,-0.025000000,-0.121000000,0.005000000,0.007000000,-0.001000000,-0.004000000
1696853697.040151,4769186.000000000,1696853697.040516376,-0.022000000,-0.121000000,-0.005000000,0.007000000,-0.001000000,-0.004000000
1696853697.041947,4769187.000000000,1696853697.042279959,-0.020000000,-0.120000000,-0.010000000,0.007000000,-0.001000000,-0.004000000
1696853697.044240,4769188.000000000,1696853697.044273138,-0.017000000,-0.118000000,-0.017000000,0.007000000,-0.001000000,-0.004000000
1696853697.045890,4769189.000000000,1696853697.046267986,-0.014000000,-0.115000000,-0.023000000,0.007000000,-0.001000000,-0.003000000
1696853697.047930,4769190.000000000,1696853697.048263311,-0.011000000,-0.112000000,-0.029000000,0.007000000,-0.001000000,-0.003000000
1696853697.050195,4769191.000000000,1696853697.050327539,-0.008000000,-0.109000000,-0.037000000,0.007000000,0.000000000,-0.003000000
1696853697.051943,4769192.000000000,1696853697.052263260,-0.006000000,-0.106000000,-0.042000000,0.007000000,0.000000000,-0.003000000
1696853697.053909,4769193.000000000,1696853697.054280519,-0.004000000,-0.103000000,-0.047000000,0.007000000,0.000000000,-0.003000000
1696853697.056015,4769194.000000000,1696853697.056286097,0.000000000,-0.101000000,-0.055000000,0.006000000,0.000000000,-0.003000000
1696853697.057930,4769195.000000000,1696853697.058274984,0.001000000,-0.099000000,-0.062000000,0.006000000,0.000000000,-0.003000000
1696853697.060042,4769196.000000000,1696853697.060338259,0.005000000,-0.098000000,-0.068000000,0.006000000,0.000000000,-0.003000000
1696853697.062001,4769197.000000000,1696853697.062299728,0.007000000,-0.096000000,-0.074000000,0.006000000,0.000000000,-0.003000000
1696853697.063918,4769198.000000000,1696853697.064296246,0.010000000,-0.095000000,-0.080000000,0.006000000,0.000000000,-0.003000000
1696853697.066110,4769199.000000000,1696853697.066324234,0.012000000,-0.093000000,-0.085000000,0.006000000,0.000000000,-0.003000000
1696853697.067945,4769200.000000000,1696853697.068290710,0.014000000,-0.091000000,-0.089000000,0.006000000,0.000000000,-0.003000000
1696853697.069900,4769201.000000000,1696853697.070293427,0.017000000,-0.088000000,-0.092000000,0.006000000,0.000000000,-0.003000000
1696853697.071972,4769202.000000000,1696853697.072348118,0.019000000,-0.085000000,-0.095000000,0.006000000,0.000000000,-0.003000000
1696853697.074009,4769203.000000000,1696853697.074326038,0.020000000,-0.082000000,-0.098000000,0.006000000,0.000000000,-0.003000000
1696853697.075956,4769204.000000000,1696853697.076329231,0.021000000,-0.080000000,-0.099000000,0.006000000,0.000000000,-0.003000000
1696853697.077912,4769205.000000000,1696853697.078294277,0.023000000,-0.078000000,-0.102000000,0.006000000,0.000000000,-0.003000000
1696853697.080180,4769206.000000000,1696853697.080294609,0.024000000,-0.077000000,-0.103000000,0.006000000,0.000000000,-0.003000000
1696853697.082027,4769207.000000000,1696853697.082298040,0.025000000,-0.077000000,-0.105000000,0.006000000,0.000000000,-0.003000000
1696853697.083984,4769208.000000000,1696853697.084338188,0.025000000,-0.078000000,-0.104000000,0.006000000,0.000000000,-0.003000000
1696853697.086107,4769209.000000000,1696853697.086298704,0.026000000,-0.078000000,-0.106000000,0.006000000,0.001000000,-0.003000000
1696853697.088113,4769210.000000000,1696853697.088294983,0.026000000,-0.079000000,-0.105000000,0.006000000,0.001000000,-0.003000000
1696853697.090157,4769211.000000000,1696853697.090286016,0.026000000,-0.079000000,-0.103000000,0.006000000,0.001000000,-0.003000000
1696853697.091957,4769212.000000000,1696853697.092291594,0.026000000,-0.078000000,-0.101000000,0.006000000,0.001000000,-0.003000000
1696853697.093969,4769213.000000000,1696853697.094315529,0.025000000,-0.078000000,-0.098000000,0.006000000,0.000000000,-0.003000000
1696853697.095917,4769214.000000000,1696853697.096280098,0.024000000,-0.078000000,-0.094000000,0.006000000,0.000000000,-0.003000000
1696853697.097937,4769215.000000000,1696853697.098308086,0.022000000,-0.078000000,-0.090000000,0.006000000,0.000000000,-0.003000000
1696853697.099967,4769216.000000000,1696853697.100344896,0.021000000,-0.079000000,-0.085000000,0.006000000,0.000000000,-0.003000000
1696853697.101939,4769217.000000000,1696853697.102298260,0.019000000,-0.080000000,-0.081000000,0.006000000,0.000000000,-0.003000000
1696853697.103943,4769218.000000000,1696853697.104293585,0.018000000,-0.083000000,-0.077000000,0.006000000,0.000000000,-0.003000000
1696853697.106048,4769219.000000000,1696853697.106323481,0.016000000,-0.086000000,-0.072000000,0.006000000,0.000000000,-0.003000000
1696853697.108021,4769220.000000000,1696853697.108367205,0.014000000,-0.089000000,-0.068000000,0.006000000,0.000000000,-0.003000000
1696853697.110178,4769221.000000000,1696853697.110291719,0.012000000,-0.092000000,-0.063000000,0.006000000,0.000000000,-0.003000000
1696853697.112184,4769222.000000000,1696853697.112380266,0.009000000,-0.095000000,-0.055000000,0.006000000,0.000000000,-0.003000000
1696853697.114070,4769223.000000000,1696853697.114305735,0.007000000,-0.097000000,-0.049000000,0.006000000,0.000000000,-0.003000000
1696853697.116145,4769224.000000000,1696853697.116358042,0.005000000,-0.099000000,-0.043000000,0.006000000,0.000000000,-0.003000000
1696853697.117962,4769225.000000000,1696853697.118293762,0.002000000,-0.101000000,-0.035000000,0.006000000,0.000000000,-0.004000000
1696853697.119946,4769226.000000000,1696853697.120290279,0.000000000,-0.103000000,-0.029000000,0.007000000,0.000000000,-0.004000000
1696853697.121984,4769227.000000000,1696853697.122301340,-0.003000000,-0.105000000,-0.021000000,0.007000000,0.000000000,-0.004000000
1696853697.124030,4769228.000000000,1696853697.124295235,-0.005000000,-0.108000000,-0.014000000,0.007000000,0.000000000,-0.004000000
1696853697.125898,4769229.000000000,1696853697.126283407,-0.008000000,-0.112000000,-0.009000000,0.007000000,0.000000000,-0.004000000
1696853697.128021,4769230.000000000,1696853697.128408670,-0.010000000,-0.116000000,-0.004000000,0.007000000,-0.001000000,-0.004000000
1696853697.130091,4769231.000000000,1696853697.130293846,-0.013000000,-0.120000000,0.002000000,0.007000000,-0.001000000,-0.004000000
1696853697.132198,4769232.000000000,1696853697.132287741,-0.015000000,-0.124000000,0.008000000,0.007000000,-0.001000000,-0.004000000
1696853697.133895,4769233.000000000,1696853697.134281874,-0.017000000,-0.127000000,0.013000000,0.007000000,-0.001000000,-0.004000000
1696853697.135941,4769234.000000000,1696853697.136284113,-0.018000000,-0.130000000,0.020000000,0.007000000,-0.001000000,-0.004000000
1696853697.137960,4769235.000000000,1696853697.138326645,-0.020000000,-0.132000000,0.024000000,0.007000000,-0.001000000,-0.004000000
1696853697.139952,4769236.000000000,1696853697.140280724,-0.022000000,-0.133000000,0.032000000,0.008000000,-0.001000000,-0.004000000
1696853697.141940,4769237.000000000,1696853697.142282724,-0.023000000,-0.135000000,0.037000000,0.008000000,-0.001000000,-0.004000000
1696853697.143943,4769238.000000000,1696853697.144288301,-0.024000000,-0.136000000,0.042000000,0.008000000,-0.002000000,-0.004000000
1696853697.146001,4769239.000000000,1696853697.146287441,-0.026000000,-0.138000000,0.046000000,0.008000000,-0.002000000,-0.004000000
1696853697.147959,4769240.000000000,1696853697.148279905,-0.027000000,-0.140000000,0.050000000,0.008000000,-0.002000000,-0.005000000
1696853697.149939,4769241.000000000,1696853697.150287867,-0.027000000,-0.142000000,0.054000000,0.008000000,-0.002000000,-0.005000000
1696853697.152122,4769242.000000000,1696853697.152297497,-0.027000000,-0.145000000,0.056000000,0.008000000,-0.002000000,-0.005000000
1696853697.154520,4769243.000000000,1696853697.154287338,-0.027000000,-0.147000000,0.058000000,0.008000000,-0.002000000,-0.005000000
1696853697.156042,4769244.000000000,1696853697.156291246,-0.026000000,-0.149000000,0.060000000,0.008000000,-0.002000000,-0.005000000
1696853697.158256,4769245.000000000,1696853697.158283949,-0.026000000,-0.150000000,0.063000000,0.008000000,-0.002000000,-0.005000000
1696853697.160012,4769246.000000000,1696853697.160349131,-0.025000000,-0.150000000,0.065000000,0.008000000,-0.002000000,-0.005000000
1696853697.162048,4769247.000000000,1696853697.162272453,-0.025000000,-0.149000000,0.068000000,0.008000000,-0.002000000,-0.005000000
1696853697.164051,4769248.000000000,1696853697.164281607,-0.024000000,-0.149000000,0.071000000,0.008000000,-0.002000000,-0.005000000
1696853697.165975,4769249.000000000,1696853697.166310310,-0.022000000,-0.148000000,0.070000000,0.008000000,-0.002000000,-0.005000000
1696853697.167979,4769250.000000000,1696853697.168285370,-0.021000000,-0.147000000,0.073000000,0.008000000,-0.002000000,-0.005000000
1696853697.170051,4769251.000000000,1696853697.170284986,-0.020000000,-0.146000000,0.073000000,0.008000000,-0.002000000,-0.005000000
1696853697.171976,4769252.000000000,1696853697.172290325,-0.018000000,-0.146000000,0.072000000,0.008000000,-0.001000000,-0.005000000
1696853697.174024,4769253.000000000,1696853697.174273968,-0.016000000,-0.146000000,0.072000000,0.008000000,-0.001000000,-0.005000000
1696853697.175951,4769254.000000000,1696853697.176289558,-0.014000000,-0.146000000,0.070000000,0.008000000,-0.001000000,-0.005000000
1696853697.177940,4769255.000000000,1696853697.178282261,-0.013000000,-0.146000000,0.070000000,0.008000000,-0.001000000,-0.005000000
1696853697.180017,4769256.000000000,1696853697.180282593,-0.011000000,-0.145000000,0.070000000,0.008000000,-0.001000000,-0.005000000
1696853697.182171,4769257.000000000,1696853697.182324409,-0.009000000,-0.143000000,0.068000000,0.008000000,-0.001000000,-0.005000000
1696853697.183940,4769258.000000000,1696853697.184285402,-0.007000000,-0.141000000,0.067000000,0.008000000,-0.001000000,-0.005000000
1696853697.186015,4769259.000000000,1696853697.186305523,-0.005000000,-0.138000000,0.067000000,0.007000000,-0.001000000,-0.005000000
1696853697.187981,4769260.000000000,1696853697.188282013,-0.004000000,-0.135000000,0.067000000,0.007000000,-0.001000000,-0.005000000
1696853697.189914,4769261.000000000,1696853697.190280199,-0.002000000,-0.133000000,0.066000000,0.007000000,-0.001000000,-0.005000000
1696853697.192776,4769262.000000000,1696853697.192290783,0.000000000,-0.131000000,0.065000000,0.007000000,-0.001000000,-0.005000000
1696853697.193992,4769263.000000000,1696853697.194301128,0.000000000,-0.129000000,0.063000000,0.007000000,0.000000000,-0.005000000
1696853697.196042,4769264.000000000,1696853697.196287632,0.002000000,-0.128000000,0.061000000,0.007000000,0.000000000,-0.005000000
1696853697.198196,4769265.000000000,1696853697.198293209,0.003000000,-0.127000000,0.058000000,0.007000000,0.000000000,-0.005000000
1696853697.200166,4769266.000000000,1696853697.200355053,0.005000000,-0.126000000,0.056000000,0.007000000,0.000000000,-0.005000000
1696853697.201981,4769267.000000000,1696853697.202304840,0.006000000,-0.124000000,0.055000000,0.007000000,0.000000000,-0.005000000
1696853697.203985,4769268.000000000,1696853697.204351187,0.007000000,-0.122000000,0.052000000,0.006000000,0.000000000,-0.005000000
1696853697.206011,4769269.000000000,1696853697.206303835,0.007000000,-0.120000000,0.052000000,0.006000000,0.000000000,-0.005000000
1696853697.207984,4769270.000000000,1696853697.208337069,0.008000000,-0.117000000,0.051000000,0.006000000,0.000000000,-0.005000000
1696853697.210023,4769271.000000000,1696853697.210300684,0.007000000,-0.114000000,0.051000000,0.006000000,0.000000000,-0.005000000
1696853697.212003,4769272.000000000,1696853697.212356091,0.007000000,-0.111000000,0.049000000,0.006000000,0.000000000,-0.005000000
1696853697.213952,4769273.000000000,1696853697.214299679,0.007000000,-0.109000000,0.048000000,0.006000000,0.000000000,-0.005000000
1696853697.215991,4769274.000000000,1696853697.216286421,0.007000000,-0.108000000,0.046000000,0.006000000,0.000000000,-0.005000000
1696853697.218037,4769275.000000000,1696853697.218321562,0.006000000,-0.107000000,0.045000000,0.006000000,0.000000000,-0.005000000
1696853697.219954,4769276.000000000,1696853697.220275640,0.006000000,-0.107000000,0.044000000,0.006000000,0.000000000,-0.005000000
1696853697.221915,4769277.000000000,1696853697.222268343,0.005000000,-0.107000000,0.042000000,0.006000000,0.000000000,-0.005000000
1696853697.223988,4769278.000000000,1696853697.224287033,0.005000000,-0.108000000,0.041000000,0.006000000,0.000000000,-0.005000000
1696853697.225950,4769279.000000000,1696853697.226301432,0.004000000,-0.107000000,0.040000000,0.005000000,0.000000000,-0.005000000
1696853697.227942,4769280.000000000,1696853697.228276730,0.003000000,-0.107000000,0.039000000,0.005000000,0.000000000,-0.005000000
1696853697.229881,4769281.000000000,1696853697.230262518,0.001000000,-0.106000000,0.039000000,0.005000000,0.000000000,-0.005000000
1696853697.231980,4769282.000000000,1696853697.232332468,0.000000000,-0.104000000,0.040000000,0.005000000,0.000000000,-0.005000000
1696853697.233991,4769283.000000000,1696853697.234297752,-0.001000000,-0.104000000,0.040000000,0.005000000,0.000000000,-0.005000000
1696853697.235940,4769284.000000000,1696853697.236280680,-0.003000000,-0.103000000,0.040000000,0.005000000,0.000000000,-0.005000000
1696853697.237916,4769285.000000000,1696853697.238285780,-0.005000000,-0.104000000,0.039000000,0.005000000,0.000000000,-0.005000000
1696853697.239972,4769286.000000000,1696853697.240287781,-0.006000000,-0.105000000,0.039000000,0.005000000,-0.001000000,-0.005000000
1696853697.242342,4769287.000000000,1696853697.242294073,-0.008000000,-0.107000000,0.039000000,0.006000000,-0.001000000,-0.005000000
1696853697.243951,4769288.000000000,1696853697.244286537,-0.010000000,-0.109000000,0.039000000,0.006000000,-0.001000000,-0.005000000
1696853697.245953,4769289.000000000,1696853697.246285915,-0.011000000,-0.111000000,0.038000000,0.006000000,-0.001000000,-0.005000000
1696853697.248027,4769290.000000000,1696853697.248351336,-0.013000000,-0.113000000,0.038000000,0.006000000,-0.001000000,-0.005000000
1696853697.249953,4769291.000000000,1696853697.250321865,-0.014000000,-0.115000000,0.039000000,0.006000000,-0.001000000,-0.005000000
1696853697.252047,4769292.000000000,1696853697.252297878,-0.016000000,-0.116000000,0.040000000,0.006000000,-0.001000000,-0.005000000
1696853697.253954,4769293.000000000,1696853697.254299879,-0.017000000,-0.116000000,0.041000000,0.006000000,-0.001000000,-0.005000000
1696853697.256005,4769294.000000000,1696853697.256289244,-0.019000000,-0.117000000,0.042000000,0.006000000,-0.001000000,-0.005000000
1696853697.258031,4769295.000000000,1696853697.258299828,-0.020000000,-0.118000000,0.043000000,0.006000000,-0.001000000,-0.005000000
1696853697.260058,4769296.000000000,1696853697.260289431,-0.022000000,-0.120000000,0.044000000,0.006000000,-0.001000000,-0.005000000
1696853697.261968,4769297.000000000,1696853697.262299061,-0.023000000,-0.122000000,0.044000000,0.007000000,-0.001000000,-0.005000000
1696853697.263989,4769298.000000000,1696853697.264290333,-0.023000000,-0.125000000,0.044000000,0.007000000,-0.001000000,-0.005000000
1696853697.266229,4769299.000000000,1696853697.266300440,-0.024000000,-0.128000000,0.045000000,0.007000000,-0.001000000,-0.005000000
1696853697.268004,4769300.000000000,1696853697.268327951,-0.025000000,-0.131000000,0.045000000,0.007000000,-0.001000000,-0.005000000
1696853697.270003,4769301.000000000,1696853697.270337343,-0.025000000,-0.134000000,0.045000000,0.007000000,-0.001000000,-0.005000000
1696853697.272029,4769302.000000000,1696853697.272332191,-0.025000000,-0.136000000,0.046000000,0.007000000,-0.001000000,-0.005000000
1696853697.274104,4769303.000000000,1696853697.274326563,-0.025000000,-0.137000000,0.047000000,0.008000000,-0.001000000,-0.005000000
1696853697.275960,4769304.000000000,1696853697.276287556,-0.025000000,-0.138000000,0.048000000,0.008000000,-0.001000000,-0.005000000
1696853697.277916,4769305.000000000,1696853697.278290987,-0.025000000,-0.139000000,0.049000000,0.008000000,-0.001000000,-0.005000000
1696853697.279943,4769306.000000000,1696853697.280291557,-0.025000000,-0.139000000,0.050000000,0.008000000,-0.001000000,-0.005000000
1696853697.281963,4769307.000000000,1696853697.282310724,-0.024000000,-0.140000000,0.051000000,0.008000000,-0.001000000,-0.005000000
1696853697.283991,4769308.000000000,1696853697.284293890,-0.024000000,-0.141000000,0.052000000,0.008000000,-0.001000000,-0.005000000
1696853697.286152,4769309.000000000,1696853697.286291599,-0.023000000,-0.142000000,0.052000000,0.008000000,-0.001000000,-0.005000000
1696853697.287935,4769310.000000000,1696853697.288295269,-0.022000000,-0.144000000,0.051000000,0.008000000,-0.001000000,-0.005000000
1696853697.289927,4769311.000000000,1696853697.290312052,-0.020000000,-0.146000000,0.052000000,0.008000000,-0.001000000,-0.005000000
1696853697.292058,4769312.000000000,1696853697.292353630,-0.019000000,-0.147000000,0.052000000,0.008000000,-0.001000000,-0.005000000
1696853697.294101,4769313.000000000,1696853697.294428587,-0.018000000,-0.147000000,0.054000000,0.008000000,-0.001000000,-0.005000000
1696853697.296644,4769314.000000000,1696853697.296897650,-0.017000000,-0.147000000,0.054000000,0.008000000,-0.001000000,-0.005000000
1696853697.297997,4769315.000000000,1696853697.298356056,-0.015000000,-0.145000000,0.054000000,0.008000000,-0.001000000,-0.005000000
1696853697.300130,4769316.000000000,1696853697.300494909,-0.014000000,-0.144000000,0.056000000,0.008000000,-0.001000000,-0.005000000
1696853697.301951,4769317.000000000,1696853697.302312613,-0.013000000,-0.141000000,0.057000000,0.008000000,-0.001000000,-0.005000000
1696853697.303976,4769318.000000000,1696853697.304347038,-0.012000000,-0.139000000,0.057000000,0.008000000,-0.001000000,-0.005000000
1696853697.306458,4769319.000000000,1696853697.306659222,-0.011000000,-0.137000000,0.057000000,0.008000000,-0.001000000,-0.005000000
1696853697.308042,4769320.000000000,1696853697.308334827,-0.009000000,-0.136000000,0.057000000,0.008000000,0.000000000,-0.005000000
1696853697.310071,4769321.000000000,1696853697.310360909,-0.007000000,-0.135000000,0.055000000,0.008000000,0.000000000,-0.005000000
1696853697.311982,4769322.000000000,1696853697.312287569,-0.006000000,-0.134000000,0.054000000,0.008000000,0.000000000,-0.005000000
1696853697.314300,4769323.000000000,1696853697.314492702,-0.005000000,-0.132000000,0.053000000,0.008000000,0.000000000,-0.005000000
1696853697.315981,4769324.000000000,1696853697.316298485,-0.003000000,-0.130000000,0.051000000,0.008000000,0.000000000,-0.005000000
1696853697.317930,4769325.000000000,1696853697.318303347,-0.002000000,-0.128000000,0.051000000,0.008000000,0.000000000,-0.005000000
1696853697.320036,4769326.000000000,1696853697.320286512,-0.001000000,-0.124000000,0.049000000,0.007000000,0.000000000,-0.005000000
1696853697.321995,4769327.000000000,1696853697.322288990,-0.001000000,-0.120000000,0.048000000,0.007000000,0.000000000,-0.005000000
1696853697.323986,4769328.000000000,1696853697.324352980,0.000000000,-0.115000000,0.047000000,0.007000000,0.000000000,-0.005000000
1696853697.326143,4769329.000000000,1696853697.326297283,0.000000000,-0.111000000,0.044000000,0.007000000,0.000000000,-0.005000000
1696853697.328056,4769330.000000000,1696853697.328443766,0.000000000,-0.107000000,0.042000000,0.007000000,0.000000000,-0.005000000
1696853697.329922,4769331.000000000,1696853697.330260992,0.000000000,-0.104000000,0.037000000,0.007000000,0.000000000,-0.005000000
1696853697.331931,4769332.000000000,1696853697.332252741,0.000000000,-0.101000000,0.034000000,0.007000000,0.000000000,-0.005000000
1696853697.333848,4769333.000000000,1696853697.334215164,0.000000000,-0.099000000,0.029000000,0.006000000,0.000000000,-0.005000000
1696853697.336025,4769334.000000000,1696853697.336385965,0.000000000,-0.096000000,0.025000000,0.006000000,0.000000000,-0.005000000
1696853697.338835,4769335.000000000,1696853697.338894844,0.000000000,-0.093000000,0.020000000,0.006000000,0.000000000,-0.005000000
1696853697.339868,4769336.000000000,1696853697.340207815,0.000000000,-0.091000000,0.012000000,0.006000000,0.000000000,-0.005000000
1696853697.341943,4769337.000000000,1696853697.342274904,-0.001000000,-0.087000000,0.009000000,0.006000000,0.000000000,-0.005000000
1696853697.343966,4769338.000000000,1696853697.344283104,-0.002000000,-0.084000000,0.004000000,0.006000000,0.000000000,-0.005000000
1696853697.345915,4769339.000000000,1696853697.346244812,-0.003000000,-0.080000000,0.000000000,0.006000000,0.000000000,-0.004000000
1696853697.347983,4769340.000000000,1696853697.348292828,-0.004000000,-0.076000000,-0.005000000,0.006000000,0.000000000,-0.004000000
1696853697.349890,4769341.000000000,1696853697.350265265,-0.006000000,-0.073000000,-0.010000000,0.006000000,0.000000000,-0.004000000
1696853697.351902,4769342.000000000,1696853697.352262974,-0.007000000,-0.071000000,-0.017000000,0.005000000,0.000000000,-0.004000000
1696853697.354006,4769343.000000000,1696853697.354327917,-0.009000000,-0.069000000,-0.023000000,0.005000000,0.000000000,-0.004000000
1696853697.355970,4769344.000000000,1696853697.356269836,-0.010000000,-0.069000000,-0.030000000,0.005000000,0.000000000,-0.004000000
1696853697.358029,4769345.000000000,1696853697.358331203,-0.011000000,-0.069000000,-0.036000000,0.005000000,0.000000000,-0.004000000
1696853697.359986,4769346.000000000,1696853697.360273600,-0.013000000,-0.069000000,-0.042000000,0.005000000,0.000000000,-0.003000000
1696853697.362074,4769347.000000000,1696853697.362317801,-0.015000000,-0.068000000,-0.048000000,0.005000000,0.000000000,-0.003000000
1696853697.364284,4769348.000000000,1696853697.364279509,-0.016000000,-0.068000000,-0.053000000,0.005000000,0.000000000,-0.003000000
1696853697.366039,4769349.000000000,1696853697.366323471,-0.018000000,-0.068000000,-0.057000000,0.005000000,0.000000000,-0.003000000
1696853697.368076,4769350.000000000,1696853697.368288755,-0.020000000,-0.067000000,-0.060000000,0.006000000,0.000000000,-0.003000000
1696853697.370051,4769351.000000000,1696853697.370315075,-0.021000000,-0.066000000,-0.065000000,0.006000000,0.000000000,-0.003000000
1696853697.372091,4769352.000000000,1696853697.372295618,-0.023000000,-0.066000000,-0.068000000,0.006000000,0.000000000,-0.003000000
1696853697.374004,4769353.000000000,1696853697.374370575,-0.025000000,-0.067000000,-0.071000000,0.006000000,0.000000000,-0.003000000
1696853697.375960,4769354.000000000,1696853697.376332998,-0.026000000,-0.069000000,-0.075000000,0.006000000,0.000000000,-0.003000000
1696853697.378163,4769355.000000000,1696853697.378327608,-0.028000000,-0.071000000,-0.076000000,0.006000000,-0.001000000,-0.003000000
1696853697.380016,4769356.000000000,1696853697.380369425,-0.029000000,-0.074000000,-0.080000000,0.006000000,-0.001000000,-0.002000000
1696853697.382126,4769357.000000000,1696853697.382334709,-0.029000000,-0.077000000,-0.081000000,0.006000000,-0.001000000,-0.002000000
1696853697.384069,4769358.000000000,1696853697.384351254,-0.030000000,-0.080000000,-0.082000000,0.006000000,-0.001000000,-0.002000000
1696853697.386444,4769359.000000000,1696853697.386305094,-0.031000000,-0.083000000,-0.081000000,0.006000000,-0.001000000,-0.002000000
1696853697.388023,4769360.000000000,1696853697.388316393,-0.031000000,-0.086000000,-0.081000000,0.006000000,-0.001000000,-0.002000000
1696853697.389960,4769361.000000000,1696853697.390308142,-0.032000000,-0.088000000,-0.079000000,0.007000000,-0.001000000,-0.002000000
1696853697.392023,4769362.000000000,1696853697.392369747,-0.032000000,-0.090000000,-0.076000000,0.007000000,-0.001000000,-0.002000000
1696853697.393961,4769363.000000000,1696853697.394317150,-0.033000000,-0.092000000,-0.073000000,0.007000000,-0.001000000,-0.002000000
1696853697.396018,4769364.000000000,1696853697.396324396,-0.033000000,-0.094000000,-0.070000000,0.007000000,-0.001000000,-0.002000000
1696853697.397947,4769365.000000000,1696853697.398302317,-0.033000000,-0.097000000,-0.068000000,0.007000000,-0.001000000,-0.002000000
1696853697.399967,4769366.000000000,1696853697.400340319,-0.032000000,-0.101000000,-0.063000000,0.007000000,-0.001000000,-0.002000000
1696853697.402039,4769367.000000000,1696853697.402378321,-0.031000000,-0.105000000,-0.061000000,0.007000000,-0.001000000,-0.003000000
1696853697.403970,4769368.000000000,1696853697.404292822,-0.031000000,-0.109000000,-0.056000000,0.007000000,-0.001000000,-0.003000000
1696853697.405943,4769369.000000000,1696853697.406303644,-0.029000000,-0.113000000,-0.052000000,0.007000000,-0.001000000,-0.003000000
1696853697.408003,4769370.000000000,1696853697.408297777,-0.028000000,-0.116000000,-0.047000000,0.008000000,-0.001000000,-0.003000000
1696853697.409993,4769371.000000000,1696853697.410325289,-0.027000000,-0.118000000,-0.042000000,0.008000000,-0.001000000,-0.003000000
1696853697.412004,4769372.000000000,1696853697.412325859,-0.026000000,-0.120000000,-0.036000000,0.008000000,-0.001000000,-0.003000000
1696853697.413990,4769373.000000000,1696853697.414301395,-0.024000000,-0.122000000,-0.030000000,0.008000000,-0.001000000,-0.003000000
1696853697.415973,4769374.000000000,1696853697.416297436,-0.023000000,-0.122000000,-0.023000000,0.008000000,-0.001000000,-0.003000000
1696853697.418180,4769375.000000000,1696853697.418381929,-0.022000000,-0.123000000,-0.018000000,0.008000000,-0.001000000,-0.003000000
1696853697.419983,4769376.000000000,1696853697.420330524,-0.020000000,-0.125000000,-0.011000000,0.008000000,-0.001000000,-0.004000000
1696853697.421963,4769377.000000000,1696853697.422303915,-0.018000000,-0.127000000,-0.008000000,0.008000000,-0.001000000,-0.004000000
1696853697.424049,4769378.000000000,1696853697.424359798,-0.017000000,-0.129000000,-0.003000000,0.008000000,0.000000000,-0.004000000
1696853697.426365,4769379.000000000,1696853697.426295996,-0.015000000,-0.131000000,0.001000000,0.008000000,0.000000000,-0.004000000
1696853697.428447,4769380.000000000,1696853697.428286314,-0.013000000,-0.133000000,0.006000000,0.008000000,0.000000000,-0.004000000
1696853697.429928,4769381.000000000,1696853697.430298090,-0.011000000,-0.134000000,0.010000000,0.008000000,0.000000000,-0.004000000
1696853697.432019,4769382.000000000,1696853697.432288170,-0.009000000,-0.134000000,0.015000000,0.008000000,0.000000000,-0.004000000
1696853697.434745,4769383.000000000,1696853697.434301853,-0.007000000,-0.134000000,0.020000000,0.008000000,0.000000000,-0.004000000
1696853697.435967,4769384.000000000,1696853697.436290026,-0.006000000,-0.133000000,0.023000000,0.008000000,0.000000000,-0.005000000
1696853697.437927,4769385.000000000,1696853697.438298225,-0.004000000,-0.131000000,0.027000000,0.008000000,0.000000000,-0.005000000
1696853697.439937,4769386.000000000,1696853697.440289259,-0.003000000,-0.130000000,0.032000000,0.008000000,0.000000000,-0.005000000
1696853697.442063,4769387.000000000,1696853697.442298889,-0.002000000,-0.129000000,0.035000000,0.007000000,0.000000000,-0.005000000
1696853697.443961,4769388.000000000,1696853697.444287777,-0.001000000,-0.128000000,0.037000000,0.007000000,0.000000000,-0.005000000
1696853697.445957,4769389.000000000,1696853697.446329355,0.000000000,-0.128000000,0.039000000,0.007000000,0.000000000,-0.005000000
1696853697.447932,4769390.000000000,1696853697.448287487,0.001000000,-0.128000000,0.040000000,0.007000000,0.000000000,-0.005000000
1696853697.449946,4769391.000000000,1696853697.450315952,0.002000000,-0.128000000,0.041000000,0.007000000,0.000000000,-0.005000000
1696853697.452040,4769392.000000000,1696853697.452377319,0.003000000,-0.127000000,0.042000000,0.007000000,0.000000000,-0.005000000
1696853697.453952,4769393.000000000,1696853697.454318285,0.003000000,-0.126000000,0.043000000,0.007000000,0.000000000,-0.005000000
1696853697.455975,4769394.000000000,1696853697.456334352,0.004000000,-0.124000000,0.044000000,0.007000000,0.000000000,-0.005000000
1696853697.458037,4769395.000000000,1696853697.458313704,0.004000000,-0.122000000,0.045000000,0.007000000,0.000000000,-0.005000000
1696853697.459995,4769396.000000000,1696853697.460341930,0.005000000,-0.120000000,0.046000000,0.007000000,0.000000000,-0.005000000
1696853697.461987,4769397.000000000,1696853697.462318182,0.004000000,-0.117000000,0.047000000,0.007000000,0.000000000,-0.005000000
1696853697.464020,4769398.000000000,1696853697.464329958,0.004000000,-0.115000000,0.049000000,0.006000000,0.000000000,-0.005000000
1696853697.465968,4769399.000000000,1696853697.466292381,0.004000000,-0.114000000,0.047000000,0.006000000,0.000000000,-0.005000000
1696853697.468102,4769400.000000000,1696853697.468371391,0.002000000,-0.113000000,0.049000000,0.006000000,0.000000000,-0.005000000
1696853697.469987,4769401.000000000,1696853697.470296860,0.002000000,-0.113000000,0.048000000,0.006000000,0.000000000,-0.005000000
1696853697.472015,4769402.000000000,1696853697.472344160,0.001000000,-0.112000000,0.047000000,0.006000000,0.000000000,-0.005000000
1696853697.473997,4769403.000000000,1696853697.474355459,0.001000000,-0.113000000,0.047000000,0.006000000,0.000000000,-0.005000000
1696853697.476038,4769404.000000000,1696853697.476348400,0.000000000,-0.112000000,0.046000000,0.006000000,0.000000000,-0.005000000
1696853697.477921,4769405.000000000,1696853697.478304625,0.000000000,-0.111000000,0.047000000,0.006000000,0.000000000,-0.005000000
1696853697.479960,4769406.000000000,1696853697.480340242,-0.002000000,-0.110000000,0.048000000,0.006000000,0.000000000,-0.005000000
1696853697.482026,4769407.000000000,1696853697.482324839,-0.003000000,-0.109000000,0.048000000,0.006000000,0.000000000,-0.005000000
1696853697.483968,4769408.000000000,1696853697.484328270,-0.005000000,-0.107000000,0.049000000,0.006000000,0.000000000,-0.005000000
1696853697.485904,4769409.000000000,1696853697.486281872,-0.007000000,-0.106000000,0.050000000,0.006000000,0.000000000,-0.005000000
1696853697.487947,4769410.000000000,1696853697.488332748,-0.009000000,-0.106000000,0.051000000,0.006000000,-0.001000000,-0.005000000
1696853697.490288,4769411.000000000,1696853697.490345478,-0.010000000,-0.106000000,0.051000000,0.006000000,-0.001000000,-0.005000000
1696853697.491974,4769412.000000000,1696853697.492336750,-0.012000000,-0.107000000,0.051000000,0.006000000,-0.001000000,-0.005000000
1696853697.493949,4769413.000000000,1696853697.494312286,-0.013000000,-0.108000000,0.051000000,0.006000000,-0.001000000,-0.005000000
1696853697.495966,4769414.000000000,1696853697.496345043,-0.014000000,-0.110000000,0.051000000,0.006000000,-0.001000000,-0.005000000
1696853697.497973,4769415.000000000,1696853697.498325348,-0.016000000,-0.111000000,0.051000000,0.006000000,-0.001000000,-0.005000000
1696853697.500086,4769416.000000000,1696853697.500393629,-0.017000000,-0.112000000,0.052000000,0.006000000,-0.001000000,-0.005000000
1696853697.501968,4769417.000000000,1696853697.502319098,-0.018000000,-0.113000000,0.052000000,0.006000000,-0.001000000,-0.005000000
1696853697.503955,4769418.000000000,1696853697.504334450,-0.020000000,-0.113000000,0.055000000,0.006000000,-0.001000000,-0.005000000
1696853697.506030,4769419.000000000,1696853697.506333113,-0.021000000,-0.113000000,0.055000000,0.006000000,-0.001000000,-0.005000000
1696853697.508052,4769420.000000000,1696853697.508362293,-0.022000000,-0.113000000,0.056000000,0.006000000,-0.001000000,-0.005000000
1696853697.509971,4769421.000000000,1696853697.510318756,-0.024000000,-0.113000000,0.057000000,0.006000000,-0.001000000,-0.005000000
1696853697.512021,4769422.000000000,1696853697.512378454,-0.024000000,-0.114000000,0.057000000,0.006000000,-0.001000000,-0.005000000
1696853697.513957,4769423.000000000,1696853697.514313459,-0.024000000,-0.116000000,0.057000000,0.006000000,-0.001000000,-0.005000000
1696853697.515967,4769424.000000000,1696853697.516345501,-0.025000000,-0.118000000,0.056000000,0.006000000,-0.001000000,-0.005000000
1696853697.517993,4769425.000000000,1696853697.518370152,-0.025000000,-0.120000000,0.056000000,0.007000000,-0.001000000,-0.005000000
1696853697.520036,4769426.000000000,1696853697.520332336,-0.025000000,-0.123000000,0.056000000,0.007000000,-0.001000000,-0.005000000
1696853697.522159,4769427.000000000,1696853697.522299767,-0.024000000,-0.124000000,0.055000000,0.007000000,-0.001000000,-0.005000000
1696853697.524062,4769428.000000000,1696853697.524352312,-0.024000000,-0.125000000,0.055000000,0.007000000,-0.001000000,-0.005000000
1696853697.525970,4769429.000000000,1696853697.526311636,-0.023000000,-0.126000000,0.055000000,0.007000000,-0.001000000,-0.005000000
1696853697.527965,4769430.000000000,1696853697.528331041,-0.023000000,-0.126000000,0.056000000,0.007000000,-0.001000000,-0.005000000
1696853697.530084,4769431.000000000,1696853697.530310392,-0.022000000,-0.126000000,0.054000000,0.007000000,-0.001000000,-0.005000000
1696853697.532068,4769432.000000000,1696853697.532339096,-0.021000000,-0.126000000,0.054000000,0.007000000,-0.001000000,-0.005000000
1696853697.534053,4769433.000000000,1696853697.534355402,-0.021000000,-0.126000000,0.054000000,0.007000000,-0.001000000,-0.005000000
1696853697.535962,4769434.000000000,1696853697.536332130,-0.019000000,-0.127000000,0.053000000,0.007000000,-0.001000000,-0.005000000
1696853697.537948,4769435.000000000,1696853697.538312674,-0.018000000,-0.129000000,0.051000000,0.007000000,-0.001000000,-0.005000000
1696853697.539957,4769436.000000000,1696853697.540297508,-0.016000000,-0.130000000,0.049000000,0.007000000,-0.001000000,-0.005000000
1696853697.541982,4769437.000000000,1696853697.542318344,-0.015000000,-0.132000000,0.047000000,0.007000000,-0.001000000,-0.005000000
1696853697.543998,4769438.000000000,1696853697.544296980,-0.012000000,-0.132000000,0.045000000,0.007000000,-0.001000000,-0.005000000
1696853697.545915,4769439.000000000,1696853697.546289921,-0.011000000,-0.133000000,0.043000000,0.007000000,-0.001000000,-0.005000000
1696853697.548047,4769440.000000000,1696853697.548358202,-0.009000000,-0.133000000,0.043000000,0.007000000,-0.001000000,-0.005000000
1696853697.549944,4769441.000000000,1696853697.550334454,-0.008000000,-0.132000000,0.041000000,0.007000000,-0.001000000,-0.005000000
1696853697.551976,4769442.000000000,1696853697.552340984,-0.006000000,-0.131000000,0.041000000,0.007000000,-0.001000000,-0.005000000
1696853697.554102,4769443.000000000,1696853697.554329157,-0.005000000,-0.130000000,0.039000000,0.007000000,-0.001000000,-0.005000000
1696853697.556006,4769444.000000000,1696853697.556365490,-0.003000000,-0.129000000,0.037000000,0.007000000,-0.001000000,-0.005000000
1696853697.557987,4769445.000000000,1696853697.558336258,-0.002000000,-0.130000000,0.035000000,0.007000000,-0.001000000,-0.005000000
1696853697.560042,4769446.000000000,1696853697.560359001,0.000000000,-0.130000000,0.034000000,0.007000000,-0.001000000,-0.005000000
1696853697.562019,4769447.000000000,1696853697.562305450,0.000000000,-0.131000000,0.031000000,0.007000000,-0.001000000,-0.005000000
1696853697.564041,4769448.000000000,1696853697.564330816,0.002000000,-0.132000000,0.029000000,0.007000000,0.000000000,-0.005000000
1696853697.566134,4769449.000000000,1696853697.566431284,0.003000000,-0.133000000,0.028000000,0.007000000,0.000000000,-0.005000000
1696853697.568019,4769450.000000000,1696853697.568337440,0.005000000,-0.133000000,0.026000000,0.007000000,0.000000000,-0.005000000
1696853697.569980,4769451.000000000,1696853697.570292234,0.006000000,-0.133000000,0.025000000,0.007000000,0.000000000,-0.005000000
1696853697.572003,4769452.000000000,1696853697.572340012,0.007000000,-0.132000000,0.024000000,0.007000000,0.000000000,-0.005000000
1696853697.574071,4769453.000000000,1696853697.574303150,0.007000000,-0.132000000,0.024000000,0.007000000,0.000000000,-0.005000000
1696853697.575949,4769454.000000000,1696853697.576333523,0.008000000,-0.131000000,0.023000000,0.007000000,0.000000000,-0.005000000
1696853697.577995,4769455.000000000,1696853697.578353882,0.008000000,-0.130000000,0.023000000,0.007000000,0.000000000,-0.005000000
1696853697.580000,4769456.000000000,1696853697.580368280,0.008000000,-0.129000000,0.023000000,0.007000000,0.000000000,-0.005000000
1696853697.581993,4769457.000000000,1696853697.582319021,0.009000000,-0.130000000,0.021000000,0.007000000,0.000000000,-0.005000000
1696853697.583955,4769458.000000000,1696853697.584336281,0.009000000,-0.131000000,0.019000000,0.007000000,0.000000000,-0.005000000
1696853697.585936,4769459.000000000,1696853697.586303949,0.009000000,-0.131000000,0.019000000,0.007000000,0.000000000,-0.005000000
1696853697.587976,4769460.000000000,1696853697.588333607,0.009000000,-0.133000000,0.017000000,0.007000000,0.000000000,-0.005000000
1696853697.589937,4769461.000000000,1696853697.590316057,0.009000000,-0.133000000,0.018000000,0.007000000,0.000000000,-0.005000000
1696853697.592056,4769462.000000000,1696853697.592349768,0.009000000,-0.133000000,0.017000000,0.007000000,0.000000000,-0.005000000
1696853697.594109,4769463.000000000,1696853697.594304085,0.008000000,-0.133000000,0.018000000,0.007000000,0.000000000,-0.005000000
1696853697.595976,4769464.000000000,1696853697.596332073,0.008000000,-0.132000000,0.018000000,0.007000000,0.000000000,-0.005000000
1696853697.597953,4769465.000000000,1696853697.598308325,0.007000000,-0.131000000,0.019000000,0.007000000,0.000000000,-0.005000000
1696853697.600056,4769466.000000000,1696853697.600431442,0.006000000,-0.130000000,0.019000000,0.007000000,0.000000000,-0.005000000
1696853697.602935,4769467.000000000,1696853697.602331638,0.006000000,-0.129000000,0.019000000,0.007000000,0.000000000,-0.005000000
1696853697.604031,4769468.000000000,1696853697.604390144,0.005000000,-0.129000000,0.019000000,0.007000000,0.000000000,-0.005000000
1696853697.605942,4769469.000000000,1696853697.606307507,0.004000000,-0.129000000,0.018000000,0.007000000,0.000000000,-0.005000000
1696853697.608023,4769470.000000000,1696853697.608357430,0.004000000,-0.130000000,0.016000000,0.007000000,0.000000000,-0.005000000
1696853697.609993,4769471.000000000,1696853697.610325098,0.003000000,-0.131000000,0.016000000,0.008000000,0.000000000,-0.005000000
1696853697.612059,4769472.000000000,1696853697.612350941,0.003000000,-0.131000000,0.015000000,0.008000000,0.000000000,-0.005000000
1696853697.613996,4769473.000000000,1696853697.614318609,0.003000000,-0.130000000,0.014000000,0.008000000,0.000000000,-0.005000000
1696853697.616003,4769474.000000000,1696853697.616346598,0.002000000,-0.129000000,0.012000000,0.008000000,0.000000000,-0.005000000
1696853697.618110,4769475.000000000,1696853697.618389130,0.002000000,-0.127000000,0.012000000,0.007000000,0.000000000,-0.005000000
1696853697.619998,4769476.000000000,1696853697.620289803,0.001000000,-0.125000000,0.011000000,0.007000000,0.000000000,-0.005000000
1696853697.622040,4769477.000000000,1696853697.622382164,0.000000000,-0.122000000,0.010000000,0.007000000,0.000000000,-0.005000000
1696853697.624054,4769478.000000000,1696853697.624292612,0.000000000,-0.120000000,0.007000000,0.007000000,0.000000000,-0.005000000
1696853697.626544,4769479.000000000,1696853697.626311779,0.000000000,-0.118000000,0.004000000,0.007000000,0.000000000,-0.005000000
1696853697.629525,4769480.000000000,1696853697.629779100,0.000000000,-0.116000000,0.001000000,0.007000000,0.000000000,-0.005000000
1696853697.630544,4769481.000000000,1696853697.630879402,0.000000000,-0.115000000,-0.001000000,0.007000000,0.000000000,-0.004000000
1696853697.632111,4769482.000000000,1696853697.632335901,0.000000000,-0.114000000,-0.006000000,0.007000000,0.000000000,-0.004000000
1696853697.634944,4769483.000000000,1696853697.634353638,0.000000000,-0.112000000,-0.009000000,0.007000000,0.000000000,-0.004000000
1696853697.636006,4769484.000000000,1696853697.636335850,0.000000000,-0.110000000,-0.013000000,0.007000000,0.000000000,-0.004000000
1696853697.638011,4769485.000000000,1696853697.638311148,0.000000000,-0.107000000,-0.018000000,0.007000000,0.000000000,-0.004000000
1696853697.639975,4769486.000000000,1696853697.640301466,0.000000000,-0.104000000,-0.022000000,0.007000000,0.000000000,-0.004000000
1696853697.642136,4769487.000000000,1696853697.642295599,0.000000000,-0.100000000,-0.025000000,0.007000000,0.000000000,-0.004000000
1696853697.644010,4769488.000000000,1696853697.644342899,-0.001000000,-0.096000000,-0.029000000,0.007000000,0.000000000,-0.004000000
1696853697.646122,4769489.000000000,1696853697.646319151,-0.001000000,-0.092000000,-0.034000000,0.006000000,0.000000000,-0.004000000
1696853697.647948,4769490.000000000,1696853697.648332357,-0.001000000,-0.089000000,-0.039000000,0.006000000,0.000000000,-0.004000000
1696853697.650351,4769491.000000000,1696853697.650320053,-0.001000000,-0.087000000,-0.044000000,0.006000000,0.000000000,-0.004000000
1696853697.651971,4769492.000000000,1696853697.652328491,-0.002000000,-0.085000000,-0.049000000,0.006000000,0.000000000,-0.004000000
1696853697.653950,4769493.000000000,1696853697.654309988,-0.002000000,-0.083000000,-0.054000000,0.006000000,0.000000000,-0.004000000
1696853697.655959,4769494.000000000,1696853697.656330347,-0.002000000,-0.082000000,-0.060000000,0.006000000,0.000000000,-0.003000000
1696853697.658068,4769495.000000000,1696853697.658344746,-0.002000000,-0.080000000,-0.064000000,0.006000000,0.000000000,-0.003000000
1696853697.660030,4769496.000000000,1696853697.660335302,-0.003000000,-0.079000000,-0.069000000,0.006000000,0.000000000,-0.003000000
1696853697.661994,4769497.000000000,1696853697.662310839,-0.003000000,-0.076000000,-0.072000000,0.006000000,0.000000000,-0.003000000
1696853697.664000,4769498.000000000,1696853697.664302111,-0.004000000,-0.074000000,-0.076000000,0.006000000,0.000000000,-0.003000000
1696853697.666101,4769499.000000000,1696853697.666353464,-0.005000000,-0.072000000,-0.078000000,0.006000000,0.000000000,-0.003000000
1696853697.668012,4769500.000000000,1696853697.668301582,-0.006000000,-0.070000000,-0.081000000,0.006000000,0.000000000,-0.003000000
1696853697.670188,4769501.000000000,1696853697.670308113,-0.008000000,-0.068000000,-0.083000000,0.005000000,0.000000000,-0.003000000
1696853697.671964,4769502.000000000,1696853697.672341585,-0.009000000,-0.067000000,-0.086000000,0.005000000,0.000000000,-0.003000000
1696853697.674226,4769503.000000000,1696853697.674316645,-0.010000000,-0.068000000,-0.089000000,0.005000000,0.000000000,-0.003000000
1696853697.675962,4769504.000000000,1696853697.676331758,-0.011000000,-0.069000000,-0.090000000,0.005000000,0.000000000,-0.003000000
1696853697.677941,4769505.000000000,1696853697.678311348,-0.012000000,-0.070000000,-0.091000000,0.005000000,0.000000000,-0.003000000
1696853697.679947,4769506.000000000,1696853697.680327654,-0.013000000,-0.072000000,-0.092000000,0.005000000,0.000000000,-0.002000000
1696853697.682066,4769507.000000000,1696853697.682328939,-0.014000000,-0.074000000,-0.093000000,0.006000000,0.000000000,-0.002000000
1696853697.683950,4769508.000000000,1696853697.684298754,-0.016000000,-0.075000000,-0.092000000,0.006000000,0.000000000,-0.002000000
1696853697.685947,4769509.000000000,1696853697.686306477,-0.017000000,-0.076000000,-0.090000000,0.006000000,0.000000000,-0.002000000
1696853697.688048,4769510.000000000,1696853697.688360214,-0.018000000,-0.076000000,-0.088000000,0.006000000,0.000000000,-0.002000000
1696853697.690112,4769511.000000000,1696853697.690305471,-0.020000000,-0.078000000,-0.085000000,0.006000000,-0.001000000,-0.002000000
1696853697.691999,4769512.000000000,1696853697.692344427,-0.021000000,-0.080000000,-0.082000000,0.006000000,-0.001000000,-0.002000000
1696853697.694494,4769513.000000000,1696853697.694336653,-0.022000000,-0.082000000,-0.080000000,0.006000000,-0.001000000,-0.002000000
1696853697.695974,4769514.000000000,1696853697.696341991,-0.023000000,-0.086000000,-0.076000000,0.006000000,-0.001000000,-0.002000000
1696853697.698028,4769515.000000000,1696853697.698326588,-0.024000000,-0.090000000,-0.073000000,0.006000000,-0.001000000,-0.002000000
1696853697.700033,4769516.000000000,1696853697.700398922,-0.024000000,-0.095000000,-0.070000000,0.006000000,-0.001000000,-0.002000000
1696853697.701950,4769517.000000000,1696853697.702316761,-0.025000000,-0.100000000,-0.066000000,0.006000000,-0.001000000,-0.003000000
1696853697.703952,4769518.000000000,1696853697.704336405,-0.025000000,-0.104000000,-0.062000000,0.007000000,-0.001000000,-0.003000000
1696853697.705937,4769519.000000000,1696853697.706309795,-0.025000000,-0.108000000,-0.056000000,0.007000000,-0.001000000,-0.003000000
1696853697.708003,4769520.000000000,1696853697.708371401,-0.025000000,-0.112000000,-0.051000000,0.007000000,-0.001000000,-0.003000000
1696853697.710041,4769521.000000000,1696853697.710354328,-0.025000000,-0.115000000,-0.046000000,0.007000000,-0.001000000,-0.003000000
1696853697.712000,4769522.000000000,1696853697.712345123,-0.026000000,-0.117000000,-0.039000000,0.007000000,-0.001000000,-0.003000000
1696853697.714990,4769523.000000000,1696853697.714324236,-0.025000000,-0.121000000,-0.034000000,0.007000000,-0.001000000,-0.003000000
1696853697.715995,4769524.000000000,1696853697.716344833,-0.025000000,-0.124000000,-0.027000000,0.007000000,-0.001000000,-0.003000000
1696853697.717995,4769525.000000000,1696853697.718323231,-0.025000000,-0.128000000,-0.023000000,0.008000000,-0.001000000,-0.003000000
1696853697.720028,4769526.000000000,1696853697.720391750,-0.024000000,-0.132000000,-0.017000000,0.008000000,-0.001000000,-0.003000000
1696853697.722067,4769527.000000000,1696853697.722307920,-0.023000000,-0.136000000,-0.013000000,0.008000000,-0.001000000,-0.003000000
1696853697.724029,4769528.000000000,1696853697.724325180,-0.022000000,-0.140000000,-0.008000000,0.008000000,-0.001000000,-0.003000000
1696853697.725957,4769529.000000000,1696853697.726310253,-0.021000000,-0.144000000,-0.004000000,0.008000000,-0.001000000,-0.003000000
1696853697.728030,4769530.000000000,1696853697.728331804,-0.019000000,-0.147000000,0.000000000,0.008000000,-0.001000000,-0.004000000
1696853697.730183,4769531.000000000,1696853697.730334520,-0.018000000,-0.149000000,0.005000000,0.008000000,-0.001000000,-0.004000000
1696853697.732013,4769532.000000000,1696853697.732359886,-0.017000000,-0.150000000,0.010000000,0.008000000,-0.001000000,-0.004000000
1696853697.734205,4769533.000000000,1696853697.734317780,-0.015000000,-0.151000000,0.015000000,0.009000000,0.000000000,-0.004000000
1696853697.735977,4769534.000000000,1696853697.736357450,-0.014000000,-0.152000000,0.020000000,0.009000000,0.000000000,-0.004000000
1696853697.738031,4769535.000000000,1696853697.738325357,-0.013000000,-0.152000000,0.023000000,0.009000000,0.000000000,-0.004000000
1696853697.740023,4769536.000000000,1696853697.740339994,-0.012000000,-0.153000000,0.026000000,0.009000000,0.000000000,-0.004000000
1696853697.742043,4769537.000000000,1696853697.742309570,-0.010000000,-0.154000000,0.029000000,0.009000000,0.000000000,-0.004000000
1696853697.743969,4769538.000000000,1696853697.744326830,-0.009000000,-0.155000000,0.032000000,0.009000000,0.000000000,-0.004000000
1696853697.745969,4769539.000000000,1696853697.746310472,-0.008000000,-0.155000000,0.034000000,0.009000000,0.000000000,-0.004000000
1696853697.748021,4769540.000000000,1696853697.748329163,-0.006000000,-0.156000000,0.034000000,0.009000000,0.000000000,-0.004000000
1696853697.749977,4769541.000000000,1696853697.750309944,-0.005000000,-0.156000000,0.036000000,0.009000000,0.000000000,-0.004000000
1696853697.752013,4769542.000000000,1696853697.752335787,-0.004000000,-0.154000000,0.038000000,0.009000000,0.000000000,-0.005000000
1696853697.754384,4769543.000000000,1696853697.754351854,-0.004000000,-0.152000000,0.040000000,0.009000000,0.000000000,-0.005000000
1696853697.756003,4769544.000000000,1696853697.756299257,-0.003000000,-0.149000000,0.041000000,0.008000000,0.000000000,-0.005000000
1696853697.758042,4769545.000000000,1696853697.758336306,-0.003000000,-0.146000000,0.044000000,0.008000000,0.000000000,-0.005000000
1696853697.760056,4769546.000000000,1696853697.760335684,-0.003000000,-0.142000000,0.044000000,0.008000000,0.000000000,-0.005000000
1696853697.762444,4769547.000000000,1696853697.762322426,-0.004000000,-0.139000000,0.045000000,0.008000000,0.000000000,-0.005000000
1696853697.764035,4769548.000000000,1696853697.764297962,-0.004000000,-0.135000000,0.044000000,0.008000000,0.000000000,-0.005000000
1696853697.766214,4769549.000000000,1696853697.766450644,-0.004000000,-0.133000000,0.044000000,0.008000000,0.000000000,-0.005000000
1696853697.767949,4769550.000000000,1696853697.768301249,-0.004000000,-0.130000000,0.043000000,0.007000000,0.000000000,-0.005000000
1696853697.769967,4769551.000000000,1696853697.770305395,-0.005000000,-0.127000000,0.042000000,0.007000000,0.000000000,-0.005000000
