__time,/hsrb/wrist_wrench/compensated/header/seq,/hsrb/wrist_wrench/compensated/header/stamp,/hsrb/wrist_wrench/compensated/wrench/force/x,/hsrb/wrist_wrench/compensated/wrench/force/y,/hsrb/wrist_wrench/compensated/wrench/force/z,/hsrb/wrist_wrench/compensated/wrench/torque/x,/hsrb/wrist_wrench/compensated/wrench/torque/y,/hsrb/wrist_wrench/compensated/wrench/torque/z
1694172014.170134,106914.000000,1694172014.164261,0.000000,0.000000,0.000000,0.000000,0.000000,0.000000
1694172014.184963,106915.000000,1694172014.176235,0.000000,0.000000,0.000000,0.000000,0.000000,0.000000
1694172014.202767,106916.000000,1694172014.184826,0.000000,0.000000,0.000000,0.000000,0.000000,0.000000
1694172014.215133,106917.000000,1694172014.194653,0.000000,0.000000,0.000000,0.000000,0.000000,0.000000
1694172014.227862,106919.000000,1694172014.214295,0.000000,0.000000,0.000000,0.000000,0.000000,0.000000
1694172014.246657,106920.000000,1694172014.225307,0.000000,0.000000,0.000000,0.000000,0.000000,0.000000
1694172014.258535,106921.000000,1694172014.234988,0.000000,0.000000,0.000000,0.000000,0.000000,0.000000
1694172014.261955,106923.000000,1694172014.254167,0.000000,0.000000,0.000000,0.000000,0.000000,0.000000
1694172014.274407,106924.000000,1694172014.267405,0.000000,0.000000,0.000000,0.000000,0.000000,0.000000
1694172014.293641,106925.000000,1694172014.282642,0.000000,0.000000,0.000000,0.000000,0.000000,0.000000
1694172014.305650,106927.000000,1694172014.294010,0.000000,0.000000,0.000000,0.000000,0.000000,0.000000
1694172014.323217,106928.000000,1694172014.304597,0.000000,0.000000,0.000000,0.000000,0.000000,0.000000
1694172014.333568,106930.000000,1694172014.324101,0.000000,0.000000,0.000000,0.000000,0.000000,0.000000
1694172014.342188,106931.000000,1694172014.334876,0.000000,0.000000,0.000000,0.000000,0.000000,0.000000
1694172014.349137,106932.000000,1694172014.344163,0.000000,0.000000,0.000000,0.000000,0.000000,0.000000
1694172014.366016,106933.000000,1694172014.356395,0.000000,0.000000,0.000000,0.000000,0.000000,0.000000
1694172014.378822,106934.000000,1694172014.370277,0.000000,0.000000,0.000000,0.000000,0.000000,0.000000
1694172014.401414,106935.000000,1694172014.377302,0.000000,0.000000,0.000000,0.000000,0.000000,0.000000
1694172014.409323,106937.000000,1694172014.395054,0.000000,0.000000,0.000000,0.000000,0.000000,0.000000
1694172014.416253,106938.000000,1694172014.404252,0.000000,0.000000,0.000000,0.000000,0.000000,0.000000
1694172014.427562,106939.000000,1694172014.414516,0.000000,0.000000,0.000000,0.000000,0.000000,0.000000
1694172014.442082,106940.000000,1694172014.424459,0.000000,0.000000,0.000000,0.000000,0.000000,0.000000
1694172014.447654,106942.000000,1694172014.443947,0.000000,0.000000,0.000000,0.000000,0.000000,0.000000
1694172014.468944,106943.000000,1694172014.456989,0.000000,0.000000,0.000000,0.000000,0.000000,0.000000
1694172014.474043,106944.000000,1694172014.463989,0.000000,0.000000,0.000000,0.000000,0.000000,0.000000
1694172014.484108,106945.000000,1694172014.474111,0.000000,0.000000,0.000000,0.000000,0.000000,0.000000
1694172014.498682,106946.000000,1694172014.484632,0.000000,0.000000,0.000000,0.000000,0.000000,0.000000
1694172014.506349,106947.000000,1694172014.493991,0.000000,0.000000,0.000000,0.000000,0.000000,0.000000
1694172014.510733,106948.000000,1694172014.504493,0.000000,0.000000,0.000000,0.000000,0.000000,0.000000
1694172014.522704,106949.000000,1694172014.514088,0.000000,0.000000,0.000000,0.000000,0.000000,0.000000
1694172014.536790,106950.000000,1694172014.532221,0.000000,0.000000,0.000000,0.000000,0.000000,0.000000
1694172014.543126,106951.000000,1694172014.533987,0.000000,0.000000,0.000000,0.000000,0.000000,0.000000
1694172014.558447,106952.000000,1694172014.550348,0.000000,0.000000,0.000000,0.000000,0.000000,0.000000
1694172014.567550,106953.000000,1694172014.553986,0.000000,0.000000,0.000000,0.000000,0.000000,0.000000
1694172014.589173,106954.000000,1694172014.563931,0.000000,0.000000,0.000000,0.000000,0.000000,0.000000
1694172014.595006,106955.000000,1694172014.574222,0.000000,0.000000,0.000000,0.000000,0.000000,0.000000
1694172014.601906,106956.000000,1694172014.584125,0.000000,0.000000,0.000000,0.000000,0.000000,0.000000
1694172014.605359,106957.000000,1694172014.594091,0.000000,0.000000,0.000000,0.000000,0.000000,0.000000
1694172014.613218,106958.000000,1694172014.604669,0.000000,0.000000,0.000000,0.000000,0.000000,0.000000
1694172014.621178,106959.000000,1694172014.614094,0.000000,0.000000,0.000000,0.000000,0.000000,0.000000
1694172014.679485,106962.000000,1694172014.644396,0.000000,0.000000,0.000000,0.000000,0.000000,0.000000
1694172014.689286,106964.000000,1694172014.664391,0.000000,0.000000,0.000000,0.000000,0.000000,0.000000
1694172014.689301,106965.000000,1694172014.673976,0.000000,0.000000,0.000000,0.000000,0.000000,0.000000
1694172014.696741,106966.000000,1694172014.684331,0.000000,0.000000,0.000000,0.000000,0.000000,0.000000
1694172014.704694,106967.000000,1694172014.693995,0.000000,0.000000,0.000000,0.000000,0.000000,0.000000
1694172014.711573,106968.000000,1694172014.703996,0.000000,0.000000,0.000000,0.000000,0.000000,0.000000
1694172014.722980,106969.000000,1694172014.715155,0.000000,0.000000,0.000000,0.000000,0.000000,0.000000
1694172014.737135,106970.000000,1694172014.732181,0.000000,0.000000,0.000000,0.000000,0.000000,0.000000
1694172014.746360,106971.000000,1694172014.733997,0.000000,0.000000,0.000000,0.000000,0.000000,0.000000
1694172014.752087,106972.000000,1694172014.744733,0.000000,0.000000,0.000000,0.000000,0.000000,0.000000
1694172014.758955,106973.000000,1694172014.754915,0.000000,0.000000,0.000000,0.000000,0.000000,0.000000
1694172014.775203,106974.000000,1694172014.767338,0.000000,0.000000,0.000000,0.000000,0.000000,0.000000
1694172014.785966,106975.000000,1694172014.774111,0.000000,0.000000,0.000000,0.000000,0.000000,0.000000
1694172014.793165,106976.000000,1694172014.784110,0.000000,0.000000,0.000000,0.000000,0.000000,0.000000
1694172014.802856,106977.000000,1694172014.794082,0.000000,0.000000,0.000000,0.000000,0.000000,0.000000
1694172014.808977,106978.000000,1694172014.803947,0.000000,0.000000,0.000000,0.000000,0.000000,0.000000
1694172014.823254,106979.000000,1694172014.816299,0.000000,0.000000,0.000000,0.000000,0.000000,0.000000
1694172014.832904,106980.000000,1694172014.824337,0.000000,0.000000,0.000000,0.000000,0.000000,0.000000
1694172014.839723,106981.000000,1694172014.834003,0.000000,0.000000,0.000000,0.000000,0.000000,0.000000
1694172014.854561,106982.000000,1694172014.843935,0.000000,0.000000,0.000000,0.000000,0.000000,0.000000
1694172014.861870,106983.000000,1694172014.854117,0.000000,0.000000,0.000000,0.000000,0.000000,0.000000
1694172014.873885,106984.000000,1694172014.863951,0.000000,0.000000,0.000000,0.000000,0.000000,0.000000
1694172014.884004,106985.000000,1694172014.874572,0.000000,0.000000,0.000000,0.000000,0.000000,0.000000
1694172014.892344,106986.000000,1694172014.885169,0.000000,0.000000,0.000000,0.000000,0.000000,0.000000
1694172014.901069,106987.000000,1694172014.894436,0.000000,0.000000,0.000000,0.000000,0.000000,0.000000
1694172014.920520,106988.000000,1694172014.903986,0.000000,0.000000,0.000000,0.000000,0.000000,0.000000
1694172014.941979,106990.000000,1694172014.924083,0.000000,0.000000,0.000000,0.000000,0.000000,0.000000
1694172014.953899,106991.000000,1694172014.933857,0.000000,0.000000,0.000000,0.000000,0.000000,0.000000
1694172014.961716,106992.000000,1694172014.944072,0.000000,0.000000,0.000000,0.000000,0.000000,0.000000
1694172014.965282,106993.000000,1694172014.955507,0.000000,0.000000,0.000000,0.000000,0.000000,0.000000
1694172014.975789,106994.000000,1694172014.963973,0.000000,0.000000,0.000000,0.000000,0.000000,0.000000
1694172014.980251,106995.000000,1694172014.974064,0.000000,0.000000,0.000000,0.000000,0.000000,0.000000
1694172014.987043,106996.000000,1694172014.984601,0.000000,0.000000,0.000000,0.000000,0.000000,0.000000
1694172014.999378,106997.000000,1694172014.995239,0.000000,0.000000,0.000000,0.000000,0.000000,0.000000
1694172015.015396,106998.000000,1694172015.003829,0.000000,0.000000,0.000000,0.000000,0.000000,0.000000
1694172015.024771,106999.000000,1694172015.014748,0.000000,0.000000,0.000000,0.000000,0.000000,0.000000
1694172015.032131,107000.000000,1694172015.024984,0.000000,0.000000,0.000000,0.000000,0.000000,0.000000
1694172015.044717,107001.000000,1694172015.033977,0.000000,0.000000,0.000000,0.000000,0.000000,0.000000
1694172015.054101,107002.000000,1694172015.043929,0.000000,0.000000,0.000000,0.000000,0.000000,0.000000
1694172015.066229,107003.000000,1694172015.055596,0.000000,0.000000,0.000000,0.000000,0.000000,0.000000
1694172015.076359,107004.000000,1694172015.064130,0.000000,0.000000,0.000000,0.000000,0.000000,0.000000
1694172015.088654,107005.000000,1694172015.074836,0.000000,0.000000,0.000000,0.000000,0.000000,0.000000
1694172015.094114,107006.000000,1694172015.087230,0.000000,0.000000,0.000000,0.000000,0.000000,0.000000
1694172015.101198,107007.000000,1694172015.094686,0.000000,0.000000,0.000000,0.000000,0.000000,0.000000
1694172015.112341,107008.000000,1694172015.104066,0.000000,0.000000,0.000000,0.000000,0.000000,0.000000
1694172015.123261,107009.000000,1694172015.115856,0.000000,0.000000,0.000000,0.000000,0.000000,0.000000
1694172015.133868,107010.000000,1694172015.124360,0.000000,0.000000,0.000000,0.000000,0.000000,0.000000
1694172015.148568,107011.000000,1694172015.134089,0.000000,0.000000,0.000000,0.000000,0.000000,0.000000
1694172015.157448,107012.000000,1694172015.143985,0.000000,0.000000,0.000000,0.000000,0.000000,0.000000
1694172015.163271,107013.000000,1694172015.154529,0.000000,0.000000,0.000000,0.000000,0.000000,0.000000
1694172015.174768,107014.000000,1694172015.164153,0.000000,0.000000,0.000000,0.000000,0.000000,0.000000
1694172015.191743,107015.000000,1694172015.174097,0.000000,0.000000,0.000000,0.000000,0.000000,0.000000
1694172015.196478,107016.000000,1694172015.184080,0.000000,0.000000,0.000000,0.000000,0.000000,0.000000
1694172015.208918,107017.000000,1694172015.193999,0.000000,0.000000,0.000000,0.000000,0.000000,0.000000
1694172015.229150,107018.000000,1694172015.205889,0.000000,0.000000,0.000000,0.000000,0.000000,0.000000
1694172015.233432,107020.000000,1694172015.224005,0.000000,0.000000,0.000000,0.000000,0.000000,0.000000
1694172015.245828,107021.000000,1694172015.234273,0.000000,0.000000,0.000000,0.000000,0.000000,0.000000
1694172015.255633,107022.000000,1694172015.245404,0.000000,0.000000,0.000000,0.000000,0.000000,0.000000
1694172015.269686,107023.000000,1694172015.255472,0.000000,0.000000,0.000000,0.000000,0.000000,0.000000
1694172015.286010,107025.000000,1694172015.274513,0.000000,0.000000,0.000000,0.000000,0.000000,0.000000
1694172015.300925,107026.000000,1694172015.283920,0.000000,0.000000,0.000000,0.000000,0.000000,0.000000
1694172015.308474,107028.000000,1694172015.304109,0.000000,0.000000,0.000000,0.000000,0.000000,0.000000
1694172015.322122,107029.000000,1694172015.315194,0.000000,0.000000,0.000000,0.000000,0.000000,0.000000
1694172015.333266,107030.000000,1694172015.324136,0.000000,0.000000,0.000000,0.000000,0.000000,0.000000
1694172015.339768,107031.000000,1694172015.334002,0.000000,0.000000,0.000000,0.000000,0.000000,0.000000
1694172015.348264,107032.000000,1694172015.344074,0.000000,0.000000,0.000000,0.000000,0.000000,0.000000
1694172015.359699,107033.000000,1694172015.354333,0.000000,0.000000,0.000000,0.000000,0.000000,0.000000
1694172015.369213,107034.000000,1694172015.364539,0.000000,0.000000,0.000000,0.000000,0.000000,0.000000
1694172015.379551,107035.000000,1694172015.374154,0.000000,0.000000,0.000000,0.000000,0.000000,0.000000
1694172015.394957,107036.000000,1694172015.383872,0.000000,0.000000,0.000000,0.000000,0.000000,0.000000
1694172015.400720,107037.000000,1694172015.394069,0.000000,0.000000,0.000000,0.000000,0.000000,0.000000
1694172015.419850,107038.000000,1694172015.403952,0.000000,0.000000,0.000000,0.000000,0.000000,0.000000
1694172015.427510,107039.000000,1694172015.414145,0.000000,0.000000,0.000000,0.000000,0.000000,0.000000
1694172015.436618,107040.000000,1694172015.423980,0.000000,0.000000,0.000000,0.000000,0.000000,0.000000
1694172015.451785,107041.000000,1694172015.434133,0.000000,0.000000,0.000000,0.000000,0.000000,0.000000
1694172015.454457,107042.000000,1694172015.444682,0.000000,0.000000,0.000000,0.000000,0.000000,0.000000
1694172015.465911,107043.000000,1694172015.456103,0.000000,0.000000,0.000000,0.000000,0.000000,0.000000
1694172015.474321,107044.000000,1694172015.464072,0.000000,0.000000,0.000000,0.000000,0.000000,0.000000
1694172015.481763,107045.000000,1694172015.473995,0.000000,0.000000,0.000000,0.000000,0.000000,0.000000
1694172015.499274,107046.000000,1694172015.484018,0.000000,0.000000,0.000000,0.000000,0.000000,0.000000
1694172015.510098,107048.000000,1694172015.504084,0.000000,0.000000,0.000000,0.000000,0.000000,0.000000
1694172015.521634,107049.000000,1694172015.514160,0.000000,0.000000,0.000000,0.000000,0.000000,0.000000
1694172015.531640,107050.000000,1694172015.523863,0.000000,0.000000,0.000000,0.000000,0.000000,0.000000
1694172015.540867,107051.000000,1694172015.533971,0.000000,0.000000,0.000000,0.000000,0.000000,0.000000
1694172015.551753,107052.000000,1694172015.544067,0.000000,0.000000,0.000000,0.000000,0.000000,0.000000
1694172015.559978,107053.000000,1694172015.554269,0.000000,0.000000,0.000000,0.000000,0.000000,0.000000
1694172015.576806,107054.000000,1694172015.563979,0.000000,0.000000,0.000000,0.000000,0.000000,0.000000
1694172015.588373,107055.000000,1694172015.573973,0.000000,0.000000,0.000000,0.000000,0.000000,0.000000
1694172015.605942,107056.000000,1694172015.584095,0.000000,0.000000,0.000000,0.000000,0.000000,0.000000
1694172015.609810,107057.000000,1694172015.594050,0.000000,0.000000,0.000000,0.000000,0.000000,0.000000
1694172015.623566,107058.000000,1694172015.603914,0.000000,0.000000,0.000000,0.000000,0.000000,0.000000
1694172015.630785,107059.000000,1694172015.614220,-0.000605,0.000387,0.000219,-0.000037,0.000032,0.000003
1694172015.635787,107060.000000,1694172015.623961,-0.005119,0.003322,0.001822,-0.000310,0.000266,0.000027
1694172015.643260,107061.000000,1694172015.633983,-0.008456,0.005572,0.002951,-0.000512,0.000439,0.000044
1694172015.652686,107062.000000,1694172015.644039,-0.011597,0.007757,0.003990,-0.000703,0.000603,0.000061
1694172015.666585,107063.000000,1694172015.654410,-0.015387,0.010412,0.005262,-0.000933,0.000801,0.000082
1694172015.673296,107064.000000,1694172015.664179,-0.019966,0.013579,0.006819,-0.001207,0.001037,0.000107
1694172015.692388,107065.000000,1694172015.674197,-0.025062,0.017035,0.008567,-0.001506,0.001297,0.000134
1694172015.700366,107066.000000,1694172015.683917,-0.029440,0.019956,0.010075,-0.001760,0.001517,0.000158
1694172015.708715,107067.000000,1694172015.694052,-0.031839,0.021473,0.010878,-0.001896,0.001636,0.000172
1694172015.729610,107068.000000,1694172015.704021,-0.032136,0.021471,0.010889,-0.001907,0.001648,0.000175
1694172015.735083,107069.000000,1694172015.715212,-0.030682,0.020279,0.010278,-0.001817,0.001572,0.000168
1694172015.746497,107071.000000,1694172015.734041,-0.020911,0.013702,0.006912,-0.001248,0.001084,0.000119
1694172015.761809,107072.000000,1694172015.743988,-0.014364,0.009442,0.004717,-0.000864,0.000753,0.000084
1694172015.772360,107073.000000,1694172015.755966,-0.007339,0.004857,0.002393,-0.000446,0.000389,0.000044
1694172015.780646,107074.000000,1694172015.763943,0.000000,0.000000,0.000000,0.000000,0.000000,0.000000
1694172015.787673,107075.000000,1694172015.773973,0.000000,0.000000,0.000000,0.000000,0.000000,0.000000
1694172015.799286,107076.000000,1694172015.784493,0.000000,0.000000,0.000000,0.000000,0.000000,0.000000
1694172015.812491,107077.000000,1694172015.794119,0.000000,0.000000,0.000000,0.000000,0.000000,0.000000
1694172015.819785,107079.000000,1694172015.814348,0.000000,0.000000,0.000000,0.000000,0.000000,0.000000
1694172015.837516,107080.000000,1694172015.825017,0.000000,0.000000,0.000000,0.000000,0.000000,0.000000
1694172015.847794,107081.000000,1694172015.833961,0.000000,0.000000,0.000000,0.000000,0.000000,0.000000
1694172015.854506,107082.000000,1694172015.844401,0.000000,0.000000,0.000000,0.000000,0.000000,0.000000
1694172015.867996,107083.000000,1694172015.864827,0.000000,0.000000,0.000000,0.000000,0.000000,0.000000
1694172015.877678,107084.000000,1694172015.873955,0.000000,0.000000,0.000000,0.000000,0.000000,0.000000
1694172015.889231,107085.000000,1694172015.884007,0.000000,0.000000,0.000000,0.000000,0.000000,0.000000
1694172015.897262,107086.000000,1694172015.894200,0.000000,0.000000,0.000000,0.000000,0.000000,0.000000
1694172015.909075,107087.000000,1694172015.904128,0.000000,0.000000,0.000000,0.000000,0.000000,0.000000
1694172015.918227,107088.000000,1694172015.914146,0.000000,0.000000,0.000000,0.000000,0.000000,0.000000
1694172015.937692,107089.000000,1694172015.924155,0.000000,0.000000,0.000000,0.000000,0.000000,0.000000
1694172015.944078,107090.000000,1694172015.934079,0.000000,0.000000,0.000000,0.000000,0.000000,0.000000
1694172015.951529,107091.000000,1694172015.944695,0.000000,0.000000,0.000000,0.000000,0.000000,0.000000
1694172015.962723,107092.000000,1694172015.954037,0.000000,0.000000,0.000000,0.000000,0.000000,0.000000
1694172015.972352,107093.000000,1694172015.964210,0.000000,0.000000,0.000000,0.000000,0.000000,0.000000
1694172015.980669,107094.000000,1694172015.974011,0.000000,0.000000,0.000000,0.000000,0.000000,0.000000
1694172015.990201,107095.000000,1694172015.985379,0.000000,0.000000,0.000000,0.000000,0.000000,0.000000
1694172016.002825,107096.000000,1694172015.994534,0.000000,0.000000,0.000000,0.000000,0.000000,0.000000
1694172016.009038,107097.000000,1694172016.003980,0.000000,0.000000,0.000000,0.000000,0.000000,0.000000
1694172016.019612,107098.000000,1694172016.015669,0.000000,0.000000,0.000000,0.000000,0.000000,0.000000
1694172016.028587,107099.000000,1694172016.024060,0.000000,0.000000,0.000000,0.000000,0.000000,0.000000
1694172016.036038,107100.000000,1694172016.034095,0.000000,0.000000,0.000000,0.000000,0.000000,0.000000
1694172016.046935,107101.000000,1694172016.043884,0.000000,0.000000,0.000000,0.000000,0.000000,0.000000
1694172016.062218,107102.000000,1694172016.054718,0.000000,0.000000,0.000000,0.000000,0.000000,0.000000
1694172016.070189,107103.000000,1694172016.063997,0.000000,0.000000,0.000000,0.000000,0.000000,0.000000
1694172016.081213,107104.000000,1694172016.074085,0.000000,0.000000,0.000000,0.000000,0.000000,0.000000
1694172016.089097,107105.000000,1694172016.084564,0.000000,0.000000,0.000000,0.000000,0.000000,0.000000
1694172016.098130,107106.000000,1694172016.094075,0.000000,0.000000,0.000000,0.000000,0.000000,0.000000
1694172016.109878,107107.000000,1694172016.104165,0.000000,0.000000,0.000000,0.000000,0.000000,0.000000
1694172016.119585,107108.000000,1694172016.113995,0.000000,0.000000,0.000000,0.000000,0.000000,0.000000
1694172016.127895,107109.000000,1694172016.125058,0.000000,0.000000,0.000000,0.000000,0.000000,0.000000
1694172016.143114,107110.000000,1694172016.134306,0.000000,0.000000,0.000000,0.000000,0.000000,0.000000
1694172016.151847,107111.000000,1694172016.144990,0.000000,0.000000,0.000000,0.000000,0.000000,0.000000
1694172016.158787,107112.000000,1694172016.154086,0.000000,0.000000,0.000000,0.000000,0.000000,0.000000
1694172016.172178,107113.000000,1694172016.165241,0.000000,0.000000,0.000000,0.000000,0.000000,0.000000
1694172016.179043,107114.000000,1694172016.174100,0.000000,0.000000,0.000000,0.000000,0.000000,0.000000
1694172016.192942,107115.000000,1694172016.185819,0.000000,0.000000,0.000000,0.000000,0.000000,0.000000
1694172016.202660,107116.000000,1694172016.194115,0.000000,0.000000,0.000000,0.000000,0.000000,0.000000
1694172016.211514,107117.000000,1694172016.204304,0.000000,0.000000,0.000000,0.000000,0.000000,0.000000
1694172016.220838,107118.000000,1694172016.216976,0.000000,0.000000,0.000000,0.000000,0.000000,0.000000
1694172016.232755,107119.000000,1694172016.227946,0.000000,0.000000,0.000000,0.000000,0.000000,0.000000
1694172016.241004,107120.000000,1694172016.236325,0.000000,0.000000,0.000000,0.000000,0.000000,0.000000
1694172016.248222,107121.000000,1694172016.244059,0.000000,0.000000,0.000000,0.000000,0.000000,0.000000
1694172016.260348,107122.000000,1694172016.256194,0.000000,0.000000,0.000000,0.000000,0.000000,0.000000
1694172016.268551,107123.000000,1694172016.264041,0.000000,0.000000,0.000000,0.000000,0.000000,0.000000
1694172016.277447,107124.000000,1694172016.274297,0.000000,0.000000,0.000000,0.000000,0.000000,0.000000
1694172016.287957,107125.000000,1694172016.283943,0.000000,0.000000,0.000000,0.000000,0.000000,0.000000
1694172016.296396,107126.000000,1694172016.293968,0.000000,0.000000,0.000000,0.000000,0.000000,0.000000
1694172016.307839,107127.000000,1694172016.304053,0.000000,0.000000,0.000000,0.000000,0.000000,0.000000
1694172016.318119,107128.000000,1694172016.315332,0.000000,0.000000,0.000000,0.000000,0.000000,0.000000
1694172016.329914,107129.000000,1694172016.324583,0.000000,0.000000,0.000000,0.000000,0.000000,0.000000
1694172016.341930,107130.000000,1694172016.334430,0.000000,0.000000,0.000000,0.000000,0.000000,0.000000
1694172016.351690,107131.000000,1694172016.344053,0.000000,0.000000,0.000000,0.000000,0.000000,0.000000
1694172016.361389,107132.000000,1694172016.353990,0.000000,0.000000,0.000000,0.000000,0.000000,0.000000
1694172016.368869,107133.000000,1694172016.363946,0.000000,0.000000,0.000000,0.000000,0.000000,0.000000
1694172016.380050,107134.000000,1694172016.375945,0.000000,0.000000,0.000000,0.000000,0.000000,0.000000
1694172016.392049,107135.000000,1694172016.384288,0.000000,0.000000,0.000000,0.000000,0.000000,0.000000
1694172016.404167,107136.000000,1694172016.394175,0.000000,0.000000,0.000000,0.000000,0.000000,0.000000
1694172016.414357,107137.000000,1694172016.404188,0.000000,0.000000,0.000000,0.000000,0.000000,0.000000
1694172016.423911,107138.000000,1694172016.414922,0.000000,0.000000,0.000000,0.000000,0.000000,0.000000
1694172016.433189,107139.000000,1694172016.428167,-0.005162,0.002813,0.002224,-0.000301,0.000264,0.000042
1694172016.449253,107140.000000,1694172016.434525,-0.014834,0.007985,0.006455,-0.000855,0.000747,0.000119
1694172016.457560,107141.000000,1694172016.443917,-0.023702,0.012608,0.010433,-0.001352,0.001178,0.000188
1694172016.469179,107142.000000,1694172016.454111,-0.029967,0.015729,0.013333,-0.001694,0.001475,0.000236
1694172016.477814,107143.000000,1694172016.465201,-0.033203,0.017172,0.014904,-0.001866,0.001625,0.000259
1694172016.489103,107144.000000,1694172016.474428,-0.034535,0.017620,0.015599,-0.001933,0.001685,0.000267
1694172016.498643,107145.000000,1694172016.485021,-0.034654,0.017430,0.015681,-0.001933,0.001686,0.000265
1694172016.505705,107146.000000,1694172016.495271,-0.032633,0.016141,0.014761,-0.001816,0.001587,0.000247
1694172016.514436,107147.000000,1694172016.504246,-0.028573,0.013864,0.012871,-0.001589,0.001391,0.000213
1694172016.530090,107148.000000,1694172016.514302,-0.024197,0.011522,0.010777,-0.001344,0.001178,0.000178
1694172016.532100,107149.000000,1694172016.524017,-0.020032,0.009385,0.008779,-0.001111,0.000975,0.000145
1694172016.540396,107150.000000,1694172016.534045,-0.015313,0.007068,0.006577,-0.000849,0.000746,0.000108
1694172016.550377,107151.000000,1694172016.543962,-0.009920,0.004514,0.004158,-0.000549,0.000484,0.000068
1694172016.561289,107152.000000,1694172016.554720,-0.004556,0.002045,0.001857,-0.000252,0.000222,0.000031
1694172016.569488,107153.000000,1694172016.563890,0.000000,0.000000,0.000000,0.000000,0.000000,0.000000
1694172016.581071,107154.000000,1694172016.573962,0.000000,0.000000,0.000000,0.000000,0.000000,0.000000
1694172016.595713,107155.000000,1694172016.584287,0.000000,0.000000,0.000000,0.000000,0.000000,0.000000
1694172016.605023,107156.000000,1694172016.594183,0.000000,0.000000,0.000000,0.000000,0.000000,0.000000
1694172016.615406,107157.000000,1694172016.605096,0.000000,0.000000,0.000000,0.000000,0.000000,0.000000
1694172016.622773,107158.000000,1694172016.613961,0.000000,0.000000,0.000000,0.000000,0.000000,0.000000
1694172016.631699,107159.000000,1694172016.624188,0.000000,0.000000,0.000000,0.000000,0.000000,0.000000
1694172016.641877,107160.000000,1694172016.633930,0.000000,0.000000,0.000000,0.000000,0.000000,0.000000
1694172016.653766,107161.000000,1694172016.646827,0.000000,0.000000,0.000000,0.000000,0.000000,0.000000
1694172016.665681,107162.000000,1694172016.654203,0.000000,0.000000,0.000000,0.000000,0.000000,0.000000
1694172016.677333,107163.000000,1694172016.664034,0.000000,0.000000,0.000000,0.000000,0.000000,0.000000
1694172016.685064,107164.000000,1694172016.673964,0.000000,0.000000,0.000000,0.000000,0.000000,0.000000
1694172016.696727,107165.000000,1694172016.684018,0.000000,0.000000,0.000000,0.000000,0.000000,0.000000
1694172016.707649,107166.000000,1694172016.694117,0.000000,0.000000,0.000000,0.000000,0.000000,0.000000
1694172016.714368,107167.000000,1694172016.703847,0.000000,0.000000,0.000000,0.000000,0.000000,0.000000
1694172016.726899,107168.000000,1694172016.714011,0.000000,0.000000,0.000000,0.000000,0.000000,0.000000
1694172016.736688,107169.000000,1694172016.723942,0.000000,0.000000,0.000000,0.000000,0.000000,0.000000
1694172016.739487,107170.000000,1694172016.734212,0.000000,0.000000,0.000000,0.000000,0.000000,0.000000
1694172016.752494,107171.000000,1694172016.744236,0.000000,0.000000,0.000000,0.000000,0.000000,0.000000
1694172016.759072,107172.000000,1694172016.753963,0.000000,0.000000,0.000000,0.000000,0.000000,0.000000
1694172016.770377,107173.000000,1694172016.764086,0.000000,0.000000,0.000000,0.000000,0.000000,0.000000
1694172016.782453,107174.000000,1694172016.774773,0.000000,0.000000,0.000000,0.000000,0.000000,0.000000
1694172016.789319,107175.000000,1694172016.784065,0.000000,0.000000,0.000000,0.000000,0.000000,0.000000
1694172016.800263,107176.000000,1694172016.794819,0.000000,0.000000,0.000000,0.000000,0.000000,0.000000
1694172016.810204,107177.000000,1694172016.804475,0.000000,0.000000,0.000000,0.000000,0.000000,0.000000
1694172016.818935,107178.000000,1694172016.814020,0.000000,0.000000,0.000000,0.000000,0.000000,0.000000
1694172016.827867,107179.000000,1694172016.824704,0.000000,0.000000,0.000000,0.000000,0.000000,0.000000
1694172016.838900,107180.000000,1694172016.834166,0.000000,0.000000,0.000000,0.000000,0.000000,0.000000
1694172016.854584,107181.000000,1694172016.843874,0.000000,0.000000,0.000000,0.000000,0.000000,0.000000
1694172016.859644,107182.000000,1694172016.854073,0.000000,0.000000,0.000000,0.000000,0.000000,0.000000
1694172016.868382,107183.000000,1694172016.865054,0.000000,0.000000,0.000000,0.000000,0.000000,0.000000
1694172016.881310,107184.000000,1694172016.874206,0.000000,0.000000,0.000000,0.000000,0.000000,0.000000
1694172016.887924,107185.000000,1694172016.883920,0.000000,0.000000,0.000000,0.000000,0.000000,0.000000
1694172016.901587,107186.000000,1694172016.895968,0.000000,0.000000,0.000000,0.000000,0.000000,0.000000
1694172016.909738,107187.000000,1694172016.904424,0.000000,0.000000,0.000000,0.000000,0.000000,0.000000
1694172016.916527,107188.000000,1694172016.914585,0.000000,0.000000,0.000000,0.000000,0.000000,0.000000
1694172016.930258,107189.000000,1694172016.924794,0.000000,0.000000,0.000000,0.000000,0.000000,0.000000
1694172016.943332,107190.000000,1694172016.934718,0.000000,0.000000,0.000000,0.000000,0.000000,0.000000
1694172016.955566,107191.000000,1694172016.944019,0.000000,0.000000,0.000000,0.000000,0.000000,0.000000
1694172016.965950,107192.000000,1694172016.954563,0.000000,0.000000,0.000000,0.000000,0.000000,0.000000
1694172016.972124,107193.000000,1694172016.963972,0.000000,0.000000,0.000000,0.000000,0.000000,0.000000
1694172016.980334,107194.000000,1694172016.974086,0.000000,0.000000,0.000000,0.000000,0.000000,0.000000
1694172016.992136,107195.000000,1694172016.984880,0.000000,0.000000,0.000000,0.000000,0.000000,0.000000
1694172017.006343,107196.000000,1694172016.997899,0.000000,0.000000,0.000000,0.000000,0.000000,0.000000
1694172017.013810,107197.000000,1694172017.004153,0.000000,0.000000,0.000000,0.000000,0.000000,0.000000
1694172017.024634,107198.000000,1694172017.016418,0.000000,0.000000,0.000000,0.000000,0.000000,0.000000
1694172017.034105,107199.000000,1694172017.024107,0.000000,0.000000,0.000000,0.000000,0.000000,0.000000
1694172017.044794,107200.000000,1694172017.036718,0.000000,0.000000,0.000000,0.000000,0.000000,0.000000
1694172017.057159,107201.000000,1694172017.044379,0.000000,0.000000,0.000000,0.000000,0.000000,0.000000
1694172017.067518,107202.000000,1694172017.054080,0.000000,0.000000,0.000000,0.000000,0.000000,0.000000
1694172017.071687,107203.000000,1694172017.064080,0.000000,0.000000,0.000000,0.000000,0.000000,0.000000
1694172017.081116,107204.000000,1694172017.074207,0.000000,0.000000,0.000000,0.000000,0.000000,0.000000
1694172017.087637,107205.000000,1694172017.083941,0.000000,0.000000,0.000000,0.000000,0.000000,0.000000
1694172017.097348,107206.000000,1694172017.094138,0.000000,0.000000,0.000000,0.000000,0.000000,0.000000
1694172017.107482,107207.000000,1694172017.104059,0.000000,0.000000,0.000000,0.000000,0.000000,0.000000
1694172017.118822,107208.000000,1694172017.114059,0.000000,0.000000,0.000000,0.000000,0.000000,0.000000
1694172017.126610,107209.000000,1694172017.124208,0.000000,0.000000,0.000000,0.000000,0.000000,0.000000
1694172017.136559,107210.000000,1694172017.134044,-0.003717,0.002307,0.002489,-0.000248,0.000215,0.000022
1694172017.149711,107211.000000,1694172017.144198,-0.008996,0.005815,0.006211,-0.000605,0.000525,0.000054
1694172017.159760,107212.000000,1694172017.154959,-0.013531,0.009112,0.009606,-0.000921,0.000798,0.000080
1694172017.168831,107213.000000,1694172017.166256,-0.017090,0.011972,0.012476,-0.001177,0.001021,0.000100
1694172017.179886,107214.000000,1694172017.174212,-0.020733,0.015023,0.015551,-0.001444,0.001253,0.000120
1694172017.185565,107215.000000,1694172017.184051,-0.025009,0.018563,0.019149,-0.001753,0.001522,0.000143
1694172017.198943,107216.000000,1694172017.194055,-0.029559,0.022281,0.022908,-0.002075,0.001803,0.000166
1694172017.209225,107217.000000,1694172017.204047,-0.034253,0.026045,0.026670,-0.002398,0.002085,0.000190
1694172017.217566,107218.000000,1694172017.214108,-0.039245,0.029939,0.030495,-0.002730,0.002376,0.000215
1694172017.229535,107219.000000,1694172017.224762,-0.044740,0.034054,0.034411,-0.003079,0.002682,0.000243
1694172017.237180,107220.000000,1694172017.234061,-0.051334,0.038782,0.038817,-0.003482,0.003034,0.000275
1694172017.251173,107221.000000,1694172017.244795,-0.059175,0.044283,0.043945,-0.003949,0.003442,0.000314
1694172017.264804,107222.000000,1694172017.255681,-0.068381,0.050783,0.050000,-0.004488,0.003912,0.000361
1694172017.271357,107223.000000,1694172017.267642,-0.079237,0.058533,0.057250,-0.005114,0.004458,0.000419
1694172017.282164,107224.000000,1694172017.274484,-0.091428,0.067176,0.065347,-0.005798,0.005055,0.000483
1694172017.295056,107225.000000,1694172017.288930,-0.104607,0.076438,0.073716,-0.006512,0.005676,0.000553
1694172017.304899,107226.000000,1694172017.298826,-0.118482,0.086248,0.082081,-0.007240,0.006307,0.000629
1694172017.312541,107227.000000,1694172017.305587,-0.131504,0.095417,0.089641,-0.007903,0.006881,0.000704
1694172017.321203,107228.000000,1694172017.314297,-0.141466,0.102164,0.095148,-0.008392,0.007305,0.000765
1694172017.338739,107229.000000,1694172017.327551,-0.148895,0.106971,0.098934,-0.008742,0.007609,0.000812
1694172017.348743,107230.000000,1694172017.340909,-0.155047,0.110738,0.101842,-0.009022,0.007851,0.000853
1694172017.349410,107231.000000,1694172017.344072,-0.159870,0.113384,0.104083,-0.009232,0.008037,0.000891
1694172017.363683,107232.000000,1694172017.354089,-0.164254,0.115750,0.106128,-0.009420,0.008208,0.000929
1694172017.371099,107233.000000,1694172017.364206,-0.169357,0.118675,0.108348,-0.009640,0.008407,0.000970
1694172017.377401,107234.000000,1694172017.374069,-0.174585,0.121804,0.110426,-0.009865,0.008609,0.001011
1694172017.387564,107235.000000,1694172017.384815,-0.178133,0.123880,0.111351,-0.010009,0.008739,0.001046
1694172017.400091,107236.000000,1694172017.396035,-0.179413,0.124115,0.110628,-0.010032,0.008765,0.001069
1694172017.407618,107237.000000,1694172017.403906,-0.178385,0.122461,0.108249,-0.009931,0.008686,0.001080
1694172017.417824,107238.000000,1694172017.414040,-0.174609,0.118845,0.104159,-0.009694,0.008489,0.001077
1694172017.433866,107239.000000,1694172017.424238,-0.168540,0.113501,0.098991,-0.009348,0.008195,0.001062
1694172017.441388,107240.000000,1694172017.434069,-0.161255,0.107175,0.093584,-0.008944,0.007853,0.001040
1694172017.451897,107241.000000,1694172017.445110,-0.154194,0.101170,0.088657,-0.008559,0.007527,0.001019
1694172017.468301,107242.000000,1694172017.458455,-0.147788,0.095989,0.084290,-0.008215,0.007235,0.001001
1694172017.479793,107243.000000,1694172017.464072,-0.140808,0.090751,0.079592,-0.007847,0.006919,0.000977
1694172017.483883,107244.000000,1694172017.474085,-0.132442,0.084776,0.074011,-0.007409,0.006539,0.000938
1694172017.488006,107245.000000,1694172017.483938,-0.122932,0.078145,0.067870,-0.006911,0.006102,0.000886
1694172017.497797,107246.000000,1694172017.494342,-0.112719,0.071154,0.061683,-0.006375,0.005631,0.000825
1694172017.508316,107247.000000,1694172017.504044,-0.101894,0.063780,0.055529,-0.005803,0.005128,0.000756
1694172017.515898,107248.000000,1694172017.514045,-0.091313,0.056598,0.049709,-0.005237,0.004630,0.000684
1694172017.529482,107249.000000,1694172017.524183,-0.081574,0.050070,0.044293,-0.004708,0.004164,0.000616
1694172017.538368,107250.000000,1694172017.535585,-0.073512,0.044618,0.039441,-0.004255,0.003764,0.000556
1694172017.549032,107251.000000,1694172017.544066,-0.069043,0.041442,0.036257,-0.003990,0.003526,0.000518
1694172017.557922,107252.000000,1694172017.554399,-0.067759,0.040328,0.034796,-0.003901,0.003441,0.000500
1694172017.569751,107253.000000,1694172017.564065,-0.067436,0.039933,0.033972,-0.003872,0.003405,0.000490
1694172017.582841,107254.000000,1694172017.574253,-0.066333,0.039285,0.032931,-0.003808,0.003339,0.000475
1694172017.590129,107255.000000,1694172017.587628,-0.064088,0.038134,0.031477,-0.003688,0.003225,0.000452
1694172017.601209,107256.000000,1694172017.594376,-0.062122,0.037143,0.030183,-0.003584,0.003122,0.000430
1694172017.606845,107257.000000,1694172017.604752,-0.060279,0.036069,0.029010,-0.003482,0.003023,0.000409
1694172017.617053,107258.000000,1694172017.614077,-0.056767,0.033910,0.027290,-0.003290,0.002848,0.000377
1694172017.626143,107259.000000,1694172017.624300,-0.051408,0.030729,0.024950,-0.003001,0.002593,0.000336
1694172017.638661,107260.000000,1694172017.634621,-0.044366,0.026610,0.021877,-0.002618,0.002259,0.000287
1694172017.650224,107261.000000,1694172017.643906,-0.035654,0.021465,0.017960,-0.002132,0.001838,0.000228
1694172017.657549,107262.000000,1694172017.655035,-0.026358,0.015939,0.013666,-0.001602,0.001381,0.000167
1694172017.671010,107263.000000,1694172017.664201,-0.018327,0.011122,0.009802,-0.001131,0.000976,0.000116
1694172017.678867,107264.000000,1694172017.674069,-0.011791,0.007150,0.006476,-0.000736,0.000637,0.000073
1694172017.687165,107265.000000,1694172017.683886,-0.005044,0.003047,0.002839,-0.000319,0.000276,0.000031
1694172017.701238,107266.000000,1694172017.696421,0.000000,0.000000,0.000000,0.000000,0.000000,0.000000
1694172017.712085,107267.000000,1694172017.704240,0.000000,0.000000,0.000000,0.000000,0.000000,0.000000
1694172017.721886,107268.000000,1694172017.714068,0.000000,0.000000,0.000000,0.000000,0.000000,0.000000
1694172017.728430,107269.000000,1694172017.726252,0.000000,0.000000,0.000000,0.000000,0.000000,0.000000
1694172017.741235,107270.000000,1694172017.734176,0.000000,0.000000,0.000000,0.000000,0.000000,0.000000
1694172017.748374,107271.000000,1694172017.744076,0.000000,0.000000,0.000000,0.000000,0.000000,0.000000
1694172017.759584,107272.000000,1694172017.754058,0.000000,0.000000,0.000000,0.000000,0.000000,0.000000
1694172017.770428,107273.000000,1694172017.764033,0.000000,0.000000,0.000000,0.000000,0.000000,0.000000
1694172017.781153,107274.000000,1694172017.774285,0.000000,0.000000,0.000000,0.000000,0.000000,0.000000
1694172017.788745,107275.000000,1694172017.783941,0.000000,0.000000,0.000000,0.000000,0.000000,0.000000
1694172017.799182,107276.000000,1694172017.794294,0.000000,0.000000,0.000000,0.000000,0.000000,0.000000
1694172017.808062,107277.000000,1694172017.805418,0.000000,0.000000,0.000000,0.000000,0.000000,0.000000
1694172017.818158,107278.000000,1694172017.814055,0.000000,0.000000,0.000000,0.000000,0.000000,0.000000
1694172017.828089,107279.000000,1694172017.824454,0.000000,0.000000,0.000000,0.000000,0.000000,0.000000
1694172017.838650,107280.000000,1694172017.834285,0.000000,0.000000,0.000000,0.000000,0.000000,0.000000
1694172017.849383,107281.000000,1694172017.843961,0.000000,0.000000,0.000000,0.000000,0.000000,0.000000
1694172017.863670,107282.000000,1694172017.854050,0.000000,0.000000,0.000000,0.000000,0.000000,0.000000
1694172017.876467,107283.000000,1694172017.864314,0.000000,0.000000,0.000000,0.000000,0.000000,0.000000
1694172017.892808,107284.000000,1694172017.877898,0.000000,0.000000,0.000000,0.000000,0.000000,0.000000
1694172017.902437,107286.000000,1694172017.894205,0.000000,0.000000,0.000000,0.000000,0.000000,0.000000
1694172017.915451,107287.000000,1694172017.905041,0.000000,0.000000,0.000000,0.000000,0.000000,0.000000
1694172017.936366,107288.000000,1694172017.913947,0.000000,0.000000,0.000000,0.000000,0.000000,0.000000
1694172017.949558,107290.000000,1694172017.934988,-0.004989,0.002247,0.002754,-0.000297,0.000262,0.000026
1694172017.960071,107291.000000,1694172017.944087,-0.012328,0.005468,0.007012,-0.000731,0.000644,0.000066
1694172017.963845,107292.000000,1694172017.953833,-0.020269,0.008865,0.011868,-0.001197,0.001055,0.000111
1694172017.972640,107293.000000,1694172017.963940,-0.029230,0.012637,0.017506,-0.001716,0.001511,0.000163
1694172017.989509,107294.000000,1694172017.974205,-0.039305,0.016840,0.023990,-0.002293,0.002016,0.000221
1694172018.001124,107295.000000,1694172017.983960,-0.050077,0.021240,0.031098,-0.002900,0.002546,0.000283
1694172018.009287,107296.000000,1694172017.999386,-0.060199,0.025271,0.037975,-0.003464,0.003035,0.000340
1694172018.020843,107297.000000,1694172018.007643,-0.069756,0.028979,0.044497,-0.003986,0.003488,0.000391
1694172018.025826,107298.000000,1694172018.014169,-0.078935,0.032375,0.050493,-0.004470,0.003909,0.000438
1694172018.030330,107299.000000,1694172018.024024,-0.086325,0.034818,0.054824,-0.004839,0.004229,0.000470
1694172018.038826,107300.000000,1694172018.034549,-0.090962,0.035949,0.056927,-0.005048,0.004411,0.000484
1694172018.050294,107301.000000,1694172018.044416,-0.093392,0.036114,0.057505,-0.005139,0.004492,0.000486
1694172018.057479,107302.000000,1694172018.054262,-0.094292,0.035763,0.057153,-0.005154,0.004507,0.000480
1694172018.069333,107303.000000,1694172018.064174,-0.093010,0.034829,0.055534,-0.005065,0.004431,0.000464
1694172018.083918,107304.000000,1694172018.074165,-0.089518,0.033297,0.052672,-0.004870,0.004262,0.000439
1694172018.094295,107305.000000,1694172018.084169,-0.085594,0.031771,0.049608,-0.004655,0.004075,0.000414
1694172018.107199,107306.000000,1694172018.095250,-0.082145,0.030578,0.046950,-0.004468,0.003912,0.000394
1694172018.117882,107307.000000,1694172018.104944,-0.079343,0.029621,0.044894,-0.004316,0.003781,0.000379
1694172018.124531,107308.000000,1694172018.114186,-0.077796,0.029015,0.043689,-0.004228,0.003707,0.000371
1694172018.128961,107309.000000,1694172018.123916,-0.076926,0.028600,0.042807,-0.004170,0.003660,0.000366
1694172018.136793,107310.000000,1694172018.134241,-0.075092,0.027790,0.041211,-0.004061,0.003565,0.000355
1694172018.152374,107311.000000,1694172018.145247,-0.071961,0.026558,0.038776,-0.003885,0.003410,0.000336
1694172018.172190,107312.000000,1694172018.165922,-0.069350,0.025712,0.036640,-0.003738,0.003281,0.000320
1694172018.180898,107314.000000,1694172018.175458,-0.071412,0.027286,0.036431,-0.003822,0.003356,0.000325
1694172018.189039,107315.000000,1694172018.184957,-0.074833,0.029170,0.037616,-0.003988,0.003503,0.000341
1694172018.201465,107316.000000,1694172018.195840,-0.079150,0.031461,0.039251,-0.004198,0.003688,0.000360
1694172018.209088,107317.000000,1694172018.204489,-0.083973,0.034021,0.041162,-0.004433,0.003895,0.000382
1694172018.221265,107318.000000,1694172018.214428,-0.087999,0.036269,0.042779,-0.004629,0.004068,0.000400
1694172018.230627,107319.000000,1694172018.226017,-0.089887,0.037543,0.043358,-0.004718,0.004148,0.000409
1694172018.239351,107320.000000,1694172018.234195,-0.089949,0.037937,0.042899,-0.004715,0.004149,0.000410
1694172018.250299,107321.000000,1694172018.244814,-0.089191,0.037833,0.041966,-0.004670,0.004111,0.000407
1694172018.260299,107322.000000,1694172018.254415,-0.088701,0.037713,0.041351,-0.004638,0.004086,0.000405
1694172018.270547,107323.000000,1694172018.265279,-0.089222,0.038015,0.041483,-0.004658,0.004109,0.000409
1694172018.286427,107324.000000,1694172018.273952,-0.089090,0.038048,0.041375,-0.004647,0.004103,0.000411
1694172018.294613,107325.000000,1694172018.283892,-0.086767,0.037060,0.040145,-0.004526,0.003998,0.000404
1694172018.301353,107326.000000,1694172018.294075,-0.083839,0.035787,0.038595,-0.004374,0.003863,0.000393
1694172018.310643,107327.000000,1694172018.304091,-0.082243,0.035133,0.037834,-0.004290,0.003787,0.000390
1694172018.320167,107328.000000,1694172018.314425,-0.081569,0.034773,0.037667,-0.004250,0.003753,0.000391
1694172018.331861,107329.000000,1694172018.324110,-0.080759,0.034150,0.037208,-0.004197,0.003707,0.000392
1694172018.340679,107330.000000,1694172018.334174,-0.079297,0.033135,0.036009,-0.004104,0.003626,0.000387
1694172018.360126,107331.000000,1694172018.344038,-0.076495,0.031604,0.033905,-0.003944,0.003486,0.000374
1694172018.377687,107332.000000,1694172018.354291,-0.072327,0.029627,0.031006,-0.003718,0.003288,0.000354
1694172018.378793,107333.000000,1694172018.364902,-0.067246,0.027328,0.027761,-0.003451,0.003051,0.000328
1694172018.390394,107334.000000,1694172018.374097,-0.061047,0.024606,0.024345,-0.003133,0.002770,0.000297
1694172018.398040,107335.000000,1694172018.384103,-0.052982,0.021235,0.020504,-0.002729,0.002411,0.000256
1694172018.405664,107336.000000,1694172018.395922,-0.043322,0.017338,0.016324,-0.002246,0.001983,0.000209
1694172018.417398,107337.000000,1694172018.404176,-0.033183,0.013292,0.012209,-0.001734,0.001531,0.000159
1694172018.421166,107338.000000,1694172018.414043,-0.022961,0.009213,0.008294,-0.001211,0.001070,0.000110
1694172018.430449,107339.000000,1694172018.424217,-0.013058,0.005262,0.004669,-0.000696,0.000616,0.000062
1694172018.441300,107340.000000,1694172018.437130,-0.002735,0.001114,0.000974,-0.000148,0.000131,0.000013
1694172018.448863,107341.000000,1694172018.444029,0.000000,0.000000,0.000000,0.000000,0.000000,0.000000
1694172018.466709,107342.000000,1694172018.460058,0.000000,0.000000,0.000000,0.000000,0.000000,0.000000
1694172018.475160,107343.000000,1694172018.464878,0.000000,0.000000,0.000000,0.000000,0.000000,0.000000
1694172018.485562,107344.000000,1694172018.474060,0.000000,0.000000,0.000000,0.000000,0.000000,0.000000
1694172018.496933,107345.000000,1694172018.487848,0.000000,0.000000,0.000000,0.000000,0.000000,0.000000
1694172018.506435,107346.000000,1694172018.498252,0.000000,0.000000,0.000000,0.000000,0.000000,0.000000
1694172018.518505,107347.000000,1694172018.503954,0.000000,0.000000,0.000000,0.000000,0.000000,0.000000
1694172018.526869,107348.000000,1694172018.514555,0.000000,0.000000,0.000000,0.000000,0.000000,0.000000
1694172018.539924,107349.000000,1694172018.523939,0.000000,0.000000,0.000000,0.000000,0.000000,0.000000
1694172018.541245,107350.000000,1694172018.534592,0.000000,0.000000,0.000000,0.000000,0.000000,0.000000
1694172018.546368,107351.000000,1694172018.544038,0.000000,0.000000,0.000000,0.000000,0.000000,0.000000
1694172018.560107,107352.000000,1694172018.555323,0.000000,0.000000,0.000000,0.000000,0.000000,0.000000
1694172018.571064,107353.000000,1694172018.564278,0.000000,0.000000,0.000000,0.000000,0.000000,0.000000
1694172018.579318,107354.000000,1694172018.573949,0.000000,0.000000,0.000000,0.000000,0.000000,0.000000
1694172018.596949,107355.000000,1694172018.584082,0.000000,0.000000,0.000000,0.000000,0.000000,0.000000
1694172018.610020,107356.000000,1694172018.594072,0.000000,0.000000,0.000000,0.000000,0.000000,0.000000
1694172018.615024,107357.000000,1694172018.608862,0.000000,0.000000,0.000000,0.000000,0.000000,0.000000
1694172018.625660,107358.000000,1694172018.614802,0.000000,0.000000,0.000000,0.000000,0.000000,0.000000
1694172018.640514,107359.000000,1694172018.624150,0.000000,0.000000,0.000000,0.000000,0.000000,0.000000
1694172018.644238,107360.000000,1694172018.634185,0.000000,0.000000,0.000000,0.000000,0.000000,0.000000
1694172018.648666,107361.000000,1694172018.643949,-0.002479,0.001673,0.001236,-0.000158,0.000140,0.000014
1694172018.662941,107362.000000,1694172018.654426,-0.006818,0.004587,0.003385,-0.000433,0.000383,0.000037
1694172018.674392,107363.000000,1694172018.665087,-0.010274,0.006867,0.005096,-0.000648,0.000572,0.000056
1694172018.682033,107364.000000,1694172018.674176,-0.013996,0.009266,0.006963,-0.000877,0.000773,0.000076
1694172018.696453,107365.000000,1694172018.684099,-0.018023,0.011803,0.009014,-0.001121,0.000988,0.000097
1694172018.704246,107366.000000,1694172018.694064,-0.020999,0.013628,0.010636,-0.001300,0.001146,0.000113
1694172018.714558,107367.000000,1694172018.704203,-0.021901,0.014135,0.011372,-0.001356,0.001197,0.000119
1694172018.729209,107368.000000,1694172018.716079,-0.020666,0.013314,0.011068,-0.001287,0.001137,0.000113
1694172018.743805,107369.000000,1694172018.728413,-0.018436,0.011911,0.010159,-0.001156,0.001023,0.000103
1694172018.748686,107370.000000,1694172018.734100,-0.016612,0.010794,0.009343,-0.001049,0.000929,0.000094
1694172018.752350,107371.000000,1694172018.744146,-0.015383,0.010086,0.008775,-0.000977,0.000866,0.000088
1694172018.764142,107372.000000,1694172018.754071,-0.014213,0.009464,0.008219,-0.000909,0.000806,0.000081
1694172018.770493,107373.000000,1694172018.767626,-0.012653,0.008598,0.007397,-0.000816,0.000725,0.000073
1694172018.778986,107374.000000,1694172018.774189,-0.010120,0.007027,0.005958,-0.000659,0.000586,0.000059
1694172018.835670,107375.000000,1694172018.783937,-0.007234,0.005132,0.004295,-0.000476,0.000424,0.000042
1694172018.843834,107377.000000,1694172018.803998,-0.005013,0.003705,0.003030,-0.000336,0.000299,0.000030
1694172018.843951,107380.000000,1694172018.834157,-0.010612,0.008008,0.006199,-0.000709,0.000627,0.000064
1694172018.853185,107381.000000,1694172018.844174,-0.014707,0.011127,0.008444,-0.000976,0.000862,0.000089
1694172018.859092,107382.000000,1694172018.853940,-0.019823,0.015009,0.011199,-0.001305,0.001151,0.000119
1694172018.871312,107383.000000,1694172018.865444,-0.024953,0.018850,0.013896,-0.001630,0.001435,0.000149
1694172018.877841,107384.000000,1694172018.874085,-0.029256,0.022028,0.016125,-0.001898,0.001669,0.000175
1694172018.890209,107385.000000,1694172018.884025,-0.032495,0.024374,0.017769,-0.002098,0.001841,0.000195
1694172018.902235,107386.000000,1694172018.896767,-0.033837,0.025253,0.018383,-0.002178,0.001909,0.000206
1694172018.915815,107387.000000,1694172018.906049,-0.032703,0.024298,0.017713,-0.002107,0.001845,0.000202
1694172018.922091,107388.000000,1694172018.914947,-0.030198,0.022359,0.016339,-0.001952,0.001708,0.000190
1694172018.928900,107389.000000,1694172018.923909,-0.028115,0.020711,0.015203,-0.001821,0.001592,0.000179
1694172018.939301,107390.000000,1694172018.934025,-0.026974,0.019703,0.014631,-0.001748,0.001527,0.000173
1694172018.947833,107391.000000,1694172018.944546,-0.027007,0.019509,0.014737,-0.001748,0.001526,0.000173
1694172018.956059,107392.000000,1694172018.954074,-0.028940,0.020642,0.015877,-0.001866,0.001627,0.000184
1694172018.970962,107393.000000,1694172018.964554,-0.031754,0.022328,0.017513,-0.002036,0.001775,0.000202
1694172018.980824,107394.000000,1694172018.974038,-0.034236,0.023635,0.018965,-0.002180,0.001901,0.000218
1694172018.990636,107395.000000,1694172018.984236,-0.036334,0.024496,0.020174,-0.002295,0.002003,0.000231
1694172018.999453,107396.000000,1694172018.994038,-0.038123,0.025023,0.021144,-0.002387,0.002084,0.000242
1694172019.011348,107397.000000,1694172019.004278,-0.040914,0.026090,0.022613,-0.002535,0.002214,0.000259
1694172019.018247,107398.000000,1694172019.014339,-0.045478,0.028062,0.025065,-0.002779,0.002430,0.000285
1694172019.029630,107399.000000,1694172019.024192,-0.050627,0.030076,0.027797,-0.003046,0.002666,0.000315
1694172019.045562,107400.000000,1694172019.035161,-0.055409,0.031629,0.030274,-0.003280,0.002876,0.000340
1694172019.051445,107401.000000,1694172019.045156,-0.059183,0.032595,0.032305,-0.003456,0.003039,0.000360
1694172019.060523,107402.000000,1694172019.054953,-0.061977,0.033174,0.033932,-0.003582,0.003160,0.000373
1694172019.074324,107403.000000,1694172019.064087,-0.064684,0.033840,0.035590,-0.003706,0.003282,0.000383
1694172019.078276,107404.000000,1694172019.074436,-0.065820,0.033858,0.036560,-0.003752,0.003338,0.000385
1694172019.085056,107405.000000,1694172019.083943,-0.063382,0.032256,0.035652,-0.003614,0.003233,0.000368
1694172019.100010,107406.000000,1694172019.094444,-0.058822,0.029718,0.033504,-0.003367,0.003028,0.000339
1694172019.112409,107407.000000,1694172019.104262,-0.054634,0.027435,0.031547,-0.003140,0.002838,0.000314
1694172019.119284,107408.000000,1694172019.114383,-0.051318,0.025611,0.030139,-0.002961,0.002688,0.000294
1694172019.132452,107409.000000,1694172019.125781,-0.047601,0.023651,0.028537,-0.002762,0.002520,0.000274
1694172019.141046,107410.000000,1694172019.134065,-0.042231,0.020974,0.025839,-0.002470,0.002265,0.000245
1694172019.149640,107411.000000,1694172019.144020,-0.035901,0.017837,0.022331,-0.002120,0.001951,0.000210
1694172019.163989,107412.000000,1694172019.154188,-0.030554,0.015158,0.019197,-0.001817,0.001676,0.000181
1694172019.176167,107413.000000,1694172019.163944,-0.026856,0.013323,0.016933,-0.001604,0.001482,0.000160
1694172019.186156,107414.000000,1694172019.174069,-0.024336,0.012109,0.015351,-0.001458,0.001348,0.000147
1694172019.198324,107415.000000,1694172019.184042,-0.022738,0.011336,0.014306,-0.001364,0.001261,0.000138
1694172019.209708,107416.000000,1694172019.195560,-0.022655,0.011284,0.014147,-0.001357,0.001253,0.000139
1694172019.218698,107417.000000,1694172019.207160,-0.024463,0.012148,0.015096,-0.001458,0.001344,0.000150
1694172019.226275,107418.000000,1694172019.214488,-0.027603,0.013630,0.016744,-0.001632,0.001500,0.000168
1694172019.233336,107419.000000,1694172019.224181,-0.031813,0.015603,0.018921,-0.001863,0.001706,0.000191
1694172019.242987,107420.000000,1694172019.233928,-0.037583,0.018366,0.022025,-0.002179,0.001989,0.000224
1694172019.253066,107421.000000,1694172019.243904,-0.046052,0.022494,0.026786,-0.002642,0.002405,0.000271
1694172021.719997,107667.000000,1694172021.705519,-0.042802,0.018945,0.025935,-0.002539,0.002279,0.000190
1694172021.729033,107668.000000,1694172021.719624,-0.040756,0.018153,0.025269,-0.002438,0.002193,0.000187
1694172021.737342,107669.000000,1694172021.726004,-0.038435,0.017286,0.024485,-0.002322,0.002094,0.000183
1694172021.745606,107670.000000,1694172021.733911,-0.035586,0.016229,0.023320,-0.002175,0.001967,0.000176
1694172021.751474,107671.000000,1694172021.745120,-0.032301,0.014939,0.021780,-0.001999,0.001814,0.000165
1694172021.758637,107672.000000,1694172021.754379,-0.028313,0.013239,0.019645,-0.001775,0.001617,0.000150
1694172021.769905,107673.000000,1694172021.764376,-0.023625,0.011128,0.016796,-0.001499,0.001372,0.000129
1694172021.776766,107674.000000,1694172021.774256,-0.019149,0.009073,0.013872,-0.001228,0.001129,0.000107
1694172021.789147,107675.000000,1694172021.784149,-0.015020,0.007182,0.011040,-0.000972,0.000898,0.000086
1694172021.795914,107676.000000,1694172021.794173,-0.010580,0.005124,0.007841,-0.000691,0.000640,0.000062
1694172021.809021,107677.000000,1694172021.804077,-0.005803,0.002853,0.004312,-0.000382,0.000355,0.000035
1694172021.821293,107678.000000,1694172021.814158,-0.001459,0.000731,0.001085,-0.000097,0.000090,0.000009
1694172021.830713,107679.000000,1694172021.824548,0.000000,0.000000,0.000000,0.000000,0.000000,0.000000
1694172021.839843,107680.000000,1694172021.834069,0.000000,0.000000,0.000000,0.000000,0.000000,0.000000
1694172021.847648,107681.000000,1694172021.844804,0.000000,0.000000,0.000000,0.000000,0.000000,0.000000
1694172021.856175,107682.000000,1694172021.854432,0.000000,0.000000,0.000000,0.000000,0.000000,0.000000
1694172021.870192,107683.000000,1694172021.864162,0.000000,0.000000,0.000000,0.000000,0.000000,0.000000
1694172021.877651,107684.000000,1694172021.874027,0.000000,0.000000,0.000000,0.000000,0.000000,0.000000
1694172021.889429,107685.000000,1694172021.884015,0.000000,0.000000,0.000000,0.000000,0.000000,0.000000
1694172021.904781,107686.000000,1694172021.894013,0.000000,0.000000,0.000000,0.000000,0.000000,0.000000
1694172021.914572,107687.000000,1694172021.904120,0.000000,0.000000,0.000000,0.000000,0.000000,0.000000
1694172021.922800,107688.000000,1694172021.914034,0.000000,0.000000,0.000000,0.000000,0.000000,0.000000
1694172021.933091,107689.000000,1694172021.923947,0.000000,0.000000,0.000000,0.000000,0.000000,0.000000
1694172021.943207,107690.000000,1694172021.934157,0.000000,0.000000,0.000000,0.000000,0.000000,0.000000
1694172021.951434,107691.000000,1694172021.944077,0.000000,0.000000,0.000000,0.000000,0.000000,0.000000
1694172021.963987,107692.000000,1694172021.954046,0.000000,0.000000,0.000000,0.000000,0.000000,0.000000
1694172021.975371,107693.000000,1694172021.970803,0.000000,0.000000,0.000000,0.000000,0.000000,0.000000
1694172021.986670,107694.000000,1694172021.974057,0.000000,0.000000,0.000000,0.000000,0.000000,0.000000
1694172021.995382,107695.000000,1694172021.985278,0.000000,0.000000,0.000000,0.000000,0.000000,0.000000
1694172022.003879,107696.000000,1694172021.997238,0.000000,0.000000,0.000000,0.000000,0.000000,0.000000
1694172022.010963,107697.000000,1694172022.006260,0.000000,0.000000,0.000000,0.000000,0.000000,0.000000
1694172022.022686,107698.000000,1694172022.018338,0.000000,0.000000,0.000000,0.000000,0.000000,0.000000
1694172022.032439,107699.000000,1694172022.024230,0.000000,0.000000,0.000000,0.000000,0.000000,0.000000
1694172022.043702,107700.000000,1694172022.034375,0.000000,0.000000,0.000000,0.000000,0.000000,0.000000
1694172022.053369,107701.000000,1694172022.044194,0.000000,0.000000,0.000000,0.000000,0.000000,0.000000
1694172022.069006,107702.000000,1694172022.055163,0.000000,0.000000,0.000000,0.000000,0.000000,0.000000
1694172022.077256,107703.000000,1694172022.064081,0.000000,0.000000,0.000000,0.000000,0.000000,0.000000
1694172022.084792,107704.000000,1694172022.074149,0.000000,0.000000,0.000000,0.000000,0.000000,0.000000
1694172022.096056,107705.000000,1694172022.083884,0.000000,0.000000,0.000000,0.000000,0.000000,0.000000
1694172022.102961,107706.000000,1694172022.094047,0.000000,0.000000,0.000000,0.000000,0.000000,0.000000
1694172022.108508,107707.000000,1694172022.104178,0.000000,0.000000,0.000000,0.000000,0.000000,0.000000
1694172022.118200,107708.000000,1694172022.115683,0.000000,0.000000,0.000000,0.000000,0.000000,0.000000
1694172022.132145,107709.000000,1694172022.125352,0.000000,0.000000,0.000000,0.000000,0.000000,0.000000
1694172022.142098,107710.000000,1694172022.134047,0.000000,0.000000,0.000000,0.000000,0.000000,0.000000
1694172022.152456,107711.000000,1694172022.144115,0.000000,0.000000,0.000000,0.000000,0.000000,0.000000
1694172022.161927,107712.000000,1694172022.154655,0.000000,0.000000,0.000000,0.000000,0.000000,0.000000
1694172022.175828,107713.000000,1694172022.164065,0.000000,0.000000,0.000000,0.000000,0.000000,0.000000
1694172022.183861,107714.000000,1694172022.174251,0.000000,0.000000,0.000000,0.000000,0.000000,0.000000
1694172022.193927,107715.000000,1694172022.184005,0.000000,0.000000,0.000000,0.000000,0.000000,0.000000
1694172022.203244,107716.000000,1694172022.194132,0.000000,0.000000,0.000000,0.000000,0.000000,0.000000
1694172022.212682,107717.000000,1694172022.203976,0.000000,0.000000,0.000000,0.000000,0.000000,0.000000
1694172022.230331,107718.000000,1694172022.214142,0.000000,0.000000,0.000000,0.000000,0.000000,0.000000
1694172022.240706,107720.000000,1694172022.233986,0.000000,0.000000,0.000000,0.000000,0.000000,0.000000
1694172022.257263,107721.000000,1694172022.244156,0.000000,0.000000,0.000000,0.000000,0.000000,0.000000
1694172022.268754,107722.000000,1694172022.254349,0.000000,0.000000,0.000000,0.000000,0.000000,0.000000
1694172022.275435,107723.000000,1694172022.264141,0.000000,0.000000,0.000000,0.000000,0.000000,0.000000
1694172022.282998,107724.000000,1694172022.274000,0.000000,0.000000,0.000000,0.000000,0.000000,0.000000
1694172022.292946,107725.000000,1694172022.284046,0.000000,0.000000,0.000000,0.000000,0.000000,0.000000
1694172022.302479,107726.000000,1694172022.294004,0.000000,0.000000,0.000000,0.000000,0.000000,0.000000
1694172022.313623,107727.000000,1694172022.304205,0.000000,0.000000,0.000000,0.000000,0.000000,0.000000
1694172022.322802,107728.000000,1694172022.317058,0.000000,0.000000,0.000000,0.000000,0.000000,0.000000
1694172022.351005,107729.000000,1694172022.344168,0.000000,0.000000,0.000000,0.000000,0.000000,0.000000
1694172022.361797,107730.000000,1694172022.345935,0.000000,0.000000,0.000000,0.000000,0.000000,0.000000
1694172022.370138,107731.000000,1694172022.356015,0.000000,0.000000,0.000000,0.000000,0.000000,0.000000
1694172022.384291,107732.000000,1694172022.366879,0.000000,0.000000,0.000000,0.000000,0.000000,0.000000
1694172022.386328,107733.000000,1694172022.375498,0.000000,0.000000,0.000000,0.000000,0.000000,0.000000
1694172022.388735,107734.000000,1694172022.385506,-0.013818,0.009805,0.011189,-0.001000,0.000937,0.000086
1694172022.400385,107735.000000,1694172022.395677,-0.029148,0.021307,0.023520,-0.002085,0.001944,0.000181
1694172022.408998,107736.000000,1694172022.405409,-0.045613,0.034537,0.036865,-0.003231,0.003001,0.000284
1694172022.422677,107737.000000,1694172022.415744,-0.062282,0.048989,0.050589,-0.004383,0.004055,0.000391
1694172022.433607,107738.000000,1694172022.425745,-0.078479,0.064111,0.064127,-0.005499,0.005071,0.000499
1694172022.444973,107739.000000,1694172022.435495,-0.092933,0.078652,0.076399,-0.006496,0.005976,0.000600
1694172022.454711,107740.000000,1694172022.445424,-0.104120,0.091108,0.086233,-0.007289,0.006694,0.000688
1694172022.469925,107741.000000,1694172022.456247,-0.112565,0.101714,0.094133,-0.007920,0.007264,0.000764
1694172022.478591,107742.000000,1694172022.465525,-0.118959,0.110458,0.100395,-0.008418,0.007713,0.000832
1694172022.490526,107743.000000,1694172022.475495,-0.123223,0.116722,0.104702,-0.008763,0.008026,0.000891
1694172022.497349,107744.000000,1694172022.485627,-0.125594,0.120728,0.107192,-0.008971,0.008219,0.000941
1694172022.503724,107745.000000,1694172022.495764,-0.125947,0.122204,0.107598,-0.009030,0.008279,0.000976
1694172022.519389,107746.000000,1694172022.505486,-0.124210,0.120917,0.105932,-0.008936,0.008198,0.000991
1694172022.526680,107747.000000,1694172022.515493,-0.121289,0.117912,0.103308,-0.008751,0.008037,0.000996
1694172022.535071,107748.000000,1694172022.525410,-0.118081,0.114163,0.100713,-0.008539,0.007850,0.000995
1694172022.547823,107749.000000,1694172022.535787,-0.114537,0.109606,0.097788,-0.008289,0.007627,0.000986
1694172022.557902,107750.000000,1694172022.545493,-0.110130,0.103946,0.093852,-0.007967,0.007338,0.000963
