__time,/kms40_driver/wrench/header/seq,/kms40_driver/wrench/header/stamp,/kms40_driver/wrench/wrench/force/x,/kms40_driver/wrench/wrench/force/y,/kms40_driver/wrench/wrench/force/z,/kms40_driver/wrench/wrench/torque/x,/kms40_driver/wrench/wrench/torque/y,/kms40_driver/wrench/wrench/torque/z
1696853506.255053,4673797.000000000,1696853506.254396439,-0.052000000,-0.079000000,-0.009000000,0.000000000,-0.001000000,0.000000000
1696853506.256086,4673798.000000000,1696853506.256419659,-0.052000000,-0.077000000,-0.010000000,0.000000000,-0.001000000,0.000000000
1696853506.258300,4673799.000000000,1696853506.258489609,-0.052000000,-0.076000000,-0.011000000,0.000000000,-0.001000000,0.000000000
1696853506.260135,4673800.000000000,1696853506.260442019,-0.052000000,-0.076000000,-0.011000000,0.000000000,-0.001000000,0.000000000
1696853506.262246,4673801.000000000,1696853506.262463331,-0.052000000,-0.076000000,-0.011000000,0.000000000,-0.001000000,0.000000000
1696853506.264136,4673802.000000000,1696853506.264427423,-0.051000000,-0.076000000,-0.012000000,0.000000000,-0.001000000,0.000000000
1696853506.266100,4673803.000000000,1696853506.266426802,-0.051000000,-0.077000000,-0.014000000,0.000000000,-0.001000000,0.000000000
1696853506.268060,4673804.000000000,1696853506.268445969,-0.051000000,-0.078000000,-0.014000000,0.000000000,-0.001000000,0.000000000
1696853506.270038,4673805.000000000,1696853506.270433187,-0.051000000,-0.077000000,-0.015000000,0.000000000,-0.001000000,0.000000000
1696853506.272046,4673806.000000000,1696853506.272449255,-0.051000000,-0.077000000,-0.013000000,0.000000000,-0.001000000,0.000000000
1696853506.274216,4673807.000000000,1696853506.274425030,-0.051000000,-0.076000000,-0.013000000,0.000000000,-0.001000000,0.000000000
1696853506.276004,4673808.000000000,1696853506.276420355,-0.052000000,-0.074000000,-0.012000000,0.000000000,-0.001000000,0.000000000
1696853506.298250,4673819.000000000,1696853506.298395157,-0.056000000,-0.072000000,-0.005000000,0.000000000,-0.001000000,0.000000000
1696853506.314137,4673826.000000000,1696853506.312435627,-0.060000000,-0.071000000,0.001000000,0.000000000,-0.001000000,0.000000000
1696853506.314523,4673827.000000000,1696853506.314413071,-0.060000000,-0.072000000,0.000000000,0.000000000,-0.001000000,0.000000000
1696853506.316308,4673828.000000000,1696853506.316443920,-0.061000000,-0.072000000,0.002000000,0.000000000,-0.001000000,0.000000000
1696853506.318046,4673829.000000000,1696853506.318397999,-0.061000000,-0.072000000,0.002000000,0.000000000,-0.001000000,0.000000000
1696853506.320103,4673830.000000000,1696853506.320428848,-0.062000000,-0.071000000,0.004000000,0.000000000,-0.001000000,0.000000000
1696853506.322174,4673831.000000000,1696853506.322400570,-0.062000000,-0.070000000,0.004000000,0.000000000,-0.001000000,0.000000000
1696853506.324635,4673832.000000000,1696853506.324513197,-0.062000000,-0.069000000,0.005000000,0.000000000,-0.001000000,0.000000000
1696853506.326610,4673833.000000000,1696853506.326387644,-0.063000000,-0.068000000,0.007000000,0.000000000,-0.001000000,0.000000000
1696853506.328089,4673834.000000000,1696853506.328415155,-0.063000000,-0.068000000,0.007000000,0.000000000,-0.001000000,0.000000000
1696853506.330225,4673835.000000000,1696853506.330456257,-0.064000000,-0.068000000,0.007000000,0.000000000,-0.001000000,0.000000000
1696853506.332151,4673836.000000000,1696853506.332447767,-0.064000000,-0.069000000,0.006000000,0.000000000,-0.001000000,0.000000000
1696853506.333996,4673837.000000000,1696853506.334393263,-0.064000000,-0.070000000,0.006000000,0.000000000,-0.001000000,0.000000000
1696853506.336125,4673838.000000000,1696853506.336479187,-0.064000000,-0.071000000,0.006000000,0.000000000,-0.001000000,0.000000000
1696853506.338121,4673839.000000000,1696853506.338446140,-0.063000000,-0.071000000,0.004000000,0.000000000,-0.001000000,0.000000000
1696853506.340145,4673840.000000000,1696853506.340426207,-0.063000000,-0.071000000,0.005000000,0.000000000,-0.001000000,0.000000000
1696853506.354970,4673847.000000000,1696853506.354399204,-0.064000000,-0.068000000,0.002000000,0.000000000,-0.001000000,0.000000000
1696853506.356085,4673848.000000000,1696853506.356408119,-0.064000000,-0.069000000,0.000000000,0.000000000,-0.001000000,0.000000000
1696853506.358066,4673849.000000000,1696853506.358413219,-0.063000000,-0.070000000,0.000000000,0.000000000,-0.001000000,0.000000000
1696853506.360311,4673850.000000000,1696853506.360455275,-0.063000000,-0.071000000,-0.002000000,0.000000000,-0.001000000,0.000000000
1696853506.362406,4673851.000000000,1696853506.362422228,-0.062000000,-0.071000000,-0.004000000,0.000000000,-0.001000000,0.000000000
1696853506.364161,4673852.000000000,1696853506.364461660,-0.062000000,-0.071000000,-0.006000000,0.000000000,-0.001000000,0.000000000
1696853506.366149,4673853.000000000,1696853506.366437912,-0.061000000,-0.070000000,-0.007000000,0.000000000,-0.001000000,0.000000000
1696853506.368276,4673854.000000000,1696853506.368489981,-0.062000000,-0.069000000,-0.007000000,0.000000000,-0.001000000,0.000000000
1696853506.370548,4673855.000000000,1696853506.370543957,-0.062000000,-0.067000000,-0.008000000,0.000000000,-0.001000000,0.000000000
1696853506.372157,4673856.000000000,1696853506.372430801,-0.061000000,-0.066000000,-0.010000000,0.000000000,-0.001000000,0.000000000
1696853506.374053,4673857.000000000,1696853506.374413013,-0.061000000,-0.066000000,-0.012000000,0.000000000,-0.001000000,0.000000000
1696853506.378151,4673858.000000000,1696853506.376408815,-0.061000000,-0.067000000,-0.014000000,0.000000000,-0.001000000,0.000000000
1696853506.382895,4673861.000000000,1696853506.382404566,-0.059000000,-0.068000000,-0.024000000,0.000000000,-0.001000000,0.000000000
1696853506.396336,4673868.000000000,1696853506.396423578,-0.058000000,-0.059000000,-0.046000000,0.000000000,-0.001000000,0.000000000
1696853506.413100,4673876.000000000,1696853506.412472486,-0.055000000,-0.054000000,-0.080000000,0.000000000,-0.001000000,0.001000000
1696853506.414082,4673877.000000000,1696853506.414410591,-0.054000000,-0.052000000,-0.083000000,0.000000000,-0.001000000,0.001000000
1696853506.416048,4673878.000000000,1696853506.416425228,-0.055000000,-0.050000000,-0.087000000,0.000000000,-0.001000000,0.001000000
1696853506.418538,4673879.000000000,1696853506.418423653,-0.054000000,-0.048000000,-0.089000000,0.000000000,-0.001000000,0.001000000
1696853506.420351,4673880.000000000,1696853506.420414686,-0.054000000,-0.048000000,-0.093000000,0.000000000,-0.001000000,0.001000000
1696853506.422057,4673881.000000000,1696853506.422419310,-0.054000000,-0.047000000,-0.096000000,0.000000000,-0.001000000,0.001000000
1696853506.424037,4673882.000000000,1696853506.424421787,-0.054000000,-0.047000000,-0.098000000,0.000000000,-0.001000000,0.001000000
1696853506.426313,4673883.000000000,1696853506.426444054,-0.054000000,-0.048000000,-0.102000000,0.000000000,-0.001000000,0.001000000
1696853506.441419,4673890.000000000,1696853506.440451860,-0.054000000,-0.042000000,-0.104000000,0.000000000,-0.001000000,0.001000000
1696853506.442285,4673891.000000000,1696853506.442424536,-0.055000000,-0.041000000,-0.101000000,0.000000000,-0.001000000,0.001000000
1696853506.444052,4673892.000000000,1696853506.444458961,-0.055000000,-0.042000000,-0.100000000,0.000000000,-0.001000000,0.001000000
1696853506.445922,4673893.000000000,1696853506.446361065,-0.055000000,-0.042000000,-0.098000000,0.000000000,-0.001000000,0.001000000
1696853506.448027,4673894.000000000,1696853506.448427200,-0.055000000,-0.044000000,-0.096000000,0.000000000,-0.001000000,0.001000000
1696853506.450041,4673895.000000000,1696853506.450345993,-0.055000000,-0.045000000,-0.094000000,0.000000000,-0.001000000,0.001000000
1696853506.452212,4673896.000000000,1696853506.452401638,-0.055000000,-0.046000000,-0.090000000,0.000000000,-0.001000000,0.001000000
1696853506.454018,4673897.000000000,1696853506.454360485,-0.055000000,-0.047000000,-0.087000000,0.000000000,-0.001000000,0.001000000
1696853506.456042,4673898.000000000,1696853506.456416368,-0.055000000,-0.046000000,-0.082000000,0.000000000,-0.001000000,0.001000000
1696853506.458589,4673899.000000000,1696853506.458429813,-0.056000000,-0.046000000,-0.077000000,0.000000000,-0.001000000,0.001000000
1696853506.460114,4673900.000000000,1696853506.460446358,-0.056000000,-0.046000000,-0.071000000,0.000000000,-0.001000000,0.001000000
1696853506.462001,4673901.000000000,1696853506.462414026,-0.057000000,-0.045000000,-0.066000000,0.000000000,-0.001000000,0.000000000
1696853506.464010,4673902.000000000,1696853506.464406252,-0.057000000,-0.045000000,-0.061000000,0.000000000,-0.001000000,0.000000000
1696853506.466681,4673903.000000000,1696853506.466391563,-0.058000000,-0.046000000,-0.055000000,0.000000000,-0.001000000,0.000000000
1696853506.468158,4673904.000000000,1696853506.468465805,-0.059000000,-0.048000000,-0.051000000,0.000000000,-0.001000000,0.000000000
1696853506.480728,4673910.000000000,1696853506.480431318,-0.060000000,-0.055000000,-0.018000000,0.000000000,-0.001000000,0.000000000
1696853506.482369,4673911.000000000,1696853506.482410431,-0.061000000,-0.055000000,-0.011000000,0.000000000,-0.001000000,0.000000000
1696853506.484028,4673912.000000000,1696853506.484438896,-0.061000000,-0.055000000,-0.006000000,0.000000000,-0.001000000,0.000000000
1696853506.485997,4673913.000000000,1696853506.486412764,-0.061000000,-0.055000000,-0.001000000,0.000000000,-0.001000000,0.000000000
1696853506.488002,4673914.000000000,1696853506.488422871,-0.061000000,-0.056000000,0.002000000,0.000000000,-0.001000000,0.000000000
1696853506.490086,4673915.000000000,1696853506.490406513,-0.062000000,-0.058000000,0.006000000,0.000000000,-0.001000000,0.000000000
1696853506.492040,4673916.000000000,1696853506.492442608,-0.062000000,-0.059000000,0.010000000,0.000000000,-0.001000000,0.000000000
1696853506.494021,4673917.000000000,1696853506.494410992,-0.062000000,-0.061000000,0.014000000,0.000000000,-0.001000000,0.000000000
1696853506.496037,4673918.000000000,1696853506.496428490,-0.062000000,-0.063000000,0.016000000,0.000000000,-0.001000000,0.000000000
1696853506.498883,4673919.000000000,1696853506.498421669,-0.061000000,-0.064000000,0.019000000,0.000000000,-0.001000000,0.000000000
1696853506.500076,4673920.000000000,1696853506.500461817,-0.061000000,-0.065000000,0.022000000,0.000000000,-0.001000000,-0.001000000
1696853506.502060,4673921.000000000,1696853506.502411127,-0.061000000,-0.065000000,0.025000000,0.000000000,-0.001000000,-0.001000000
1696853506.504049,4673922.000000000,1696853506.504429579,-0.061000000,-0.064000000,0.028000000,0.000000000,-0.001000000,-0.001000000
1696853506.506269,4673923.000000000,1696853506.506428957,-0.061000000,-0.064000000,0.031000000,0.000000000,-0.001000000,-0.001000000
1696853506.508131,4673924.000000000,1696853506.508434772,-0.061000000,-0.063000000,0.033000000,0.000000000,-0.001000000,-0.001000000
1696853506.510143,4673925.000000000,1696853506.510412455,-0.061000000,-0.064000000,0.034000000,0.000000000,-0.001000000,-0.001000000
1696853506.531441,4673935.000000000,1696853506.530517340,-0.056000000,-0.068000000,0.035000000,0.000000000,-0.001000000,-0.001000000
1696853506.539780,4673939.000000000,1696853506.538452625,-0.054000000,-0.069000000,0.029000000,0.000000000,-0.001000000,-0.001000000
1696853506.546330,4673943.000000000,1696853506.546500683,-0.052000000,-0.072000000,0.022000000,0.000000000,-0.001000000,0.000000000
1696853506.548067,4673944.000000000,1696853506.548454285,-0.052000000,-0.071000000,0.021000000,0.000000000,-0.001000000,0.000000000
1696853506.550039,4673945.000000000,1696853506.550418615,-0.051000000,-0.070000000,0.020000000,0.000000000,-0.001000000,0.000000000
1696853506.552303,4673946.000000000,1696853506.552434206,-0.051000000,-0.069000000,0.019000000,0.000000000,-0.001000000,0.000000000
1696853506.554194,4673947.000000000,1696853506.554450989,-0.051000000,-0.068000000,0.017000000,0.000000000,-0.001000000,0.000000000
1696853506.573738,4673956.000000000,1696853506.572468758,-0.049000000,-0.069000000,0.003000000,0.000000000,-0.001000000,0.000000000
1696853506.574061,4673957.000000000,1696853506.574418068,-0.049000000,-0.068000000,0.002000000,0.000000000,-0.001000000,0.000000000
1696853506.576038,4673958.000000000,1696853506.576451540,-0.049000000,-0.067000000,0.002000000,0.000000000,-0.001000000,0.000000000
1696853506.578057,4673959.000000000,1696853506.578428745,-0.049000000,-0.066000000,0.001000000,0.000000000,-0.001000000,0.000000000
1696853506.580054,4673960.000000000,1696853506.580445290,-0.049000000,-0.066000000,0.001000000,0.000000000,-0.001000000,0.000000000
1696853506.582229,4673961.000000000,1696853506.582419872,-0.049000000,-0.066000000,0.000000000,0.000000000,-0.001000000,0.000000000
1696853506.584032,4673962.000000000,1696853506.584439039,-0.049000000,-0.067000000,0.000000000,0.000000000,-0.001000000,0.000000000
1696853506.586228,4673963.000000000,1696853506.586500168,-0.048000000,-0.068000000,-0.002000000,0.000000000,-0.001000000,0.000000000
1696853506.588147,4673964.000000000,1696853506.588476658,-0.048000000,-0.068000000,-0.002000000,0.000000000,-0.001000000,0.000000000
1696853506.590022,4673965.000000000,1696853506.590400457,-0.048000000,-0.068000000,-0.003000000,0.000000000,-0.001000000,0.000000000
1696853506.592100,4673966.000000000,1696853506.592493057,-0.048000000,-0.068000000,-0.001000000,0.000000000,-0.001000000,0.000000000
1696853506.594040,4673967.000000000,1696853506.594433546,-0.047000000,-0.067000000,-0.001000000,0.000000000,-0.001000000,0.000000000
1696853506.596177,4673968.000000000,1696853506.596470833,-0.047000000,-0.065000000,0.000000000,0.000000000,-0.001000000,0.000000000
1696853506.598014,4673969.000000000,1696853506.598422289,-0.047000000,-0.064000000,0.001000000,0.000000000,-0.001000000,0.000000000
1696853506.613592,4673976.000000000,1696853506.612435341,-0.047000000,-0.064000000,0.006000000,0.000000000,-0.001000000,0.000000000
1696853506.614004,4673977.000000000,1696853506.614419699,-0.047000000,-0.064000000,0.006000000,0.000000000,-0.001000000,0.000000000
1696853506.616039,4673978.000000000,1696853506.616441488,-0.048000000,-0.063000000,0.009000000,0.000000000,-0.001000000,0.000000000
1696853506.618342,4673979.000000000,1696853506.618460894,-0.048000000,-0.062000000,0.011000000,0.000000000,-0.001000000,0.000000000
1696853506.620114,4673980.000000000,1696853506.620469332,-0.048000000,-0.061000000,0.013000000,0.000000000,-0.001000000,0.000000000
1696853506.621992,4673981.000000000,1696853506.622412682,-0.048000000,-0.060000000,0.014000000,0.000000000,-0.001000000,0.000000000
1696853506.624059,4673982.000000000,1696853506.624459267,-0.048000000,-0.059000000,0.015000000,0.000000000,-0.001000000,0.000000000
1696853506.626740,4673983.000000000,1696853506.626462936,-0.049000000,-0.059000000,0.017000000,0.000000000,-0.001000000,0.000000000
1696853506.628060,4673984.000000000,1696853506.628442764,-0.049000000,-0.059000000,0.017000000,0.000000000,-0.001000000,0.000000000
1696853506.630028,4673985.000000000,1696853506.630420685,-0.049000000,-0.060000000,0.018000000,0.000000000,-0.001000000,0.000000000
1696853506.632110,4673986.000000000,1696853506.632506132,-0.049000000,-0.061000000,0.019000000,0.000000000,-0.001000000,0.000000000
1696853506.634632,4673987.000000000,1696853506.634407282,-0.049000000,-0.062000000,0.020000000,0.000000000,-0.001000000,0.000000000
1696853506.636054,4673988.000000000,1696853506.636443138,-0.049000000,-0.062000000,0.021000000,0.000000000,-0.001000000,0.000000000
1696853506.638008,4673989.000000000,1696853506.638420582,-0.049000000,-0.061000000,0.022000000,0.000000000,-0.001000000,0.000000000
1696853506.640158,4673990.000000000,1696853506.640437841,-0.050000000,-0.060000000,0.024000000,0.000000000,-0.001000000,0.000000000
1696853506.661752,4674000.000000000,1696853506.660436392,-0.053000000,-0.060000000,0.024000000,0.000000000,-0.001000000,0.000000000
1696853506.668872,4674004.000000000,1696853506.668473482,-0.055000000,-0.055000000,0.021000000,0.000000000,-0.001000000,0.000000000
1696853506.679443,4674009.000000000,1696853506.678432941,-0.056000000,-0.055000000,0.006000000,0.000000000,-0.001000000,0.000000000
1696853506.705583,4674022.000000000,1696853506.704452753,-0.056000000,-0.041000000,-0.048000000,0.000000000,-0.001000000,0.000000000
1696853506.713178,4674026.000000000,1696853506.712453604,-0.056000000,-0.034000000,-0.064000000,0.000000000,-0.001000000,0.001000000
1696853506.714056,4674027.000000000,1696853506.714438438,-0.057000000,-0.032000000,-0.066000000,0.000000000,-0.001000000,0.001000000
1696853506.716041,4674028.000000000,1696853506.716462612,-0.057000000,-0.032000000,-0.070000000,0.000000000,-0.001000000,0.001000000
1696853506.718187,4674029.000000000,1696853506.718559504,-0.057000000,-0.031000000,-0.072000000,0.000000000,-0.001000000,0.001000000
1696853506.720247,4674030.000000000,1696853506.720618725,-0.057000000,-0.032000000,-0.076000000,0.000000000,-0.001000000,0.001000000
1696853506.723276,4674031.000000000,1696853506.722439766,-0.056000000,-0.032000000,-0.080000000,0.000000000,-0.001000000,0.001000000
1696853506.724015,4674032.000000000,1696853506.724448204,-0.056000000,-0.033000000,-0.082000000,0.000000000,-0.001000000,0.001000000
1696853506.726019,4674033.000000000,1696853506.726438761,-0.056000000,-0.033000000,-0.084000000,0.000000000,-0.001000000,0.001000000
1696853506.728043,4674034.000000000,1696853506.728454351,-0.056000000,-0.033000000,-0.084000000,0.000000000,0.000000000,0.001000000
1696853506.730845,4674035.000000000,1696853506.730463982,-0.056000000,-0.032000000,-0.085000000,0.000000000,0.000000000,0.001000000
1696853506.732311,4674036.000000000,1696853506.732455254,-0.055000000,-0.032000000,-0.085000000,0.000000000,0.000000000,0.001000000
1696853506.734020,4674037.000000000,1696853506.734427452,-0.056000000,-0.031000000,-0.083000000,0.000000000,0.000000000,0.001000000
1696853506.736077,4674038.000000000,1696853506.736444235,-0.055000000,-0.030000000,-0.082000000,0.000000000,0.000000000,0.001000000
1696853506.738120,4674039.000000000,1696853506.738426208,-0.056000000,-0.030000000,-0.081000000,0.000000000,0.000000000,0.001000000
1696853506.740087,4674040.000000000,1696853506.740455151,-0.055000000,-0.031000000,-0.080000000,0.000000000,-0.001000000,0.001000000
1696853506.742129,4674041.000000000,1696853506.742461920,-0.055000000,-0.033000000,-0.079000000,0.000000000,-0.001000000,0.001000000
1696853506.744050,4674042.000000000,1696853506.744450092,-0.055000000,-0.035000000,-0.077000000,0.000000000,0.000000000,0.001000000
1696853506.754407,4674047.000000000,1696853506.754443407,-0.053000000,-0.041000000,-0.061000000,0.000000000,0.000000000,0.000000000
1696853506.766893,4674053.000000000,1696853506.766438961,-0.053000000,-0.048000000,-0.036000000,0.000000000,-0.001000000,0.000000000
1696853506.774922,4674057.000000000,1696853506.774429321,-0.052000000,-0.056000000,-0.021000000,0.000000000,-0.001000000,0.000000000
1696853506.779122,4674059.000000000,1696853506.778417110,-0.052000000,-0.057000000,-0.012000000,0.000000000,-0.001000000,0.000000000
1696853506.780042,4674060.000000000,1696853506.780448437,-0.052000000,-0.057000000,-0.008000000,0.000000000,-0.001000000,0.000000000
1696853506.782045,4674061.000000000,1696853506.782434702,-0.052000000,-0.057000000,-0.004000000,0.000000000,-0.001000000,0.000000000
1696853506.784024,4674062.000000000,1696853506.784453154,-0.053000000,-0.057000000,0.000000000,0.000000000,-0.001000000,0.000000000
1696853506.786163,4674063.000000000,1696853506.786475658,-0.053000000,-0.059000000,0.002000000,0.000000000,-0.001000000,0.000000000
1696853506.788099,4674064.000000000,1696853506.788440943,-0.053000000,-0.060000000,0.004000000,0.000000000,-0.001000000,0.000000000
1696853506.790024,4674065.000000000,1696853506.790431261,-0.053000000,-0.062000000,0.006000000,0.000000000,-0.001000000,0.000000000
1696853506.792111,4674066.000000000,1696853506.792465925,-0.053000000,-0.064000000,0.009000000,0.000000000,-0.001000000,0.000000000
1696853506.795838,4674067.000000000,1696853506.794425964,-0.053000000,-0.065000000,0.010000000,0.000000000,-0.001000000,0.000000000
1696853506.796057,4674068.000000000,1696853506.796462536,-0.053000000,-0.066000000,0.012000000,0.000000000,-0.001000000,0.000000000
1696853506.798019,4674069.000000000,1696853506.798434019,-0.053000000,-0.066000000,0.014000000,0.000000000,-0.001000000,0.000000000
1696853506.800058,4674070.000000000,1696853506.800467253,-0.053000000,-0.065000000,0.017000000,0.000000000,-0.001000000,0.000000000
1696853506.802166,4674071.000000000,1696853506.802462101,-0.054000000,-0.064000000,0.019000000,0.000000000,-0.001000000,0.000000000
1696853506.804075,4674072.000000000,1696853506.804477453,-0.054000000,-0.064000000,0.021000000,0.000000000,-0.001000000,0.000000000
1696853506.806065,4674073.000000000,1696853506.806431770,-0.054000000,-0.063000000,0.023000000,0.000000000,-0.001000000,0.000000000
1696853506.808099,4674074.000000000,1696853506.808491468,-0.055000000,-0.064000000,0.023000000,0.000000000,-0.001000000,0.000000000
1696853506.810329,4674075.000000000,1696853506.810434818,-0.055000000,-0.064000000,0.024000000,0.000000000,-0.001000000,0.000000000
1696853506.822926,4674081.000000000,1696853506.822432280,-0.055000000,-0.067000000,0.027000000,0.000000000,-0.001000000,-0.001000000
1696853506.824223,4674082.000000000,1696853506.824465513,-0.056000000,-0.066000000,0.027000000,0.000000000,-0.001000000,0.000000000
1696853506.826222,4674083.000000000,1696853506.826441526,-0.056000000,-0.065000000,0.028000000,0.000000000,-0.001000000,0.000000000
1696853506.828042,4674084.000000000,1696853506.828466415,-0.057000000,-0.064000000,0.028000000,0.000000000,-0.001000000,0.000000000
1696853506.830050,4674085.000000000,1696853506.830468178,-0.057000000,-0.063000000,0.029000000,0.000000000,-0.001000000,0.000000000
1696853506.832191,4674086.000000000,1696853506.832566261,-0.057000000,-0.064000000,0.028000000,0.000000000,-0.001000000,0.000000000
1696853506.834268,4674087.000000000,1696853506.834431648,-0.057000000,-0.065000000,0.028000000,0.000000000,-0.001000000,0.000000000
1696853506.836085,4674088.000000000,1696853506.836461306,-0.057000000,-0.066000000,0.027000000,0.000000000,-0.001000000,0.000000000
1696853506.838112,4674089.000000000,1696853506.838436127,-0.056000000,-0.067000000,0.026000000,0.000000000,-0.001000000,0.000000000
1696853506.840061,4674090.000000000,1696853506.840454340,-0.056000000,-0.068000000,0.025000000,0.000000000,-0.001000000,0.000000000
1696853506.842114,4674091.000000000,1696853506.842477083,-0.056000000,-0.067000000,0.025000000,0.000000000,-0.001000000,0.000000000
1696853506.844072,4674092.000000000,1696853506.844468117,-0.056000000,-0.067000000,0.025000000,0.000000000,-0.001000000,0.000000000
1696853506.846071,4674093.000000000,1696853506.846441746,-0.056000000,-0.066000000,0.025000000,0.000000000,-0.001000000,0.000000000
1696853506.848118,4674094.000000000,1696853506.848477125,-0.056000000,-0.065000000,0.025000000,0.000000000,-0.001000000,0.000000000
1696853506.850351,4674095.000000000,1696853506.850452662,-0.056000000,-0.064000000,0.025000000,0.000000000,-0.001000000,0.000000000
1696853506.852391,4674096.000000000,1696853506.852698326,-0.056000000,-0.063000000,0.025000000,0.000000000,-0.001000000,0.000000000
1696853506.854066,4674097.000000000,1696853506.854444265,-0.057000000,-0.063000000,0.025000000,0.000000000,-0.001000000,0.000000000
1696853506.867511,4674103.000000000,1696853506.866435051,-0.055000000,-0.067000000,0.020000000,0.000000000,-0.001000000,0.000000000
1696853506.868060,4674104.000000000,1696853506.868422747,-0.055000000,-0.066000000,0.020000000,0.000000000,-0.001000000,0.000000000
1696853506.869978,4674105.000000000,1696853506.870398521,-0.055000000,-0.065000000,0.021000000,0.000000000,-0.001000000,0.000000000
1696853506.872184,4674106.000000000,1696853506.872515440,-0.055000000,-0.064000000,0.021000000,0.000000000,-0.001000000,0.000000000
1696853506.874641,4674107.000000000,1696853506.874492407,-0.055000000,-0.063000000,0.021000000,0.000000000,-0.001000000,0.000000000
1696853506.876082,4674108.000000000,1696853506.876478910,-0.056000000,-0.064000000,0.021000000,0.000000000,-0.001000000,0.000000000
1696853506.878036,4674109.000000000,1696853506.878436089,-0.055000000,-0.064000000,0.019000000,0.000000000,-0.001000000,0.000000000
1696853506.880064,4674110.000000000,1696853506.880453348,-0.055000000,-0.065000000,0.019000000,0.000000000,-0.001000000,0.000000000
1696853506.882284,4674111.000000000,1696853506.882480145,-0.055000000,-0.066000000,0.018000000,0.000000000,-0.001000000,0.000000000
1696853506.884121,4674112.000000000,1696853506.884491444,-0.055000000,-0.067000000,0.018000000,0.000000000,-0.001000000,0.000000000
1696853506.886019,4674113.000000000,1696853506.886440992,-0.054000000,-0.068000000,0.018000000,0.000000000,-0.001000000,0.000000000
1696853506.888090,4674114.000000000,1696853506.888483763,-0.055000000,-0.067000000,0.017000000,0.000000000,-0.001000000,0.000000000
1696853506.890389,4674115.000000000,1696853506.890438557,-0.055000000,-0.067000000,0.019000000,0.000000000,-0.001000000,0.000000000
1696853506.892273,4674116.000000000,1696853506.892602682,-0.055000000,-0.066000000,0.020000000,0.000000000,-0.001000000,0.000000000
1696853506.894334,4674117.000000000,1696853506.894578695,-0.055000000,-0.065000000,0.020000000,0.000000000,-0.001000000,0.000000000
1696853506.896155,4674118.000000000,1696853506.896533489,-0.055000000,-0.064000000,0.021000000,0.000000000,-0.001000000,0.000000000
1696853506.898423,4674119.000000000,1696853506.898550987,-0.056000000,-0.063000000,0.022000000,0.000000000,-0.001000000,0.000000000
1696853506.915696,4674127.000000000,1696853506.914409637,-0.055000000,-0.065000000,0.023000000,0.000000000,-0.001000000,0.000000000
1696853506.917369,4674128.000000000,1696853506.916483641,-0.055000000,-0.064000000,0.024000000,0.000000000,-0.001000000,0.000000000
1696853506.929334,4674134.000000000,1696853506.928461313,-0.055000000,-0.065000000,0.025000000,0.000000000,-0.001000000,-0.001000000
1696853506.930685,4674135.000000000,1696853506.930491209,-0.055000000,-0.066000000,0.026000000,0.000000000,-0.001000000,-0.001000000
1696853506.932088,4674136.000000000,1696853506.932483673,-0.055000000,-0.066000000,0.025000000,0.000000000,-0.001000000,-0.001000000
1696853506.934065,4674137.000000000,1696853506.934450150,-0.055000000,-0.066000000,0.025000000,0.000000000,-0.001000000,-0.001000000
1696853506.936203,4674138.000000000,1696853506.936533928,-0.055000000,-0.065000000,0.026000000,0.000000000,-0.001000000,-0.001000000
1696853506.938228,4674139.000000000,1696853506.938581228,-0.055000000,-0.064000000,0.027000000,0.000000000,-0.001000000,-0.001000000
1696853506.940173,4674140.000000000,1696853506.940520763,-0.056000000,-0.063000000,0.028000000,0.000000000,-0.001000000,-0.001000000
1696853506.953750,4674146.000000000,1696853506.952467680,-0.055000000,-0.066000000,0.025000000,0.000000000,-0.001000000,-0.001000000
1696853506.954105,4674147.000000000,1696853506.954459667,-0.056000000,-0.066000000,0.026000000,0.000000000,-0.001000000,-0.001000000
1696853506.956114,4674148.000000000,1696853506.956519365,-0.056000000,-0.066000000,0.025000000,0.000000000,-0.001000000,-0.001000000
1696853506.958079,4674149.000000000,1696853506.958438873,-0.056000000,-0.066000000,0.024000000,0.000000000,-0.001000000,-0.001000000
1696853506.960061,4674150.000000000,1696853506.960464954,-0.056000000,-0.065000000,0.024000000,0.000000000,-0.001000000,-0.001000000
1696853506.962221,4674151.000000000,1696853506.962615252,-0.057000000,-0.063000000,0.024000000,0.000000000,-0.001000000,-0.001000000
1696853506.964049,4674152.000000000,1696853506.964466333,-0.057000000,-0.062000000,0.023000000,0.000000000,-0.001000000,-0.001000000
1696853506.966205,4674153.000000000,1696853506.966481924,-0.057000000,-0.062000000,0.022000000,0.000000000,-0.001000000,-0.001000000
1696853506.968136,4674154.000000000,1696853506.968489647,-0.058000000,-0.061000000,0.022000000,0.000000000,-0.001000000,-0.001000000
1696853506.970285,4674155.000000000,1696853506.970463037,-0.059000000,-0.061000000,0.020000000,0.000000000,-0.001000000,-0.001000000
1696853506.972117,4674156.000000000,1696853506.972487926,-0.059000000,-0.062000000,0.018000000,0.000000000,-0.001000000,0.000000000
1696853506.974303,4674157.000000000,1696853506.974495411,-0.060000000,-0.062000000,0.016000000,0.000000000,-0.001000000,0.000000000
1696853506.976064,4674158.000000000,1696853506.976461172,-0.060000000,-0.062000000,0.014000000,0.000000000,-0.001000000,0.000000000
1696853506.978115,4674159.000000000,1696853506.978454590,-0.060000000,-0.062000000,0.012000000,0.000000000,-0.001000000,0.000000000
1696853506.981626,4674160.000000000,1696853506.981693983,-0.061000000,-0.060000000,0.011000000,0.000000000,-0.001000000,0.000000000
1696853506.992178,4674166.000000000,1696853506.992454767,-0.066000000,-0.050000000,-0.001000000,0.000000000,-0.001000000,0.000000000
1696853506.999681,4674169.000000000,1696853506.998444319,-0.068000000,-0.049000000,-0.010000000,0.000000000,-0.001000000,0.000000000
1696853507.000102,4674170.000000000,1696853507.000487089,-0.069000000,-0.047000000,-0.013000000,0.000000000,-0.001000000,0.000000000
1696853507.002226,4674171.000000000,1696853507.002605915,-0.070000000,-0.046000000,-0.015000000,0.000000000,-0.001000000,0.000000000
1696853507.004092,4674172.000000000,1696853507.004498005,-0.071000000,-0.044000000,-0.017000000,0.000000000,-0.001000000,0.000000000
1696853507.006630,4674173.000000000,1696853507.006486416,-0.072000000,-0.042000000,-0.018000000,0.000000000,-0.001000000,0.000000000
1696853507.008204,4674174.000000000,1696853507.008471727,-0.073000000,-0.039000000,-0.020000000,0.000000000,-0.001000000,0.000000000
1696853507.011123,4674175.000000000,1696853507.010443687,-0.074000000,-0.037000000,-0.022000000,0.000000000,-0.001000000,0.000000000
1696853507.012105,4674176.000000000,1696853507.012475967,-0.075000000,-0.035000000,-0.023000000,0.000000000,-0.001000000,0.000000000
1696853507.016097,4674177.000000000,1696853507.014444351,-0.075000000,-0.034000000,-0.025000000,0.000000000,-0.001000000,0.000000000
1696853507.018346,4674178.000000000,1696853507.016470194,-0.076000000,-0.034000000,-0.027000000,0.000000000,0.000000000,0.000000000
1696853507.018842,4674179.000000000,1696853507.018457651,-0.076000000,-0.034000000,-0.029000000,0.000000000,0.000000000,0.000000000
1696853507.022574,4674180.000000000,1696853507.020506144,-0.077000000,-0.034000000,-0.031000000,0.000000000,0.000000000,0.000000000
1696853507.024385,4674181.000000000,1696853507.022432327,-0.077000000,-0.034000000,-0.032000000,0.000000000,0.000000000,0.000000000
1696853507.025534,4674182.000000000,1696853507.024500847,-0.077000000,-0.034000000,-0.032000000,0.000000000,0.000000000,0.000000000
1696853507.028236,4674183.000000000,1696853507.026594400,-0.077000000,-0.033000000,-0.032000000,0.000000000,0.000000000,0.000000000
1696853507.028402,4674184.000000000,1696853507.028563976,-0.078000000,-0.032000000,-0.031000000,0.000000000,0.000000000,0.000000000
1696853507.030103,4674185.000000000,1696853507.030468941,-0.078000000,-0.030000000,-0.029000000,0.000000000,0.000000000,0.000000000
1696853507.032079,4674186.000000000,1696853507.032474041,-0.079000000,-0.029000000,-0.028000000,0.000000000,0.000000000,0.000000000
1696853507.047243,4674193.000000000,1696853507.046442747,-0.077000000,-0.036000000,-0.019000000,0.000000000,-0.001000000,0.000000000
1696853507.055053,4674197.000000000,1696853507.054430008,-0.076000000,-0.038000000,-0.006000000,0.000000000,-0.001000000,0.000000000
1696853507.062803,4674201.000000000,1696853507.062442303,-0.074000000,-0.043000000,0.004000000,0.000000000,-0.001000000,0.000000000
1696853507.064266,4674202.000000000,1696853507.064498901,-0.074000000,-0.045000000,0.008000000,0.000000000,-0.001000000,0.000000000
1696853507.067104,4674203.000000000,1696853507.066436529,-0.073000000,-0.047000000,0.009000000,0.000000000,-0.001000000,0.000000000
1696853507.068181,4674204.000000000,1696853507.068508863,-0.072000000,-0.049000000,0.011000000,0.000000000,-0.001000000,0.000000000
1696853507.070180,4674205.000000000,1696853507.070438623,-0.072000000,-0.050000000,0.013000000,0.000000000,-0.001000000,0.000000000
1696853507.072342,4674206.000000000,1696853507.072645426,-0.071000000,-0.051000000,0.015000000,0.000000000,-0.001000000,0.000000000
1696853507.074469,4674207.000000000,1696853507.074494123,-0.071000000,-0.051000000,0.018000000,0.000000000,-0.001000000,0.000000000
1696853507.076186,4674208.000000000,1696853507.076477289,-0.070000000,-0.051000000,0.020000000,0.000000000,-0.001000000,0.000000000
1696853507.078089,4674209.000000000,1696853507.078449965,-0.070000000,-0.050000000,0.022000000,0.000000000,-0.001000000,-0.001000000
1696853507.080124,4674210.000000000,1696853507.080487251,-0.070000000,-0.051000000,0.023000000,0.000000000,-0.001000000,-0.001000000
1696853507.082770,4674211.000000000,1696853507.082465887,-0.070000000,-0.052000000,0.025000000,0.000000000,-0.001000000,-0.001000000
1696853507.084107,4674212.000000000,1696853507.084495306,-0.069000000,-0.053000000,0.025000000,0.000000000,-0.001000000,-0.001000000
1696853507.086120,4674213.000000000,1696853507.086448193,-0.068000000,-0.055000000,0.025000000,0.000000000,-0.001000000,-0.001000000
1696853507.088152,4674214.000000000,1696853507.088482857,-0.068000000,-0.056000000,0.025000000,0.000000000,-0.001000000,-0.001000000
1696853507.090207,4674215.000000000,1696853507.090455055,-0.067000000,-0.057000000,0.025000000,0.000000000,-0.001000000,-0.001000000
1696853507.092352,4674216.000000000,1696853507.092491627,-0.067000000,-0.058000000,0.025000000,0.000000000,-0.001000000,-0.001000000
1696853507.094266,4674217.000000000,1696853507.094495296,-0.066000000,-0.058000000,0.025000000,0.000000000,-0.001000000,-0.001000000
1696853507.096128,4674218.000000000,1696853507.096479416,-0.066000000,-0.058000000,0.025000000,0.000000000,-0.001000000,-0.001000000
1696853507.098348,4674219.000000000,1696853507.098469973,-0.066000000,-0.057000000,0.025000000,0.000000000,-0.001000000,-0.001000000
1696853507.100148,4674220.000000000,1696853507.100478411,-0.066000000,-0.056000000,0.026000000,0.000000000,-0.001000000,-0.001000000
1696853507.102083,4674221.000000000,1696853507.102442503,-0.066000000,-0.055000000,0.025000000,0.000000000,-0.001000000,-0.001000000
1696853507.104185,4674222.000000000,1696853507.104488373,-0.066000000,-0.055000000,0.024000000,0.000000000,-0.001000000,-0.001000000
1696853507.106341,4674223.000000000,1696853507.106529474,-0.066000000,-0.055000000,0.023000000,0.000000000,-0.001000000,-0.001000000
1696853507.108180,4674224.000000000,1696853507.108479023,-0.066000000,-0.056000000,0.022000000,0.000000000,-0.001000000,-0.001000000
1696853507.110538,4674225.000000000,1696853507.110444546,-0.065000000,-0.058000000,0.020000000,0.000000000,-0.001000000,-0.001000000
1696853507.112153,4674226.000000000,1696853507.112472296,-0.065000000,-0.058000000,0.019000000,0.000000000,-0.001000000,-0.001000000
1696853507.114276,4674227.000000000,1696853507.114484072,-0.065000000,-0.059000000,0.019000000,0.000000000,-0.001000000,-0.001000000
1696853507.116188,4674228.000000000,1696853507.116503000,-0.065000000,-0.059000000,0.017000000,0.000000000,-0.001000000,0.000000000
1696853507.118161,4674229.000000000,1696853507.118457079,-0.065000000,-0.058000000,0.017000000,0.000000000,-0.001000000,0.000000000
1696853507.120246,4674230.000000000,1696853507.120485306,-0.065000000,-0.057000000,0.015000000,0.000000000,-0.001000000,0.000000000
1696853507.122153,4674231.000000000,1696853507.122429132,-0.065000000,-0.057000000,0.016000000,0.000000000,-0.001000000,0.000000000
1696853507.124156,4674232.000000000,1696853507.124465942,-0.065000000,-0.056000000,0.015000000,0.000000000,-0.001000000,0.000000000
1696853507.126133,4674233.000000000,1696853507.126450777,-0.065000000,-0.056000000,0.014000000,0.000000000,-0.001000000,0.000000000
1696853507.128213,4674234.000000000,1696853507.128530025,-0.065000000,-0.056000000,0.013000000,0.000000000,-0.001000000,0.000000000
1696853507.130468,4674235.000000000,1696853507.130461693,-0.065000000,-0.057000000,0.012000000,0.000000000,-0.001000000,0.000000000
1696853507.132173,4674236.000000000,1696853507.132471085,-0.064000000,-0.058000000,0.010000000,0.000000000,-0.001000000,0.000000000
1696853507.134629,4674237.000000000,1696853507.134455919,-0.064000000,-0.059000000,0.010000000,0.000000000,-0.001000000,0.000000000
1696853507.136163,4674238.000000000,1696853507.136460781,-0.064000000,-0.060000000,0.008000000,0.000000000,-0.001000000,0.000000000
1696853507.138260,4674239.000000000,1696853507.138488531,-0.064000000,-0.061000000,0.008000000,0.000000000,-0.001000000,0.000000000
1696853507.140241,4674240.000000000,1696853507.140471697,-0.064000000,-0.061000000,0.008000000,0.000000000,-0.001000000,0.000000000
1696853507.142882,4674241.000000000,1696853507.142583847,-0.063000000,-0.061000000,0.007000000,0.000000000,-0.001000000,0.000000000
1696853507.144170,4674242.000000000,1696853507.144518614,-0.063000000,-0.060000000,0.008000000,0.000000000,-0.001000000,0.000000000
1696853507.146262,4674243.000000000,1696853507.146501780,-0.063000000,-0.059000000,0.008000000,0.000000000,-0.001000000,0.000000000
1696853507.148128,4674244.000000000,1696853507.148487568,-0.063000000,-0.059000000,0.008000000,0.000000000,-0.001000000,0.000000000
1696853507.150128,4674245.000000000,1696853507.150462151,-0.063000000,-0.059000000,0.008000000,0.000000000,-0.001000000,0.000000000
1696853507.152687,4674246.000000000,1696853507.152572870,-0.063000000,-0.060000000,0.007000000,0.000000000,-0.001000000,0.000000000
1696853507.154253,4674247.000000000,1696853507.154475927,-0.063000000,-0.061000000,0.007000000,0.000000000,-0.001000000,0.000000000
1696853507.156162,4674248.000000000,1696853507.156470060,-0.062000000,-0.063000000,0.006000000,0.000000000,-0.001000000,0.000000000
1696853507.158354,4674249.000000000,1696853507.158451796,-0.062000000,-0.064000000,0.005000000,0.000000000,-0.001000000,0.000000000
1696853507.160161,4674250.000000000,1696853507.160501957,-0.062000000,-0.065000000,0.005000000,0.000000000,-0.001000000,0.000000000
1696853507.162812,4674251.000000000,1696853507.162452698,-0.061000000,-0.065000000,0.004000000,0.000000000,-0.001000000,0.000000000
1696853507.164170,4674252.000000000,1696853507.164476633,-0.061000000,-0.065000000,0.006000000,0.000000000,-0.001000000,0.000000000
1696853507.166144,4674253.000000000,1696853507.166453362,-0.061000000,-0.065000000,0.007000000,0.000000000,-0.001000000,0.000000000
1696853507.168236,4674254.000000000,1696853507.168482065,-0.061000000,-0.063000000,0.008000000,0.000000000,-0.001000000,0.000000000
1696853507.170215,4674255.000000000,1696853507.170465469,-0.061000000,-0.063000000,0.008000000,0.000000000,-0.001000000,0.000000000
1696853507.172235,4674256.000000000,1696853507.172554493,-0.061000000,-0.063000000,0.009000000,0.000000000,-0.001000000,0.000000000
1696853507.174140,4674257.000000000,1696853507.174449682,-0.061000000,-0.063000000,0.009000000,0.000000000,-0.001000000,0.000000000
1696853507.176095,4674258.000000000,1696853507.176469326,-0.061000000,-0.065000000,0.010000000,0.000000000,-0.001000000,0.000000000
1696853507.178452,4674259.000000000,1696853507.178450584,-0.061000000,-0.066000000,0.010000000,0.000000000,-0.001000000,0.000000000
1696853507.180079,4674260.000000000,1696853507.180470228,-0.060000000,-0.067000000,0.009000000,0.000000000,-0.001000000,0.000000000
1696853507.182262,4674261.000000000,1696853507.182590008,-0.060000000,-0.068000000,0.011000000,0.000000000,-0.001000000,0.000000000
1696853507.184275,4674262.000000000,1696853507.184490204,-0.060000000,-0.068000000,0.011000000,0.000000000,-0.001000000,0.000000000
1696853507.186665,4674263.000000000,1696853507.186513186,-0.060000000,-0.068000000,0.013000000,0.000000000,-0.001000000,0.000000000
1696853507.188111,4674264.000000000,1696853507.188474655,-0.060000000,-0.067000000,0.014000000,0.000000000,-0.001000000,0.000000000
1696853507.190244,4674265.000000000,1696853507.190443993,-0.060000000,-0.066000000,0.016000000,0.000000000,-0.001000000,0.000000000
1696853507.192193,4674266.000000000,1696853507.192520380,-0.060000000,-0.066000000,0.017000000,0.000000000,-0.001000000,0.000000000
1696853507.194234,4674267.000000000,1696853507.194450140,-0.060000000,-0.065000000,0.019000000,0.000000000,-0.001000000,0.000000000
1696853507.196185,4674268.000000000,1696853507.196466684,-0.060000000,-0.065000000,0.020000000,0.000000000,-0.001000000,0.000000000
1696853507.198093,4674269.000000000,1696853507.198419094,-0.060000000,-0.066000000,0.021000000,0.000000000,-0.001000000,0.000000000
1696853507.200142,4674270.000000000,1696853507.200495005,-0.060000000,-0.067000000,0.022000000,0.000000000,-0.001000000,0.000000000
1696853507.202311,4674271.000000000,1696853507.202467442,-0.061000000,-0.068000000,0.023000000,0.000000000,-0.001000000,0.000000000
1696853507.204206,4674272.000000000,1696853507.204534054,-0.060000000,-0.069000000,0.022000000,0.000000000,-0.001000000,0.000000000
1696853507.206147,4674273.000000000,1696853507.206448078,-0.060000000,-0.069000000,0.024000000,0.000000000,-0.001000000,-0.001000000
1696853507.208053,4674274.000000000,1696853507.208470821,-0.060000000,-0.069000000,0.025000000,0.000000000,-0.001000000,-0.001000000
1696853507.210121,4674275.000000000,1696853507.210432529,-0.060000000,-0.068000000,0.027000000,0.000000000,-0.001000000,-0.001000000
1696853507.212261,4674276.000000000,1696853507.212489843,-0.060000000,-0.067000000,0.029000000,0.000000000,-0.001000000,-0.001000000
1696853507.214069,4674277.000000000,1696853507.214403629,-0.060000000,-0.066000000,0.030000000,0.000000000,-0.001000000,-0.001000000
1696853507.216126,4674278.000000000,1696853507.216468334,-0.060000000,-0.065000000,0.031000000,0.000000000,-0.001000000,-0.001000000
1696853507.218426,4674279.000000000,1696853507.218451977,-0.060000000,-0.065000000,0.032000000,0.000000000,-0.001000000,-0.001000000
1696853507.220217,4674280.000000000,1696853507.220497608,-0.060000000,-0.065000000,0.033000000,0.000000000,-0.001000000,-0.001000000
1696853507.222136,4674281.000000000,1696853507.222455263,-0.060000000,-0.066000000,0.032000000,0.000000000,-0.001000000,-0.001000000
1696853507.224188,4674282.000000000,1696853507.224498034,-0.060000000,-0.067000000,0.033000000,0.000000000,-0.001000000,-0.001000000
1696853507.226960,4674283.000000000,1696853507.226508141,-0.059000000,-0.067000000,0.033000000,0.000000000,-0.001000000,-0.001000000
1696853507.228215,4674284.000000000,1696853507.228498936,-0.059000000,-0.068000000,0.033000000,0.000000000,-0.001000000,-0.001000000
1696853507.230595,4674285.000000000,1696853507.230461597,-0.059000000,-0.068000000,0.034000000,0.000000000,-0.001000000,-0.001000000
1696853507.232815,4674286.000000000,1696853507.232559681,-0.058000000,-0.067000000,0.034000000,0.000000000,-0.001000000,-0.001000000
1696853507.234303,4674287.000000000,1696853507.234470844,-0.058000000,-0.066000000,0.036000000,0.000000000,-0.001000000,-0.001000000
1696853507.236108,4674288.000000000,1696853507.236483097,-0.058000000,-0.065000000,0.036000000,0.000000000,-0.001000000,-0.001000000
1696853507.238086,4674289.000000000,1696853507.238457203,-0.058000000,-0.064000000,0.037000000,0.000000000,-0.001000000,-0.001000000
1696853507.240154,4674290.000000000,1696853507.240462780,-0.058000000,-0.063000000,0.037000000,0.000000000,-0.001000000,-0.001000000
1696853507.242094,4674291.000000000,1696853507.242482185,-0.058000000,-0.063000000,0.036000000,0.000000000,-0.001000000,-0.001000000
1696853507.244125,4674292.000000000,1696853507.244467020,-0.057000000,-0.063000000,0.035000000,0.000000000,-0.001000000,-0.001000000
1696853507.246094,4674293.000000000,1696853507.246438980,-0.057000000,-0.064000000,0.033000000,0.000000000,-0.001000000,-0.001000000
1696853507.248168,4674294.000000000,1696853507.248507500,-0.056000000,-0.064000000,0.032000000,0.000000000,-0.001000000,-0.001000000
1696853507.250232,4674295.000000000,1696853507.250452995,-0.056000000,-0.064000000,0.031000000,0.000000000,-0.001000000,-0.001000000
1696853507.252087,4674296.000000000,1696853507.252474308,-0.056000000,-0.064000000,0.029000000,0.000000000,-0.001000000,-0.001000000
1696853507.254074,4674297.000000000,1696853507.254456282,-0.055000000,-0.063000000,0.029000000,0.000000000,-0.001000000,-0.001000000
1696853507.256154,4674298.000000000,1696853507.256472349,-0.055000000,-0.061000000,0.027000000,0.000000000,-0.001000000,-0.001000000
1696853507.258121,4674299.000000000,1696853507.258452415,-0.055000000,-0.060000000,0.025000000,0.000000000,-0.001000000,-0.001000000
1696853507.260112,4674300.000000000,1696853507.260461330,-0.055000000,-0.057000000,0.024000000,0.000000000,-0.001000000,-0.001000000
1696853507.262118,4674301.000000000,1696853507.262441397,-0.055000000,-0.055000000,0.021000000,0.000000000,-0.001000000,-0.001000000
1696853507.264098,4674302.000000000,1696853507.264459848,-0.056000000,-0.055000000,0.019000000,0.000000000,-0.001000000,0.000000000
1696853507.266144,4674303.000000000,1696853507.266489506,-0.055000000,-0.054000000,0.016000000,0.000000000,-0.001000000,0.000000000
1696853507.268106,4674304.000000000,1696853507.268467188,-0.055000000,-0.054000000,0.012000000,0.000000000,-0.001000000,0.000000000
1696853507.270236,4674305.000000000,1696853507.270499468,-0.055000000,-0.054000000,0.008000000,0.000000000,-0.001000000,0.000000000
1696853507.273360,4674306.000000000,1696853507.273655891,-0.055000000,-0.053000000,0.005000000,0.000000000,-0.001000000,0.000000000
1696853507.274827,4674307.000000000,1696853507.274778605,-0.055000000,-0.052000000,0.000000000,0.000000000,-0.001000000,0.000000000
1696853507.276295,4674308.000000000,1696853507.276706457,-0.055000000,-0.051000000,-0.002000000,0.000000000,-0.001000000,0.000000000
1696853507.278043,4674309.000000000,1696853507.278445005,-0.055000000,-0.049000000,-0.005000000,0.000000000,-0.001000000,0.000000000
1696853507.280135,4674310.000000000,1696853507.280474424,-0.056000000,-0.046000000,-0.008000000,0.000000000,-0.001000000,0.000000000
1696853507.283520,4674311.000000000,1696853507.282759190,-0.056000000,-0.044000000,-0.013000000,0.000000000,-0.001000000,0.000000000
1696853507.284136,4674312.000000000,1696853507.284535646,-0.057000000,-0.042000000,-0.015000000,0.000000000,-0.001000000,0.000000000
1696853507.286047,4674313.000000000,1696853507.286429644,-0.058000000,-0.040000000,-0.019000000,0.000000000,-0.001000000,0.000000000
1696853507.288104,4674314.000000000,1696853507.288460016,-0.058000000,-0.039000000,-0.024000000,0.000000000,-0.001000000,0.000000000
1696853507.290192,4674315.000000000,1696853507.290453434,-0.058000000,-0.038000000,-0.028000000,0.000000000,-0.001000000,0.000000000
1696853507.292262,4674316.000000000,1696853507.292545557,-0.058000000,-0.038000000,-0.033000000,0.000000000,-0.001000000,0.000000000
1696853507.294040,4674317.000000000,1696853507.294427633,-0.059000000,-0.037000000,-0.038000000,0.000000000,-0.001000000,0.000000000
1696853507.296091,4674318.000000000,1696853507.296445131,-0.059000000,-0.037000000,-0.043000000,0.000000000,-0.001000000,0.000000000
1696853507.298444,4674319.000000000,1696853507.298508406,-0.060000000,-0.036000000,-0.045000000,0.000000000,-0.001000000,0.000000000
1696853507.300198,4674320.000000000,1696853507.300483942,-0.060000000,-0.035000000,-0.049000000,0.000000000,-0.001000000,0.000000000
1696853507.302157,4674321.000000000,1696853507.302446842,-0.060000000,-0.033000000,-0.052000000,0.000000000,-0.001000000,0.000000000
1696853507.304266,4674322.000000000,1696853507.304502487,-0.061000000,-0.031000000,-0.054000000,0.000000000,-0.001000000,0.000000000
1696853507.307351,4674323.000000000,1696853507.306472301,-0.062000000,-0.029000000,-0.057000000,0.000000000,-0.001000000,0.000000000
1696853507.308229,4674324.000000000,1696853507.308496952,-0.062000000,-0.028000000,-0.058000000,0.000000000,-0.001000000,0.000000000
1696853507.310051,4674325.000000000,1696853507.310448647,-0.063000000,-0.027000000,-0.060000000,0.000000000,-0.001000000,0.000000000
1696853507.312265,4674326.000000000,1696853507.312572956,-0.063000000,-0.027000000,-0.063000000,0.000000000,-0.001000000,0.000000000
1696853507.314077,4674327.000000000,1696853507.314472675,-0.063000000,-0.028000000,-0.065000000,0.000000000,-0.001000000,0.001000000
1696853507.316097,4674328.000000000,1696853507.316488981,-0.063000000,-0.029000000,-0.066000000,0.000000000,-0.001000000,0.001000000
1696853507.318051,4674329.000000000,1696853507.318461180,-0.063000000,-0.030000000,-0.066000000,0.000000000,0.000000000,0.000000000
1696853507.320152,4674330.000000000,1696853507.320465326,-0.064000000,-0.030000000,-0.067000000,0.000000000,0.000000000,0.001000000
1696853507.322025,4674331.000000000,1696853507.322418451,-0.064000000,-0.030000000,-0.066000000,0.000000000,0.000000000,0.001000000
1696853507.324167,4674332.000000000,1696853507.324499607,-0.064000000,-0.030000000,-0.065000000,0.000000000,0.000000000,0.000000000
1696853507.326132,4674333.000000000,1696853507.326445580,-0.064000000,-0.029000000,-0.063000000,0.000000000,0.000000000,0.000000000
1696853507.328291,4674334.000000000,1696853507.328480721,-0.065000000,-0.029000000,-0.061000000,0.000000000,-0.001000000,0.000000000
1696853507.330424,4674335.000000000,1696853507.330420017,-0.065000000,-0.029000000,-0.058000000,0.000000000,-0.001000000,0.000000000
1696853507.332200,4674336.000000000,1696853507.332537651,-0.065000000,-0.030000000,-0.055000000,0.000000000,-0.001000000,0.000000000
1696853507.334158,4674337.000000000,1696853507.334527731,-0.065000000,-0.031000000,-0.053000000,0.000000000,-0.001000000,0.000000000
1696853507.336122,4674338.000000000,1696853507.336510897,-0.065000000,-0.033000000,-0.050000000,0.000000000,-0.001000000,0.000000000
1696853507.338262,4674339.000000000,1696853507.338462353,-0.065000000,-0.035000000,-0.046000000,0.000000000,-0.001000000,0.000000000
1696853507.340105,4674340.000000000,1696853507.340502739,-0.065000000,-0.037000000,-0.044000000,0.000000000,-0.001000000,0.000000000
1696853507.342069,4674341.000000000,1696853507.342465162,-0.065000000,-0.039000000,-0.040000000,0.000000000,-0.001000000,0.000000000
1696853507.344077,4674342.000000000,1696853507.344486237,-0.065000000,-0.041000000,-0.035000000,0.000000000,-0.001000000,0.000000000
1696853507.346313,4674343.000000000,1696853507.346477270,-0.065000000,-0.041000000,-0.029000000,0.000000000,-0.001000000,0.000000000
1696853507.348083,4674344.000000000,1696853507.348493099,-0.065000000,-0.042000000,-0.024000000,0.000000000,-0.001000000,0.000000000
1696853507.350067,4674345.000000000,1696853507.350457191,-0.066000000,-0.042000000,-0.018000000,0.000000000,-0.001000000,0.000000000
1696853507.352212,4674346.000000000,1696853507.352582455,-0.066000000,-0.043000000,-0.013000000,0.000000000,-0.001000000,0.000000000
1696853507.354266,4674347.000000000,1696853507.354477406,-0.066000000,-0.043000000,-0.007000000,0.000000000,-0.001000000,0.000000000
1696853507.356099,4674348.000000000,1696853507.356473684,-0.065000000,-0.045000000,-0.003000000,0.000000000,-0.001000000,0.000000000
1696853507.358108,4674349.000000000,1696853507.358484745,-0.065000000,-0.047000000,0.001000000,0.000000000,-0.001000000,0.000000000
1696853507.360152,4674350.000000000,1696853507.360471010,-0.065000000,-0.049000000,0.006000000,0.000000000,-0.001000000,0.000000000
1696853507.362253,4674351.000000000,1696853507.362583637,-0.065000000,-0.051000000,0.010000000,0.000000000,-0.001000000,0.000000000
1696853507.364161,4674352.000000000,1696853507.364483118,-0.065000000,-0.054000000,0.015000000,0.000000000,-0.001000000,0.000000000
1696853507.366128,4674353.000000000,1696853507.366457939,-0.064000000,-0.055000000,0.019000000,0.000000000,-0.001000000,0.000000000
1696853507.368230,4674354.000000000,1696853507.368485451,-0.064000000,-0.056000000,0.024000000,0.000000000,-0.001000000,-0.001000000
1696853507.370243,4674355.000000000,1696853507.370472670,-0.064000000,-0.056000000,0.030000000,0.000000000,-0.001000000,-0.001000000
1696853507.372362,4674356.000000000,1696853507.372518539,-0.064000000,-0.056000000,0.035000000,0.000000000,-0.001000000,-0.001000000
1696853507.374163,4674357.000000000,1696853507.374453306,-0.064000000,-0.056000000,0.039000000,0.000000000,-0.001000000,-0.001000000
1696853507.376229,4674358.000000000,1696853507.376499891,-0.064000000,-0.056000000,0.044000000,0.000000000,-0.001000000,-0.001000000
1696853507.378872,4674359.000000000,1696853507.378476143,-0.064000000,-0.057000000,0.047000000,0.000000000,-0.001000000,-0.001000000
1696853507.380200,4674360.000000000,1696853507.380510569,-0.064000000,-0.058000000,0.050000000,0.000000000,-0.001000000,-0.001000000
1696853507.382106,4674361.000000000,1696853507.382459402,-0.064000000,-0.060000000,0.052000000,0.000000000,-0.001000000,-0.001000000
1696853507.384106,4674362.000000000,1696853507.384487629,-0.063000000,-0.061000000,0.055000000,0.000000000,-0.001000000,-0.001000000
1696853507.386090,4674363.000000000,1696853507.386461258,-0.063000000,-0.063000000,0.057000000,0.000000000,-0.001000000,-0.001000000
1696853507.388116,4674364.000000000,1696853507.388478041,-0.062000000,-0.064000000,0.059000000,0.000000000,-0.001000000,-0.001000000
1696853507.390154,4674365.000000000,1696853507.390446186,-0.062000000,-0.064000000,0.061000000,0.000000000,-0.001000000,-0.001000000
1696853507.392223,4674366.000000000,1696853507.392496347,-0.062000000,-0.064000000,0.063000000,0.000000000,-0.001000000,-0.001000000
1696853507.394076,4674367.000000000,1696853507.394470215,-0.061000000,-0.063000000,0.065000000,0.000000000,-0.001000000,-0.001000000
1696853507.396115,4674368.000000000,1696853507.396516562,-0.061000000,-0.062000000,0.067000000,0.000000000,-0.001000000,-0.001000000
1696853507.398040,4674369.000000000,1696853507.398456335,-0.061000000,-0.061000000,0.068000000,0.000000000,-0.001000000,-0.001000000
1696853507.400077,4674370.000000000,1696853507.400485039,-0.061000000,-0.062000000,0.068000000,0.000000000,-0.001000000,-0.001000000
1696853507.402437,4674371.000000000,1696853507.402498245,-0.060000000,-0.062000000,0.069000000,0.000000000,-0.001000000,-0.002000000
1696853507.404085,4674372.000000000,1696853507.404500484,-0.060000000,-0.063000000,0.068000000,0.000000000,-0.001000000,-0.002000000
1696853507.406035,4674373.000000000,1696853507.406447649,-0.060000000,-0.064000000,0.069000000,0.000000000,-0.001000000,-0.002000000
1696853507.408096,4674374.000000000,1696853507.408514738,-0.059000000,-0.065000000,0.067000000,0.000000000,-0.001000000,-0.001000000
1696853507.410502,4674375.000000000,1696853507.410470486,-0.058000000,-0.066000000,0.067000000,0.000000000,-0.001000000,-0.001000000
1696853507.412196,4674376.000000000,1696853507.412582159,-0.058000000,-0.066000000,0.067000000,0.000000000,-0.001000000,-0.002000000
1696853507.414073,4674377.000000000,1696853507.414478302,-0.057000000,-0.066000000,0.066000000,0.000000000,-0.001000000,-0.001000000
1696853507.416083,4674378.000000000,1696853507.416503668,-0.057000000,-0.065000000,0.066000000,0.000000000,-0.001000000,-0.001000000
1696853507.418171,4674379.000000000,1696853507.418485403,-0.057000000,-0.064000000,0.065000000,0.000000000,-0.001000000,-0.001000000
1696853507.420178,4674380.000000000,1696853507.420554399,-0.057000000,-0.063000000,0.065000000,0.000000000,-0.001000000,-0.001000000
1696853507.422313,4674381.000000000,1696853507.422591209,-0.056000000,-0.062000000,0.064000000,0.000000000,-0.001000000,-0.001000000
1696853507.424178,4674382.000000000,1696853507.424519062,-0.056000000,-0.062000000,0.064000000,0.000000000,-0.001000000,-0.001000000
1696853507.426192,4674383.000000000,1696853507.426417828,-0.056000000,-0.063000000,0.061000000,0.000000000,-0.001000000,-0.001000000
1696853507.428029,4674384.000000000,1696853507.428463459,-0.055000000,-0.064000000,0.059000000,0.000000000,-0.001000000,-0.001000000
1696853507.430043,4674385.000000000,1696853507.430445910,-0.055000000,-0.065000000,0.057000000,0.000000000,-0.001000000,-0.001000000
1696853507.432108,4674386.000000000,1696853507.432512522,-0.055000000,-0.066000000,0.056000000,0.000000000,-0.001000000,-0.001000000
1696853507.434249,4674387.000000000,1696853507.434539318,-0.054000000,-0.066000000,0.055000000,0.000000000,-0.001000000,-0.001000000
1696853507.436153,4674388.000000000,1696853507.436514616,-0.054000000,-0.066000000,0.053000000,0.000000000,-0.001000000,-0.001000000
1696853507.438084,4674389.000000000,1696853507.438459873,-0.053000000,-0.065000000,0.051000000,0.000000000,-0.001000000,-0.001000000
1696853507.440125,4674390.000000000,1696853507.440490246,-0.054000000,-0.064000000,0.051000000,0.000000000,-0.001000000,-0.001000000
1696853507.442332,4674391.000000000,1696853507.442482233,-0.054000000,-0.063000000,0.050000000,0.000000000,-0.001000000,-0.001000000
1696853507.444551,4674392.000000000,1696853507.444493532,-0.054000000,-0.062000000,0.049000000,0.000000000,-0.001000000,-0.001000000
1696853507.446925,4674393.000000000,1696853507.446495295,-0.054000000,-0.062000000,0.047000000,0.000000000,-0.001000000,-0.001000000
1696853507.448128,4674394.000000000,1696853507.448503017,-0.054000000,-0.062000000,0.046000000,0.000000000,-0.001000000,-0.001000000
1696853507.450155,4674395.000000000,1696853507.450448990,-0.054000000,-0.063000000,0.044000000,0.000000000,-0.001000000,-0.001000000
1696853507.452134,4674396.000000000,1696853507.452488661,-0.053000000,-0.064000000,0.043000000,0.000000000,-0.001000000,-0.001000000
1696853507.454117,4674397.000000000,1696853507.454445601,-0.053000000,-0.065000000,0.041000000,0.000000000,-0.001000000,-0.001000000
1696853507.456206,4674398.000000000,1696853507.456496239,-0.054000000,-0.065000000,0.041000000,0.000000000,-0.001000000,-0.001000000
1696853507.458407,4674399.000000000,1696853507.458483934,-0.053000000,-0.065000000,0.039000000,0.000000000,-0.001000000,-0.001000000
1696853507.460189,4674400.000000000,1696853507.460485458,-0.053000000,-0.064000000,0.039000000,0.000000000,-0.001000000,-0.001000000
1696853507.462070,4674401.000000000,1696853507.462466955,-0.053000000,-0.063000000,0.039000000,0.000000000,-0.001000000,-0.001000000
1696853507.464075,4674402.000000000,1696853507.464492083,-0.054000000,-0.062000000,0.040000000,0.000000000,-0.001000000,-0.001000000
1696853507.466746,4674403.000000000,1696853507.466548681,-0.054000000,-0.061000000,0.039000000,0.000000000,-0.001000000,-0.001000000
1696853507.468202,4674404.000000000,1696853507.468516350,-0.055000000,-0.060000000,0.040000000,0.000000000,-0.001000000,-0.001000000
1696853507.470074,4674405.000000000,1696853507.470457792,-0.055000000,-0.060000000,0.040000000,0.000000000,-0.001000000,-0.001000000
1696853507.472150,4674406.000000000,1696853507.472486973,-0.055000000,-0.060000000,0.040000000,0.000000000,-0.001000000,-0.001000000
1696853507.474553,4674407.000000000,1696853507.474468946,-0.056000000,-0.062000000,0.039000000,0.000000000,-0.001000000,-0.001000000
1696853507.476208,4674408.000000000,1696853507.476504087,-0.056000000,-0.062000000,0.039000000,0.000000000,-0.001000000,-0.001000000
1696853507.478068,4674409.000000000,1696853507.478459120,-0.056000000,-0.063000000,0.039000000,0.000000000,-0.001000000,-0.001000000
1696853507.480180,4674410.000000000,1696853507.480488539,-0.056000000,-0.063000000,0.040000000,0.000000000,-0.001000000,-0.001000000
1696853507.482143,4674411.000000000,1696853507.482477665,-0.057000000,-0.062000000,0.041000000,0.000000000,-0.001000000,-0.001000000
1696853507.484171,4674412.000000000,1696853507.484483480,-0.057000000,-0.061000000,0.042000000,0.000000000,-0.001000000,-0.001000000
1696853507.486204,4674413.000000000,1696853507.486460447,-0.058000000,-0.060000000,0.043000000,0.000000000,-0.001000000,-0.001000000
