__time,/hsrb/wrist_wrench/compensated/header/seq,/hsrb/wrist_wrench/compensated/header/stamp,/hsrb/wrist_wrench/compensated/wrench/force/x,/hsrb/wrist_wrench/compensated/wrench/force/y,/hsrb/wrist_wrench/compensated/wrench/force/z,/hsrb/wrist_wrench/compensated/wrench/torque/x,/hsrb/wrist_wrench/compensated/wrench/torque/y,/hsrb/wrist_wrench/compensated/wrench/torque/z,/rosout/header/seq,/rosout/header/stamp,/rosout/level,/rosout/line,/rosout_agg/header/seq,/rosout_agg/header/stamp,/rosout_agg/level,/rosout_agg/line
1697105439.770101,,,,,,,,,538.000000,1697105439.769853,2.000000,30.000000,,,,
1697105439.782617,,,,,,,,,539.000000,1697105439.782119,2.000000,30.000000,,,,
1697105439.784099,,,,,,,,,,,,,1522.000000,1697105439.769853,2.000000,30.000000
1697105439.806386,,,,,,,,,,,,,1523.000000,1697105439.782119,2.000000,30.000000
1697105439.806820,,,,,,,,,540.000000,1697105439.806563,2.000000,30.000000,,,,
1697105439.817626,,,,,,,,,,,,,1524.000000,1697105439.806563,2.000000,30.000000
1697105439.820036,,,,,,,,,541.000000,1697105439.819746,2.000000,30.000000,,,,
1697105439.829185,,,,,,,,,,,,,1525.000000,1697105439.819746,2.000000,30.000000
1697105439.838354,,,,,,,,,542.000000,1697105439.838201,2.000000,209.000000,,,,
1697105439.865846,,,,,,,,,543.000000,1697105439.865576,2.000000,30.000000,,,,
1697105439.867423,,,,,,,,,,,,,1526.000000,1697105439.838201,2.000000,209.000000
1697105439.877096,,,,,,,,,,,,,1527.000000,1697105439.865576,2.000000,30.000000
1697105439.877451,,,,,,,,,544.000000,1697105439.877292,4.000000,34.000000,,,,
1697105439.888556,,,,,,,,,,,,,1528.000000,1697105439.877292,4.000000,34.000000
1697105439.890667,,,,,,,,,545.000000,1697105439.890471,4.000000,34.000000,,,,
1697105439.910012,,,,,,,,,,,,,1529.000000,1697105439.890471,4.000000,34.000000
1697105441.983111,,,,,,,,,546.000000,1697105441.982805,2.000000,30.000000,,,,
1697105442.024054,,,,,,,,,,,,,1530.000000,1697105441.982805,2.000000,30.000000
1697105442.024668,,,,,,,,,547.000000,1697105442.024367,2.000000,30.000000,,,,
1697105442.047791,,,,,,,,,,,,,1531.000000,1697105442.024367,2.000000,30.000000
1697105442.048704,,,,,,,,,548.000000,1697105442.048243,2.000000,30.000000,,,,
1697105442.070113,,,,,,,,,549.000000,1697105442.069803,2.000000,30.000000,,,,
1697105442.070680,,,,,,,,,,,,,1532.000000,1697105442.048243,2.000000,30.000000
1697105442.082140,,,,,,,,,,,,,1533.000000,1697105442.069803,2.000000,30.000000
1697105442.084212,,,,,,,,,550.000000,1697105442.083219,2.000000,30.000000,,,,
1697105442.102104,,,,,,,,,,,,,1534.000000,1697105442.083219,2.000000,30.000000
1697105442.144834,,,,,,,,,551.000000,1697105442.144586,2.000000,30.000000,,,,
1697105442.162401,,,,,,,,,,,,,1535.000000,1697105442.144586,2.000000,30.000000
1697105442.163283,,,,,,,,,552.000000,1697105442.163028,2.000000,30.000000,,,,
1697105442.177824,,,,,,,,,,,,,1536.000000,1697105442.163028,2.000000,30.000000
1697105442.178251,,,,,,,,,553.000000,1697105442.177958,2.000000,30.000000,,,,
1697105442.200979,,,,,,,,,,,,,1537.000000,1697105442.177958,2.000000,30.000000
1697105442.201689,,,,,,,,,554.000000,1697105442.201515,2.000000,30.000000,,,,
1697105442.223318,,,,,,,,,,,,,1538.000000,1697105442.201515,2.000000,30.000000
1697105442.331119,,,,,,,,,555.000000,1697105442.330876,2.000000,30.000000,,,,
1697105442.340432,,,,,,,,,,,,,1539.000000,1697105442.330876,2.000000,30.000000
1697105442.340811,,,,,,,,,556.000000,1697105442.340597,2.000000,30.000000,,,,
1697105442.355367,,,,,,,,,,,,,1540.000000,1697105442.340597,2.000000,30.000000
1697105442.356473,,,,,,,,,557.000000,1697105442.355690,2.000000,30.000000,,,,
1697105442.373677,,,,,,,,,,,,,1541.000000,1697105442.355690,2.000000,30.000000
1697105442.376433,,,,,,,,,558.000000,1697105442.375625,2.000000,30.000000,,,,
1697105442.394192,,,,,,,,,,,,,1542.000000,1697105442.375625,2.000000,30.000000
1697105442.394830,,,,,,,,,559.000000,1697105442.394412,2.000000,30.000000,,,,
1697105442.418158,,,,,,,,,,,,,1543.000000,1697105442.394412,2.000000,30.000000
1697105442.749274,,,,,,,,,560.000000,1697105442.748597,2.000000,30.000000,,,,
1697105442.774637,,,,,,,,,561.000000,1697105442.774094,2.000000,30.000000,,,,
1697105442.775893,,,,,,,,,,,,,1544.000000,1697105442.748597,2.000000,30.000000
1697105442.793612,,,,,,,,,,,,,1545.000000,1697105442.774094,2.000000,30.000000
1697105442.802456,,,,,,,,,562.000000,1697105442.802033,2.000000,30.000000,,,,
1697105442.822574,,,,,,,,,,,,,1546.000000,1697105442.802033,2.000000,30.000000
1697105443.266671,,,,,,,,,563.000000,1697105443.266318,2.000000,30.000000,,,,
1697105443.289801,,,,,,,,,,,,,1547.000000,1697105443.266318,2.000000,30.000000
1697105443.290209,,,,,,,,,564.000000,1697105443.289905,2.000000,30.000000,,,,
1697105443.304339,,,,,,,,,,,,,1548.000000,1697105443.289905,2.000000,30.000000
1697105443.318118,,,,,,,,,28.000000,1697105443.306613,4.000000,357.000000,,,,
1697105443.318203,,,,,,,,,,,,,1549.000000,1697105443.306613,4.000000,357.000000
1697105443.320450,,,,,,,,,565.000000,1697105443.320103,2.000000,30.000000,,,,
1697105443.341876,,,,,,,,,,,,,1550.000000,1697105443.320103,2.000000,30.000000
1697105443.341957,,,,,,,,,29.000000,1697105443.327948,4.000000,82.000000,,,,
1697105443.342052,,,,,,,,,,,,,1551.000000,1697105443.327948,4.000000,82.000000
1697105443.342422,,,,,,,,,566.000000,1697105443.342180,2.000000,30.000000,,,,
1697105443.372865,,,,,,,,,,,,,1552.000000,1697105443.342180,2.000000,30.000000
1697105444.189483,,,,,,,,,567.000000,1697105444.189224,2.000000,30.000000,,,,
1697105444.208479,,,,,,,,,,,,,1553.000000,1697105444.189224,2.000000,30.000000
1697105444.228875,,,,,,,,,568.000000,1697105444.228488,2.000000,30.000000,,,,
1697105444.257670,,,,,,,,,,,,,1554.000000,1697105444.228488,2.000000,30.000000
1697105444.258352,,,,,,,,,569.000000,1697105444.258172,4.000000,34.000000,,,,
1697105444.275453,,,,,,,,,,,,,1555.000000,1697105444.258172,4.000000,34.000000
1697105444.277431,,,,,,,,,570.000000,1697105444.276976,4.000000,34.000000,,,,
1697105444.297418,,,,,,,,,,,,,1556.000000,1697105444.276976,4.000000,34.000000
1697105444.298025,,,,,,,,,571.000000,1697105444.297850,4.000000,34.000000,,,,
1697105444.330362,,,,,,,,,572.000000,1697105444.329950,4.000000,34.000000,,,,
1697105444.330476,,,,,,,,,,,,,1557.000000,1697105444.297850,4.000000,34.000000
1697105444.366781,,,,,,,,,,,,,1558.000000,1697105444.329950,4.000000,34.000000
1697105444.367297,,,,,,,,,573.000000,1697105444.366510,2.000000,30.000000,,,,
1697105444.391081,,,,,,,,,,,,,1559.000000,1697105444.366510,2.000000,30.000000
1697105444.392734,,,,,,,,,574.000000,1697105444.391214,4.000000,34.000000,,,,
1697105444.409810,,,,,,,,,,,,,1560.000000,1697105444.391214,4.000000,34.000000
1697105446.417412,,,,,,,,,575.000000,1697105446.417084,2.000000,30.000000,,,,
1697105446.437284,,,,,,,,,,,,,1561.000000,1697105446.417084,2.000000,30.000000
1697105446.437920,,,,,,,,,576.000000,1697105446.437433,2.000000,30.000000,,,,
1697105446.456254,,,,,,,,,,,,,1562.000000,1697105446.437433,2.000000,30.000000
1697105446.456619,,,,,,,,,577.000000,1697105446.456406,2.000000,30.000000,,,,
1697105446.472182,,,,,,,,,,,,,1563.000000,1697105446.456406,2.000000,30.000000
1697105446.472474,,,,,,,,,578.000000,1697105446.472325,2.000000,30.000000,,,,
1697105446.488994,,,,,,,,,,,,,1564.000000,1697105446.472325,2.000000,30.000000
1697105446.491720,,,,,,,,,579.000000,1697105446.491094,2.000000,30.000000,,,,
1697105446.514485,,,,,,,,,,,,,1565.000000,1697105446.491094,2.000000,30.000000
1697105446.518849,,,,,,,,,580.000000,1697105446.518447,2.000000,30.000000,,,,
1697105446.540207,,,,,,,,,,,,,1566.000000,1697105446.518447,2.000000,30.000000
1697105446.541013,,,,,,,,,581.000000,1697105446.540660,4.000000,34.000000,,,,
1697105446.560519,,,,,,,,,,,,,1567.000000,1697105446.540660,4.000000,34.000000
1697105446.578245,,,,,,,,,582.000000,1697105446.576750,4.000000,34.000000,,,,
1697105446.633381,,,,,,,,,,,,,1568.000000,1697105446.576750,4.000000,34.000000
1697107751.029890,119674.000000,1697107751.017914,0.000000,0.000000,0.000000,0.000000,0.000000,0.000000,,,,,,,,
1697107751.042928,119675.000000,1697107751.027950,0.000000,0.000000,0.000000,0.000000,0.000000,0.000000,,,,,,,,
1697107751.052480,119676.000000,1697107751.038597,0.000000,0.000000,0.000000,0.000000,0.000000,0.000000,,,,,,,,
1697107751.064704,119677.000000,1697107751.047901,0.000000,0.000000,0.000000,0.000000,0.000000,0.000000,,,,,,,,
1697107751.074106,119678.000000,1697107751.058103,0.000000,0.000000,0.000000,0.000000,0.000000,0.000000,,,,,,,,
1697107751.084795,119679.000000,1697107751.073184,0.000000,0.000000,0.000000,0.000000,0.000000,0.000000,,,,,,,,
1697107751.094815,119680.000000,1697107751.078791,0.000000,0.000000,0.000000,0.000000,0.000000,0.000000,,,,,,,,
1697107751.102320,119681.000000,1697107751.090653,0.000000,0.000000,0.000000,0.000000,0.000000,0.000000,,,,,,,,
1697107751.108386,119682.000000,1697107751.098787,0.000000,0.000000,0.000000,0.000000,0.000000,0.000000,,,,,,,,
1697107751.125290,119683.000000,1697107751.107940,0.000000,0.000000,0.000000,0.000000,0.000000,0.000000,,,,,,,,
1697107751.134872,119684.000000,1697107751.118659,0.000000,0.000000,0.000000,0.000000,0.000000,0.000000,,,,,,,,
1697107751.145331,119685.000000,1697107751.128084,0.000000,0.000000,0.000000,0.000000,0.000000,0.000000,,,,,,,,
1697107751.151562,119686.000000,1697107751.137924,0.000000,0.000000,0.000000,0.000000,0.000000,0.000000,,,,,,,,
1697107751.162442,119687.000000,1697107751.148038,0.000000,0.000000,0.000000,0.000000,0.000000,0.000000,,,,,,,,
1697107751.170300,119688.000000,1697107751.158346,0.000000,0.000000,0.000000,0.000000,0.000000,0.000000,,,,,,,,
1697107751.181156,119689.000000,1697107751.167903,0.000000,0.000000,0.000000,0.000000,0.000000,0.000000,,,,,,,,
1697107751.188887,119690.000000,1697107751.178033,0.000000,0.000000,0.000000,0.000000,0.000000,0.000000,,,,,,,,
1697107751.199329,119691.000000,1697107751.188309,-0.002237,0.005541,0.003881,-0.000077,-0.000134,0.000063,,,,,,,,
1697107751.210665,119692.000000,1697107751.198006,-0.005165,0.012592,0.008855,-0.000174,-0.000303,0.000142,,,,,,,,
1697107751.221736,119693.000000,1697107751.208029,-0.008081,0.019452,0.013781,-0.000268,-0.000466,0.000217,,,,,,,,
1697107751.233428,119694.000000,1697107751.218024,-0.010715,0.025558,0.018277,-0.000350,-0.000612,0.000282,,,,,,,,
1697107751.247367,119695.000000,1697107751.228320,-0.013501,0.032070,0.023184,-0.000437,-0.000768,0.000350,,,,,,,,
1697107751.255468,119696.000000,1697107751.237874,-0.016824,0.039866,0.029230,-0.000541,-0.000954,0.000429,,,,,,,,
1697107751.265827,119697.000000,1697107751.247901,-0.020478,0.048248,0.035988,-0.000651,-0.001156,0.000513,,,,,,,,
1697107751.274519,119698.000000,1697107751.258562,-0.023900,0.055993,0.042403,-0.000752,-0.001344,0.000588,,,,,,,,
1697107751.287302,119699.000000,1697107751.268024,-0.026751,0.062797,0.048233,-0.000841,-0.001510,0.000653,,,,,,,,
1697107751.300611,119700.000000,1697107751.280200,-0.028981,0.068947,0.053897,-0.000920,-0.001660,0.000713,,,,,,,,
1697107751.310212,119702.000000,1697107751.298136,-0.031516,0.079090,0.064335,-0.001050,-0.001908,0.000815,,,,,,,,
1697107751.325714,119703.000000,1697107751.308608,-0.032060,0.082861,0.068976,-0.001100,-0.002006,0.000858,,,,,,,,
1697107751.333048,119704.000000,1697107751.318338,-0.032561,0.086971,0.074317,-0.001157,-0.002113,0.000907,,,,,,,,
1697107751.347033,119705.000000,1697107751.328222,-0.032867,0.091652,0.080383,-0.001224,-0.002231,0.000965,,,,,,,,
1697107751.357087,119706.000000,1697107751.341640,-0.032097,0.094569,0.084973,-0.001270,-0.002307,0.001009,,,,,,,,
1697107751.365215,119707.000000,1697107751.347937,-0.029813,0.093607,0.086097,-0.001265,-0.002294,0.001017,,,,,,,,
1697107751.369847,119708.000000,1697107751.358570,-0.026468,0.089080,0.083947,-0.001214,-0.002198,0.000990,,,,,,,,
1697107751.381904,119709.000000,1697107751.368085,-0.022562,0.081780,0.079060,-0.001126,-0.002037,0.000932,,,,,,,,
1697107751.394752,119710.000000,1697107751.377895,-0.018407,0.072152,0.071550,-0.001007,-0.001821,0.000844,,,,,,,,
1697107751.404022,119711.000000,1697107751.388018,-0.014257,0.060742,0.061692,-0.000862,-0.001556,0.000730,,,,,,,,
1697107751.412590,119712.000000,1697107751.397994,-0.010434,0.048647,0.050498,-0.000703,-0.001266,0.000600,,,,,,,,
1697107751.420033,119713.000000,1697107751.407946,-0.007246,0.037192,0.039405,-0.000545,-0.000982,0.000471,,,,,,,,
1697107751.433987,119714.000000,1697107751.418028,-0.004763,0.026974,0.029177,-0.000401,-0.000723,0.000352,,,,,,,,
1697107751.445437,119715.000000,1697107751.428019,-0.002963,0.018498,0.020462,-0.000278,-0.000503,0.000248,,,,,,,,
1697107751.454935,119716.000000,1697107751.438261,-0.001705,0.011765,0.013327,-0.000179,-0.000324,0.000162,,,,,,,,
1697107751.466293,119717.000000,1697107751.449459,-0.000778,0.005921,0.006871,-0.000091,-0.000166,0.000084,,,,,,,,
1697107751.480624,119718.000000,1697107751.458017,-0.000072,0.000595,0.000706,-0.000009,-0.000017,0.000009,,,,,,,,
1697107751.499304,119720.000000,1697107751.478793,0.000000,0.000000,0.000000,0.000000,0.000000,0.000000,,,,,,,,
1697107751.511199,119721.000000,1697107751.487952,0.000000,0.000000,0.000000,0.000000,0.000000,0.000000,,,,,,,,
1697107751.518996,119723.000000,1697107751.507901,0.000000,0.000000,0.000000,0.000000,0.000000,0.000000,,,,,,,,
1697107751.529013,119724.000000,1697107751.517952,0.000000,0.000000,0.000000,0.000000,0.000000,0.000000,,,,,,,,
1697107751.545656,119725.000000,1697107751.528732,0.000000,0.000000,0.000000,0.000000,0.000000,0.000000,,,,,,,,
1697107751.550347,119726.000000,1697107751.538271,0.000000,0.000000,0.000000,0.000000,0.000000,0.000000,,,,,,,,
1697107751.560020,119727.000000,1697107751.548171,0.000000,0.000000,0.000000,0.000000,0.000000,0.000000,,,,,,,,
1697107751.570468,119728.000000,1697107751.557796,0.000000,0.000000,0.000000,0.000000,0.000000,0.000000,,,,,,,,
1697107751.599737,119729.000000,1697107751.574025,0.000000,0.000000,0.000000,0.000000,0.000000,0.000000,,,,,,,,
1697107751.608142,119731.000000,1697107751.587933,0.000000,0.000000,0.000000,0.000000,0.000000,0.000000,,,,,,,,
1697107751.616567,119732.000000,1697107751.598404,0.000000,0.000000,0.000000,0.000000,0.000000,0.000000,,,,,,,,
1697107751.623060,119733.000000,1697107751.607901,0.000000,0.000000,0.000000,0.000000,0.000000,0.000000,,,,,,,,
1697107751.632755,119734.000000,1697107751.618765,0.000000,0.000000,0.000000,0.000000,0.000000,0.000000,,,,,,,,
1697107751.657203,119735.000000,1697107751.642740,0.000000,0.000000,0.000000,0.000000,0.000000,0.000000,,,,,,,,
1697107751.674091,119737.000000,1697107751.649966,0.000000,0.000000,0.000000,0.000000,0.000000,0.000000,,,,,,,,
1697107751.684832,119739.000000,1697107751.668148,0.000000,0.000000,0.000000,0.000000,0.000000,0.000000,,,,,,,,
1697107751.696538,119740.000000,1697107751.678142,0.000000,0.000000,0.000000,0.000000,0.000000,0.000000,,,,,,,,
1697107751.709497,119741.000000,1697107751.687935,0.000000,0.000000,0.000000,0.000000,0.000000,0.000000,,,,,,,,
1697107751.711972,119742.000000,1697107751.698940,0.000000,0.000000,0.000000,0.000000,0.000000,0.000000,,,,,,,,
1697107751.726011,119743.000000,1697107751.708040,0.000000,0.000000,0.000000,0.000000,0.000000,0.000000,,,,,,,,
1697107751.741607,119744.000000,1697107751.718014,0.000000,0.000000,0.000000,0.000000,0.000000,0.000000,,,,,,,,
1697107751.753881,119746.000000,1697107751.737932,0.000000,0.000000,0.000000,0.000000,0.000000,0.000000,,,,,,,,
1697107751.763006,119747.000000,1697107751.748264,0.000000,0.000000,0.000000,0.000000,0.000000,0.000000,,,,,,,,
1697107751.771814,119748.000000,1697107751.757887,0.000000,0.000000,0.000000,0.000000,0.000000,0.000000,,,,,,,,
1697107751.783023,119749.000000,1697107751.767896,0.000000,0.000000,0.000000,0.000000,0.000000,0.000000,,,,,,,,
1697107751.793863,119750.000000,1697107751.777899,0.000000,0.000000,0.000000,0.000000,0.000000,0.000000,,,,,,,,
1697107751.805031,119751.000000,1697107751.788028,0.000000,0.000000,0.000000,0.000000,0.000000,0.000000,,,,,,,,
1697107751.813660,119752.000000,1697107751.798359,0.000000,0.000000,0.000000,0.000000,0.000000,0.000000,,,,,,,,
1697107751.827111,119753.000000,1697107751.807935,0.000000,0.000000,0.000000,0.000000,0.000000,0.000000,,,,,,,,
1697107751.835439,119754.000000,1697107751.818137,0.000000,0.000000,0.000000,0.000000,0.000000,0.000000,,,,,,,,
1697107751.845215,119755.000000,1697107751.827892,0.000000,0.000000,0.000000,0.000000,0.000000,0.000000,,,,,,,,
1697107751.859196,119756.000000,1697107751.837863,0.000000,0.000000,0.000000,0.000000,0.000000,0.000000,,,,,,,,
1697107751.866882,119757.000000,1697107751.848046,0.000000,0.000000,0.000000,0.000000,0.000000,0.000000,,,,,,,,
1697107751.880703,119758.000000,1697107751.858160,0.000000,0.000000,0.000000,0.000000,0.000000,0.000000,,,,,,,,
1697107751.883614,119759.000000,1697107751.867889,0.000000,0.000000,0.000000,0.000000,0.000000,0.000000,,,,,,,,
1697107751.895475,119760.000000,1697107751.877902,0.000000,0.000000,0.000000,0.000000,0.000000,0.000000,,,,,,,,
1697107751.907027,119761.000000,1697107751.888241,0.000000,0.000000,0.000000,0.000000,0.000000,0.000000,,,,,,,,
1697107751.919186,119762.000000,1697107751.898939,0.000000,0.000000,0.000000,0.000000,0.000000,0.000000,,,,,,,,
1697107751.928296,119763.000000,1697107751.909086,0.000000,0.000000,0.000000,0.000000,0.000000,0.000000,,,,,,,,
1697107751.939346,119764.000000,1697107751.917799,-0.000226,0.001443,0.001894,-0.000024,-0.000042,0.000020,,,,,,,,
1697107751.953210,119765.000000,1697107751.928043,-0.000768,0.005088,0.006712,-0.000084,-0.000147,0.000072,,,,,,,,
1697107751.961385,119766.000000,1697107751.937940,-0.001337,0.009267,0.012303,-0.000152,-0.000266,0.000131,,,,,,,,
1697107751.967161,119767.000000,1697107751.947881,-0.001852,0.013590,0.018182,-0.000221,-0.000388,0.000193,,,,,,,,
1697107751.969896,119768.000000,1697107751.957792,-0.002230,0.017496,0.023605,-0.000283,-0.000496,0.000249,,,,,,,,
1697107751.980385,119769.000000,1697107751.967894,-0.002496,0.020955,0.028572,-0.000337,-0.000592,0.000300,,,,,,,,
1697107751.992569,119770.000000,1697107751.978033,-0.002633,0.023713,0.032734,-0.000379,-0.000668,0.000341,,,,,,,,
1697107752.000885,119771.000000,1697107751.987924,-0.002583,0.025133,0.035089,-0.000400,-0.000707,0.000364,,,,,,,,
1697107752.009083,119772.000000,1697107751.998093,-0.002411,0.025515,0.035940,-0.000404,-0.000717,0.000372,,,,,,,,
1697107752.019404,119773.000000,1697107752.007923,-0.002175,0.025161,0.035752,-0.000397,-0.000708,0.000370,,,,,,,,
1697107752.029564,119774.000000,1697107752.018035,-0.001892,0.024541,0.035323,-0.000387,-0.000693,0.000366,,,,,,,,
1697107752.040244,119775.000000,1697107752.028144,-0.001608,0.024453,0.035766,-0.000387,-0.000694,0.000371,,,,,,,,
1697107752.053673,119776.000000,1697107752.038662,-0.001366,0.024808,0.036855,-0.000394,-0.000706,0.000383,,,,,,,,
1697107752.063475,119777.000000,1697107752.047927,-0.001220,0.025416,0.038394,-0.000407,-0.000727,0.000398,,,,,,,,
1697107752.077407,119778.000000,1697107752.057947,-0.001175,0.025801,0.039676,-0.000416,-0.000743,0.000410,,,,,,,,
1697107752.091436,119779.000000,1697107752.068016,-0.001172,0.025193,0.039374,-0.000410,-0.000733,0.000406,,,,,,,,
1697107752.092203,119780.000000,1697107752.077771,-0.001204,0.023622,0.037378,-0.000388,-0.000693,0.000384,,,,,,,,
1697107752.103908,119781.000000,1697107752.087944,-0.001298,0.021974,0.035069,-0.000365,-0.000651,0.000359,,,,,,,,
1697107752.119347,119782.000000,1697107752.098139,-0.001454,0.020981,0.033679,-0.000350,-0.000625,0.000343,,,,,,,,
1697107752.125679,119783.000000,1697107752.108041,-0.001683,0.020483,0.032947,-0.000343,-0.000613,0.000334,,,,,,,,
1697107752.129720,119784.000000,1697107752.118670,-0.002044,0.020634,0.033245,-0.000345,-0.000619,0.000335,,,,,,,,
1697107752.141562,119785.000000,1697107752.128928,-0.002623,0.022317,0.036152,-0.000373,-0.000672,0.000361,,,,,,,,
1697107752.154758,119786.000000,1697107752.137948,-0.003460,0.025722,0.042018,-0.000430,-0.000775,0.000415,,,,,,,,
1697107752.163747,119787.000000,1697107752.147939,-0.004504,0.030084,0.049678,-0.000503,-0.000905,0.000485,,,,,,,,
1697107752.174166,119788.000000,1697107752.157907,-0.005731,0.034904,0.058216,-0.000584,-0.001049,0.000559,,,,,,,,
1697107752.187031,119789.000000,1697107752.175905,-0.007059,0.039727,0.066624,-0.000665,-0.001191,0.000628,,,,,,,,
1697107752.191700,119790.000000,1697107752.178459,-0.008275,0.043627,0.073228,-0.000731,-0.001308,0.000677,,,,,,,,
1697107752.199874,119791.000000,1697107752.188032,-0.009416,0.046791,0.078290,-0.000784,-0.001405,0.000710,,,,,,,,
1697107752.209414,119792.000000,1697107752.198421,-0.010698,0.050339,0.083741,-0.000843,-0.001511,0.000747,,,,,,,,
1697107752.221804,119793.000000,1697107752.208024,-0.012285,0.055206,0.091188,-0.000924,-0.001651,0.000799,,,,,,,,
1697107752.229901,119794.000000,1697107752.218549,-0.014314,0.061816,0.101264,-0.001032,-0.001832,0.000869,,,,,,,,
1697107752.242208,119795.000000,1697107752.228065,-0.016675,0.069089,0.112304,-0.001150,-0.002030,0.000944,,,,,,,,
1697107752.256682,119796.000000,1697107752.238203,-0.019259,0.075665,0.122455,-0.001258,-0.002213,0.001007,,,,,,,,
1697107752.272936,119797.000000,1697107752.248258,-0.022034,0.081229,0.131469,-0.001352,-0.002376,0.001060,,,,,,,,
1697107752.278444,119798.000000,1697107752.258424,-0.024729,0.085709,0.139242,-0.001428,-0.002513,0.001105,,,,,,,,
1697107752.284597,119799.000000,1697107752.269907,-0.027065,0.088874,0.145233,-0.001485,-0.002617,0.001139,,,,,,,,
1697107752.293755,119800.000000,1697107752.277880,-0.028792,0.090324,0.148684,-0.001515,-0.002674,0.001156,,,,,,,,
1697107752.303025,119801.000000,1697107752.288536,-0.029643,0.089861,0.149241,-0.001514,-0.002676,0.001156,,,,,,,,
1697107752.312654,119802.000000,1697107752.299040,-0.029670,0.087556,0.146684,-0.001482,-0.002625,0.001138,,,,,,,,
1697107752.321597,119803.000000,1697107752.308054,-0.028915,0.083199,0.140024,-0.001414,-0.002514,0.001096,,,,,,,,
1697107752.330356,119804.000000,1697107752.317784,-0.027386,0.077179,0.129916,-0.001317,-0.002350,0.001035,,,,,,,,
1697107752.341825,119805.000000,1697107752.328014,-0.025407,0.070791,0.118948,-0.001214,-0.002172,0.000967,,,,,,,,
1697107752.352558,119806.000000,1697107752.338265,-0.023130,0.064641,0.108422,-0.001114,-0.001998,0.000900,,,,,,,,
1697107752.372521,119807.000000,1697107752.348008,-0.020704,0.058525,0.098408,-0.001015,-0.001829,0.000834,,,,,,,,
1697107752.379454,119808.000000,1697107752.357868,-0.018286,0.052255,0.088639,-0.000915,-0.001660,0.000766,,,,,,,,
1697107752.380985,119809.000000,1697107752.369607,-0.016019,0.046621,0.080174,-0.000825,-0.001507,0.000706,,,,,,,,
1697107752.388743,119810.000000,1697107752.378140,-0.014115,0.042309,0.074099,-0.000757,-0.001392,0.000663,,,,,,,,
1697107752.399170,119811.000000,1697107752.388635,-0.012476,0.038591,0.069023,-0.000698,-0.001293,0.000628,,,,,,,,
1697107752.413222,119812.000000,1697107752.397949,-0.010836,0.034516,0.062950,-0.000630,-0.001176,0.000582,,,,,,,,
1697107752.422281,119813.000000,1697107752.408474,-0.009150,0.030140,0.055846,-0.000555,-0.001043,0.000525,,,,,,,,
1697107752.435081,119814.000000,1697107752.419946,-0.007631,0.026162,0.048973,-0.000486,-0.000917,0.000467,,,,,,,,
1697107752.448423,119815.000000,1697107752.427952,-0.006348,0.022760,0.042710,-0.000425,-0.000805,0.000413,,,,,,,,
1697107752.458447,119816.000000,1697107752.438205,-0.005267,0.020025,0.037559,-0.000375,-0.000714,0.000367,,,,,,,,
1697107752.465227,119817.000000,1697107752.448050,-0.004358,0.017894,0.033533,-0.000336,-0.000640,0.000330,,,,,,,,
1697107752.480633,119818.000000,1697107752.457942,-0.003551,0.015946,0.029706,-0.000300,-0.000570,0.000295,,,,,,,,
1697107752.492044,119820.000000,1697107752.477866,-0.002330,0.013081,0.023721,-0.000244,-0.000459,0.000239,,,,,,,,
1697107752.502228,119821.000000,1697107752.487894,-0.001928,0.012579,0.022412,-0.000233,-0.000435,0.000228,,,,,,,,
1697107752.513312,119822.000000,1697107752.498086,-0.001566,0.012068,0.021052,-0.000221,-0.000410,0.000217,,,,,,,,
1697107752.526366,119823.000000,1697107752.510847,-0.001183,0.010803,0.018412,-0.000196,-0.000361,0.000192,,,,,,,,
1697107752.535978,119824.000000,1697107752.517984,-0.000867,0.009321,0.015533,-0.000168,-0.000307,0.000164,,,,,,,,
1697107752.544032,119825.000000,1697107752.528138,-0.000617,0.007777,0.012697,-0.000139,-0.000252,0.000136,,,,,,,,
1697107752.555520,119826.000000,1697107752.537929,-0.000419,0.006145,0.009852,-0.000110,-0.000197,0.000106,,,,,,,,
1697107752.569531,119828.000000,1697107752.557868,-0.000187,0.003657,0.005689,-0.000065,-0.000115,0.000063,,,,,,,,
1697107752.581937,119829.000000,1697107752.570375,-0.000167,0.004203,0.006470,-0.000075,-0.000130,0.000072,,,,,,,,
1697107752.590370,119830.000000,1697107752.578292,-0.000167,0.005951,0.009124,-0.000106,-0.000183,0.000102,,,,,,,,
1697107752.602518,119831.000000,1697107752.588140,-0.000151,0.007634,0.011750,-0.000137,-0.000235,0.000131,,,,,,,,
1697107752.611921,119832.000000,1697107752.597928,-0.000141,0.009057,0.014088,-0.000164,-0.000279,0.000156,,,,,,,,
1697107752.629681,119833.000000,1697107752.608299,-0.000149,0.010683,0.016909,-0.000195,-0.000331,0.000186,,,,,,,,
1697107752.633636,119834.000000,1697107752.618036,-0.000191,0.012651,0.020471,-0.000233,-0.000395,0.000224,,,,,,,,
1697107752.636800,119835.000000,1697107752.627893,-0.000264,0.014169,0.023444,-0.000264,-0.000446,0.000255,,,,,,,,
1697107752.651287,119836.000000,1697107752.638558,-0.000324,0.014995,0.025337,-0.000283,-0.000476,0.000274,,,,,,,,
1697107752.662308,119837.000000,1697107752.650923,-0.000410,0.015904,0.027321,-0.000304,-0.000508,0.000294,,,,,,,,
1697107752.674371,119838.000000,1697107752.658042,-0.000568,0.017327,0.030065,-0.000332,-0.000555,0.000323,,,,,,,,
1697107752.689160,119839.000000,1697107752.668632,-0.000753,0.018735,0.032763,-0.000361,-0.000600,0.000351,,,,,,,,
1697107752.703084,119840.000000,1697107752.677851,-0.000984,0.019472,0.034399,-0.000378,-0.000627,0.000368,,,,,,,,
1697107752.705911,119841.000000,1697107752.688056,-0.001291,0.019396,0.034728,-0.000381,-0.000630,0.000371,,,,,,,,
1697107752.714351,119842.000000,1697107752.697879,-0.001574,0.018607,0.033847,-0.000370,-0.000613,0.000361,,,,,,,,
1697107752.728353,119843.000000,1697107752.708015,-0.001809,0.018150,0.033620,-0.000366,-0.000606,0.000359,,,,,,,,
1697107752.739680,119844.000000,1697107752.722872,-0.002112,0.019348,0.036523,-0.000395,-0.000652,0.000389,,,,,,,,
1697107752.749389,119845.000000,1697107752.730331,-0.002595,0.022600,0.043531,-0.000465,-0.000766,0.000460,,,,,,,,
1697107752.758696,119846.000000,1697107752.739782,-0.003235,0.027286,0.053779,-0.000566,-0.000929,0.000561,,,,,,,,
1697107752.758711,119847.000000,1697107752.747976,-0.003930,0.032427,0.065393,-0.000677,-0.001107,0.000670,,,,,,,,
1697107752.775203,119848.000000,1697107752.758560,-0.004635,0.037687,0.077486,-0.000790,-0.001287,0.000779,,,,,,,,
1697107752.789918,119849.000000,1697107752.768064,-0.005272,0.042622,0.089015,-0.000897,-0.001452,0.000879,,,,,,,,
1697107752.806152,119850.000000,1697107752.777917,-0.005817,0.046776,0.099053,-0.000988,-0.001590,0.000964,,,,,,,,
1697107752.814279,119851.000000,1697107752.790921,-0.006457,0.050657,0.108920,-0.001075,-0.001721,0.001048,,,,,,,,
1697107752.814346,119852.000000,1697107752.799060,-0.007296,0.054436,0.119168,-0.001161,-0.001852,0.001132,,,,,,,,
1697107752.832779,119853.000000,1697107752.808138,-0.008107,0.057243,0.127723,-0.001230,-0.001957,0.001199,,,,,,,,
1697107752.836302,119854.000000,1697107752.817934,-0.008641,0.058445,0.132901,-0.001268,-0.002014,0.001236,,,,,,,,
1697107752.849069,119855.000000,1697107752.828046,-0.008949,0.058360,0.135418,-0.001282,-0.002034,0.001251,,,,,,,,
1697107752.854892,119856.000000,1697107752.837798,-0.009320,0.057688,0.136794,-0.001284,-0.002037,0.001255,,,,,,,,
1697107752.865287,119857.000000,1697107752.847996,-0.009855,0.057053,0.138051,-0.001285,-0.002040,0.001259,,,,,,,,
1697107752.876849,119858.000000,1697107752.858151,-0.010419,0.056656,0.139431,-0.001289,-0.002049,0.001266,,,,,,,,
1697107752.899338,119859.000000,1697107752.867932,-0.010965,0.056316,0.140338,-0.001289,-0.002056,0.001270,,,,,,,,
1697107752.899354,119860.000000,1697107752.878050,-0.011484,0.056270,0.141050,-0.001289,-0.002065,0.001273,,,,,,,,
1697107752.906818,119861.000000,1697107752.887912,-0.011774,0.056734,0.142213,-0.001292,-0.002083,0.001280,,,,,,,,
1697107752.912566,119862.000000,1697107752.897880,-0.011673,0.057443,0.143712,-0.001299,-0.002104,0.001291,,,,,,,,
1697107752.932666,119863.000000,1697107752.907923,-0.011356,0.058448,0.146077,-0.001312,-0.002134,0.001309,,,,,,,,
1697107752.938710,119864.000000,1697107752.917841,-0.011066,0.060006,0.150243,-0.001337,-0.002184,0.001346,,,,,,,,
1697107752.948712,119865.000000,1697107752.928243,-0.011037,0.062148,0.156510,-0.001375,-0.002259,0.001403,,,,,,,,
1697107752.967785,119867.000000,1697107752.948006,-0.011613,0.066260,0.169587,-0.001453,-0.002426,0.001524,,,,,,,,
1697107752.982783,119869.000000,1697107752.968079,-0.012411,0.069420,0.180697,-0.001520,-0.002583,0.001632,,,,,,,,
1697107752.999113,119870.000000,1697107752.978370,-0.013275,0.070770,0.185501,-0.001546,-0.002662,0.001684,,,,,,,,
1697107753.007405,119872.000000,1697107752.997789,-0.015520,0.072861,0.190839,-0.001572,-0.002783,0.001745,,,,,,,,
1697107753.016249,119873.000000,1697107753.008516,-0.016669,0.073750,0.191864,-0.001573,-0.002827,0.001759,,,,,,,,
1697107753.029974,119874.000000,1697107753.017931,-0.017796,0.075578,0.195130,-0.001590,-0.002900,0.001791,,,,,,,,
1697107753.039266,119875.000000,1697107753.027947,-0.018625,0.078420,0.201731,-0.001628,-0.003011,0.001850,,,,,,,,
1697107753.049653,119876.000000,1697107753.039544,-0.019421,0.081749,0.210327,-0.001679,-0.003145,0.001921,,,,,,,,
1697107753.063071,119877.000000,1697107753.048409,-0.020539,0.085102,0.219577,-0.001732,-0.003288,0.001998,,,,,,,,
1697107753.077309,119878.000000,1697107753.060072,-0.021574,0.087962,0.228212,-0.001780,-0.003421,0.002071,,,,,,,,
1697107753.081661,119879.000000,1697107753.069009,-0.022300,0.090506,0.235721,-0.001825,-0.003539,0.002134,,,,,,,,
1697107753.100012,119880.000000,1697107753.077919,-0.023045,0.093590,0.243862,-0.001880,-0.003666,0.002198,,,,,,,,
1697107753.107346,119881.000000,1697107753.087874,-0.023738,0.096641,0.251802,-0.001938,-0.003793,0.002258,,,,,,,,
1697107753.111539,119882.000000,1697107753.097923,-0.024071,0.098704,0.257415,-0.001983,-0.003893,0.002293,,,,,,,,
1697107753.130238,119883.000000,1697107753.108064,-0.024009,0.099944,0.261255,-0.002015,-0.003968,0.002308,,,,,,,,
1697107753.133911,119884.000000,1697107753.117764,-0.023547,0.100808,0.264004,-0.002042,-0.004024,0.002311,,,,,,,,
1697107753.139709,119885.000000,1697107753.127953,-0.022779,0.102058,0.267580,-0.002076,-0.004086,0.002323,,,,,,,,
1697107753.154181,119886.000000,1697107753.138162,-0.022041,0.104330,0.274722,-0.002130,-0.004184,0.002365,,,,,,,,
1697107753.162575,119887.000000,1697107753.147878,-0.021587,0.106985,0.282963,-0.002190,-0.004296,0.002418,,,,,,,,
1697107753.172065,119888.000000,1697107753.157898,-0.021458,0.109448,0.288822,-0.002238,-0.004382,0.002452,,,,,,,,
1697107753.182393,119889.000000,1697107753.168907,-0.021538,0.112449,0.294085,-0.002285,-0.004462,0.002479,,,,,,,,
1697107753.194194,119890.000000,1697107753.178046,-0.021723,0.116259,0.300092,-0.002337,-0.004549,0.002512,,,,,,,,
1697107753.208763,119891.000000,1697107753.188296,-0.021969,0.120482,0.306269,-0.002390,-0.004637,0.002545,,,,,,,,
1697107753.214851,119892.000000,1697107753.197854,-0.022208,0.125540,0.313566,-0.002453,-0.004742,0.002587,,,,,,,,
1697107753.227341,119893.000000,1697107753.208054,-0.022638,0.132173,0.323877,-0.002538,-0.004888,0.002651,,,,,,,,
1697107753.238353,119894.000000,1697107753.217964,-0.023318,0.140699,0.338450,-0.002653,-0.005088,0.002741,,,,,,,,
1697107753.249820,119895.000000,1697107753.227915,-0.024084,0.150724,0.355258,-0.002789,-0.005319,0.002842,,,,,,,,
1697107753.249835,119896.000000,1697107753.237791,-0.025249,0.161742,0.372153,-0.002933,-0.005558,0.002934,,,,,,,,
1697107753.261275,119897.000000,1697107753.247928,-0.026861,0.173372,0.389795,-0.003082,-0.005804,0.003021,,,,,,,,
1697107753.271553,119898.000000,1697107753.257925,-0.028648,0.184493,0.406714,-0.003221,-0.006036,0.003103,,,,,,,,
1697107753.282136,119899.000000,1697107753.267921,-0.030503,0.194042,0.420577,-0.003337,-0.006233,0.003167,,,,,,,,
1697107753.293710,119900.000000,1697107753.278104,-0.032174,0.201917,0.432684,-0.003432,-0.006404,0.003221,,,,,,,,
1697107753.302269,119901.000000,1697107753.288289,-0.033634,0.208512,0.444756,-0.003515,-0.006569,0.003274,,,,,,,,
1697107753.313429,119902.000000,1697107753.297925,-0.034808,0.213502,0.455221,-0.003586,-0.006713,0.003316,,,,,,,,
1697107753.322247,119903.000000,1697107753.307933,-0.035299,0.216504,0.462889,-0.003638,-0.006822,0.003335,,,,,,,,
1697107753.338559,119904.000000,1697107753.323101,-0.035189,0.217976,0.469049,-0.003672,-0.006904,0.003337,,,,,,,,
1697107753.349839,119905.000000,1697107753.327915,-0.035185,0.217762,0.472507,-0.003684,-0.006953,0.003326,,,,,,,,
1697107753.349851,119906.000000,1697107753.338008,-0.035562,0.215518,0.470421,-0.003662,-0.006946,0.003293,,,,,,,,
1697107753.362701,119907.000000,1697107753.348819,-0.035985,0.212559,0.465111,-0.003623,-0.006904,0.003258,,,,,,,,
1697107753.386133,119908.000000,1697107753.358717,-0.036710,0.209782,0.459138,-0.003583,-0.006859,0.003231,,,,,,,,
1697107753.392441,119910.000000,1697107753.378158,-0.039071,0.198128,0.432502,-0.003417,-0.006607,0.003084,,,,,,,,
1697107753.399439,119911.000000,1697107753.388021,-0.039288,0.190518,0.413090,-0.003307,-0.006401,0.002964,,,,,,,,
1697107753.412314,119912.000000,1697107753.401060,-0.038888,0.183566,0.392415,-0.003193,-0.006175,0.002834,,,,,,,,
1697107753.421432,119913.000000,1697107753.409760,-0.038162,0.177465,0.372698,-0.003082,-0.005956,0.002707,,,,,,,,
1697107753.438769,119914.000000,1697107753.418073,-0.037547,0.171814,0.354593,-0.002979,-0.005753,0.002589,,,,,,,,
1697107753.446810,119915.000000,1697107753.427919,-0.037492,0.166338,0.337312,-0.002878,-0.005555,0.002477,,,,,,,,
1697107753.456380,119916.000000,1697107753.438737,-0.037847,0.160509,0.319650,-0.002771,-0.005346,0.002365,,,,,,,,
1697107753.467694,119917.000000,1697107753.451415,-0.038267,0.154295,0.301846,-0.002656,-0.005126,0.002257,,,,,,,,
1697107753.474054,119918.000000,1697107753.457915,-0.038517,0.149089,0.286275,-0.002553,-0.004928,0.002168,,,,,,,,
1697107753.487375,119919.000000,1697107753.468043,-0.038626,0.145829,0.274066,-0.002476,-0.004772,0.002105,,,,,,,,
1697107753.501230,119920.000000,1697107753.477854,-0.039005,0.144564,0.264996,-0.002430,-0.004664,0.002063,,,,,,,,
1697107753.506686,119921.000000,1697107753.488132,-0.039606,0.144057,0.256989,-0.002399,-0.004577,0.002027,,,,,,,,
1697107753.510940,119922.000000,1697107753.497917,-0.039940,0.142650,0.247901,-0.002360,-0.004470,0.001983,,,,,,,,
1697107753.529356,119923.000000,1697107753.508461,-0.040020,0.140535,0.238685,-0.002313,-0.004355,0.001936,,,,,,,,
1697107753.531588,119924.000000,1697107753.517838,-0.039996,0.138618,0.230756,-0.002274,-0.004256,0.001893,,,,,,,,
1697107753.540063,119925.000000,1697107753.527987,-0.039700,0.136296,0.223193,-0.002234,-0.004157,0.001843,,,,,,,,
1697107753.549896,119926.000000,1697107753.537921,-0.039099,0.132682,0.214672,-0.002178,-0.004034,0.001780,,,,,,,,
1697107753.565937,119927.000000,1697107753.547925,-0.038211,0.127833,0.205115,-0.002105,-0.003887,0.001708,,,,,,,,
1697107753.577157,119928.000000,1697107753.559373,-0.036938,0.121777,0.194551,-0.002015,-0.003716,0.001628,,,,,,,,
1697107753.592319,119929.000000,1697107753.567912,-0.035498,0.115393,0.184378,-0.001924,-0.003545,0.001548,,,,,,,,
1697107753.603056,119931.000000,1697107753.588161,-0.031944,0.105195,0.169153,-0.001776,-0.003268,0.001428,,,,,,,,
1697107753.616112,119932.000000,1697107753.598251,-0.030014,0.101943,0.164089,-0.001723,-0.003170,0.001390,,,,,,,,
1697107753.623652,119933.000000,1697107753.608556,-0.028611,0.100010,0.161229,-0.001690,-0.003111,0.001372,,,,,,,,
1697107753.634907,119934.000000,1697107753.621912,-0.027856,0.099168,0.160401,-0.001673,-0.003089,0.001370,,,,,,,,
1697107753.647119,119935.000000,1697107753.628068,-0.027676,0.099848,0.161510,-0.001677,-0.003106,0.001387,,,,,,,,
1697107753.657456,119936.000000,1697107753.638084,-0.028175,0.102697,0.164856,-0.001712,-0.003168,0.001426,,,,,,,,
1697107753.667432,119937.000000,1697107753.653473,-0.029346,0.107514,0.170859,-0.001776,-0.003279,0.001490,,,,,,,,
1697107753.675362,119938.000000,1697107753.658955,-0.030740,0.112915,0.178237,-0.001852,-0.003410,0.001565,,,,,,,,
1697107753.684385,119939.000000,1697107753.667863,-0.032182,0.117825,0.185289,-0.001924,-0.003530,0.001636,,,,,,,,
1697107753.698925,119940.000000,1697107753.677906,-0.033401,0.121390,0.190958,-0.001977,-0.003622,0.001695,,,,,,,,
1697107753.710892,119941.000000,1697107753.689049,-0.034228,0.123578,0.195473,-0.002010,-0.003684,0.001742,,,,,,,,
1697107753.710928,119942.000000,1697107753.698042,-0.034949,0.125044,0.199485,-0.002036,-0.003735,0.001780,,,,,,,,
1697107753.726388,119943.000000,1697107753.707947,-0.035545,0.124953,0.201378,-0.002043,-0.003753,0.001794,,,,,,,,
1697107753.734766,119944.000000,1697107753.719774,-0.035833,0.122797,0.200201,-0.002020,-0.003723,0.001776,,,,,,,,
1697107753.744206,119945.000000,1697107753.728140,-0.035544,0.119162,0.196705,-0.001975,-0.003654,0.001737,,,,,,,,
1697107753.762389,119946.000000,1697107753.737867,-0.034602,0.114943,0.192040,-0.001921,-0.003561,0.001689,,,,,,,,
1697107753.773953,119947.000000,1697107753.747942,-0.033347,0.110817,0.186866,-0.001866,-0.003460,0.001634,,,,,,,,
1697107753.773981,119948.000000,1697107753.757782,-0.031910,0.106707,0.180805,-0.001808,-0.003348,0.001574,,,,,,,,
1697107753.784787,119949.000000,1697107753.768018,-0.030261,0.103339,0.175276,-0.001759,-0.003245,0.001524,,,,,,,,
1697107753.796474,119950.000000,1697107753.777914,-0.028577,0.101926,0.172850,-0.001737,-0.003189,0.001503,,,,,,,,
1697107753.801390,119951.000000,1697107753.787920,-0.026890,0.101983,0.172604,-0.001737,-0.003166,0.001502,,,,,,,,
1697107753.811894,119952.000000,1697107753.797837,-0.025211,0.102408,0.172180,-0.001740,-0.003146,0.001499,,,,,,,,
1697107753.822269,119953.000000,1697107753.807953,-0.023893,0.103832,0.172847,-0.001755,-0.003149,0.001500,,,,,,,,
1697107753.830684,119954.000000,1697107753.818629,-0.023165,0.106921,0.176113,-0.001793,-0.003198,0.001518,,,,,,,,
1697107753.841095,119955.000000,1697107753.827967,-0.022926,0.110986,0.181306,-0.001846,-0.003276,0.001546,,,,,,,,
1697107753.853146,119956.000000,1697107753.838027,-0.022838,0.114487,0.185913,-0.001891,-0.003348,0.001568,,,,,,,,
1697107753.864108,119957.000000,1697107753.850350,-0.022419,0.116022,0.187174,-0.001902,-0.003372,0.001567,,,,,,,,
1697107753.874592,119958.000000,1697107753.858499,-0.021585,0.115435,0.185152,-0.001879,-0.003347,0.001542,,,,,,,,
1697107753.883344,119959.000000,1697107753.868038,-0.020467,0.112858,0.180516,-0.001826,-0.003277,0.001498,,,,,,,,
1697107753.898220,119960.000000,1697107753.878077,-0.018879,0.108368,0.173075,-0.001748,-0.003161,0.001430,,,,,,,,
1697107753.903979,119961.000000,1697107753.888004,-0.016885,0.101761,0.162004,-0.001641,-0.002990,0.001334,,,,,,,,
1697107753.917140,119962.000000,1697107753.898019,-0.014707,0.092841,0.147186,-0.001501,-0.002758,0.001212,,,,,,,,
1697107753.927726,119963.000000,1697107753.907914,-0.012550,0.082656,0.130806,-0.001342,-0.002492,0.001081,,,,,,,,
1697107753.930158,119964.000000,1697107753.917856,-0.010763,0.072769,0.115215,-0.001186,-0.002231,0.000958,,,,,,,,
1697107753.943213,119965.000000,1697107753.927919,-0.009354,0.064538,0.102303,-0.001053,-0.002010,0.000857,,,,,,,,
1697107753.958638,119966.000000,1697107753.938033,-0.008222,0.058905,0.093640,-0.000960,-0.001859,0.000788,,,,,,,,
1697107753.971591,119967.000000,1697107753.947903,-0.007315,0.055060,0.087886,-0.000894,-0.001757,0.000742,,,,,,,,
1697107753.988192,119969.000000,1697107753.970086,-0.005868,0.048633,0.078044,-0.000782,-0.001580,0.000662,,,,,,,,
1697107754.001423,119970.000000,1697107753.979155,-0.005330,0.044662,0.071715,-0.000715,-0.001463,0.000611,,,,,,,,
1697107754.015446,119972.000000,1697107753.998648,-0.004646,0.037642,0.060630,-0.000600,-0.001251,0.000521,,,,,,,,
1697107754.029874,119973.000000,1697107754.009874,-0.004592,0.036654,0.059443,-0.000582,-0.001224,0.000514,,,,,,,,
1697107754.038829,119974.000000,1697107754.022084,-0.004633,0.036624,0.059821,-0.000578,-0.001226,0.000521,,,,,,,,
1697107754.042864,119975.000000,1697107754.028012,-0.004694,0.036881,0.060490,-0.000578,-0.001236,0.000531,,,,,,,,
1697107754.049681,119976.000000,1697107754.037831,-0.004788,0.037184,0.061047,-0.000577,-0.001245,0.000541,,,,,,,,
1697107754.062649,119977.000000,1697107754.048407,-0.004748,0.036573,0.059909,-0.000562,-0.001222,0.000536,,,,,,,,
1697107754.073092,119978.000000,1697107754.058007,-0.004394,0.034515,0.056200,-0.000527,-0.001150,0.000508,,,,,,,,
1697107754.086287,119979.000000,1697107754.068029,-0.003866,0.031740,0.051230,-0.000482,-0.001053,0.000468,,,,,,,,
1697107754.102027,119980.000000,1697107754.078386,-0.003363,0.028754,0.046007,-0.000434,-0.000950,0.000424,,,,,,,,
1697107754.110765,119982.000000,1697107754.097904,-0.002308,0.020487,0.032258,-0.000308,-0.000674,0.000305,,,,,,,,
1697107754.123710,119983.000000,1697107754.108231,-0.001822,0.016431,0.025679,-0.000247,-0.000540,0.000246,,,,,,,,
1697107754.133947,119984.000000,1697107754.118213,-0.001322,0.012489,0.019398,-0.000188,-0.000409,0.000188,,,,,,,,
1697107754.148545,119985.000000,1697107754.128655,-0.000779,0.008042,0.012417,-0.000121,-0.000263,0.000122,,,,,,,,
1697107754.160711,119986.000000,1697107754.138387,-0.000317,0.003704,0.005679,-0.000056,-0.000121,0.000057,,,,,,,,
1697107754.166600,119987.000000,1697107754.149053,-0.000058,0.000784,0.001196,-0.000012,-0.000025,0.000012,,,,,,,,
1697107754.175868,119988.000000,1697107754.158566,0.000000,0.000000,0.000000,0.000000,0.000000,0.000000,,,,,,,,
1697107754.188481,119989.000000,1697107754.167997,0.000000,0.000000,0.000000,0.000000,0.000000,0.000000,,,,,,,,
1697107754.198471,119990.000000,1697107754.178264,0.000000,0.000000,0.000000,0.000000,0.000000,0.000000,,,,,,,,
1697107754.222129,119991.000000,1697107754.188003,0.000000,0.000000,0.000000,0.000000,0.000000,0.000000,,,,,,,,
1697107754.228772,119993.000000,1697107754.208039,0.000000,0.000000,0.000000,0.000000,0.000000,0.000000,,,,,,,,
1697107754.242488,119994.000000,1697107754.218129,0.000000,0.000000,0.000000,0.000000,0.000000,0.000000,,,,,,,,
1697107754.249940,119995.000000,1697107754.228480,0.000000,0.000000,0.000000,0.000000,0.000000,0.000000,,,,,,,,
1697107754.259196,119996.000000,1697107754.237835,0.000000,0.000000,0.000000,0.000000,0.000000,0.000000,,,,,,,,
1697107754.266858,119997.000000,1697107754.248155,0.000000,0.000000,0.000000,0.000000,0.000000,0.000000,,,,,,,,
1697107754.276492,119998.000000,1697107754.257876,0.000000,0.000000,0.000000,0.000000,0.000000,0.000000,,,,,,,,
1697107754.289053,119999.000000,1697107754.268003,-0.000121,0.002021,0.002580,-0.000031,-0.000054,0.000029,,,,,,,,
1697107754.313788,120000.000000,1697107754.278398,-0.000396,0.006646,0.008252,-0.000099,-0.000173,0.000094,,,,,,,,
1697107754.318030,120001.000000,1697107754.288174,-0.000754,0.013327,0.016129,-0.000196,-0.000338,0.000186,,,,,,,,
1697107754.326271,120003.000000,1697107754.308009,-0.001406,0.031400,0.036469,-0.000448,-0.000758,0.000432,,,,,,,,
1697107754.329023,120004.000000,1697107754.317859,-0.001528,0.041541,0.047725,-0.000587,-0.000982,0.000572,,,,,,,,
1697107754.340776,120005.000000,1697107754.327876,-0.001529,0.051401,0.058701,-0.000719,-0.001194,0.000710,,,,,,,,
1697107754.353302,120006.000000,1697107754.337928,-0.001496,0.059739,0.068276,-0.000830,-0.001372,0.000833,,,,,,,,
1697107754.362905,120007.000000,1697107754.349544,-0.001440,0.067007,0.077392,-0.000928,-0.001533,0.000948,,,,,,,,
1697107754.373018,120008.000000,1697107754.360620,-0.001358,0.074609,0.087904,-0.001032,-0.001709,0.001074,,,,,,,,
1697107754.377913,120009.000000,1697107754.367925,-0.001314,0.083325,0.100723,-0.001153,-0.001913,0.001222,,,,,,,,
1697107754.397296,120010.000000,1697107754.382913,-0.001336,0.092217,0.114473,-0.001280,-0.002122,0.001374,,,,,,,,
1697107754.413965,120011.000000,1697107754.388900,-0.001310,0.099683,0.127038,-0.001389,-0.002302,0.001509,,,,,,,,
1697107754.424743,120012.000000,1697107754.399472,-0.001198,0.105742,0.138411,-0.001482,-0.002453,0.001626,,,,,,,,
1697107754.434563,120013.000000,1697107754.408009,-0.001129,0.110564,0.148252,-0.001559,-0.002577,0.001726,,,,,,,,
1697107754.440722,120014.000000,1697107754.418170,-0.001257,0.114474,0.156364,-0.001623,-0.002677,0.001805,,,,,,,,
1697107754.449750,120015.000000,1697107754.427992,-0.001681,0.118164,0.163491,-0.001682,-0.002770,0.001870,,,,,,,,
1697107754.459458,120016.000000,1697107754.437921,-0.002485,0.120521,0.168056,-0.001723,-0.002836,0.001907,,,,,,,,
1697107754.476947,120018.000000,1697107754.458052,-0.005257,0.119733,0.168186,-0.001736,-0.002864,0.001885,,,,,,,,
1697107754.487386,120019.000000,1697107754.467893,-0.006429,0.118540,0.167254,-0.001735,-0.002862,0.001862,,,,,,,,
1697107754.498440,120020.000000,1697107754.480176,-0.007111,0.117322,0.166576,-0.001735,-0.002859,0.001842,,,,,,,,
1697107754.513545,120021.000000,1697107754.487928,-0.007453,0.115610,0.165258,-0.001730,-0.002844,0.001814,,,,,,,,
1697107754.516641,120022.000000,1697107754.498176,-0.007345,0.112922,0.162631,-0.001711,-0.002809,0.001773,,,,,,,,
1697107754.524237,120023.000000,1697107754.507916,-0.006790,0.109317,0.158536,-0.001675,-0.002750,0.001718,,,,,,,,
1697107754.534749,120024.000000,1697107754.522080,-0.006103,0.104333,0.152063,-0.001618,-0.002657,0.001642,,,,,,,,
1697107754.541740,120025.000000,1697107754.529132,-0.005504,0.097316,0.142559,-0.001530,-0.002517,0.001538,,,,,,,,
1697107754.553701,120026.000000,1697107754.538746,-0.004892,0.089438,0.132022,-0.001429,-0.002354,0.001423,,,,,,,,
1697107754.575524,120027.000000,1697107754.547906,-0.004186,0.081673,0.121950,-0.001329,-0.002190,0.001312,,,,,,,,
1697107754.581179,120028.000000,1697107754.557879,-0.003514,0.073694,0.111721,-0.001222,-0.002018,0.001198,,,,,,,,
1697107754.585337,120029.000000,1697107754.567912,-0.002979,0.065831,0.101576,-0.001114,-0.001844,0.001081,,,,,,,,
1697107754.586349,120030.000000,1697107754.577913,-0.002555,0.058750,0.092218,-0.001014,-0.001682,0.000973,,,,,,,,
1697107754.605872,120031.000000,1697107754.595047,-0.002168,0.052242,0.083107,-0.000919,-0.001526,0.000871,,,,,,,,
1697107754.623048,120032.000000,1697107754.598117,-0.001791,0.045486,0.073125,-0.000814,-0.001354,0.000763,,,,,,,,
1697107754.624854,120033.000000,1697107754.607883,-0.001411,0.038398,0.062458,-0.000700,-0.001167,0.000650,,,,,,,,
1697107754.631610,120034.000000,1697107754.617925,-0.001029,0.031602,0.052063,-0.000587,-0.000979,0.000541,,,,,,,,
1697107754.642056,120035.000000,1697107754.628179,-0.000668,0.025282,0.042080,-0.000478,-0.000796,0.000438,,,,,,,,
1697107754.652716,120036.000000,1697107754.637896,-0.000367,0.020035,0.033646,-0.000384,-0.000640,0.000351,,,,,,,,
1697107754.663274,120037.000000,1697107754.650142,-0.000160,0.016837,0.028549,-0.000326,-0.000544,0.000298,,,,,,,,
1697107754.673919,120038.000000,1697107754.657904,-0.000018,0.015800,0.026995,-0.000308,-0.000514,0.000283,,,,,,,,
1697107754.684266,120039.000000,1697107754.668787,0.000122,0.016215,0.027784,-0.000316,-0.000528,0.000292,,,,,,,,
1697107754.701137,120040.000000,1697107754.679199,0.000258,0.016843,0.028803,-0.000327,-0.000547,0.000303,,,,,,,,
1697107754.708435,120042.000000,1697107754.698138,0.000337,0.015564,0.026233,-0.000298,-0.000501,0.000280,,,,,,,,
1697107754.725532,120043.000000,1697107754.707923,0.000380,0.013994,0.023391,-0.000266,-0.000449,0.000251,,,,,,,,
1697107754.738536,120044.000000,1697107754.718400,0.000439,0.012605,0.020942,-0.000238,-0.000403,0.000227,,,,,,,,
1697107754.752401,120046.000000,1697107754.738109,0.000535,0.011047,0.018195,-0.000207,-0.000350,0.000200,,,,,,,,
1697107754.768712,120047.000000,1697107754.747916,0.000578,0.010857,0.017767,-0.000203,-0.000341,0.000197,,,,,,,,
1697107754.783041,120049.000000,1697107754.768147,0.000602,0.010402,0.016975,-0.000195,-0.000325,0.000192,,,,,,,,
1697107754.803941,120050.000000,1697107754.777971,0.000716,0.011311,0.018637,-0.000213,-0.000355,0.000213,,,,,,,,
1697107754.813033,120052.000000,1697107754.797822,0.000889,0.012675,0.021451,-0.000244,-0.000401,0.000249,,,,,,,,
1697107754.827705,120053.000000,1697107754.808033,0.000900,0.013035,0.022384,-0.000253,-0.000416,0.000262,,,,,,,,
1697107754.845463,120055.000000,1697107754.827864,0.000792,0.013694,0.024268,-0.000270,-0.000445,0.000287,,,,,,,,
1697107754.870921,120056.000000,1697107754.837825,0.000722,0.014041,0.025085,-0.000278,-0.000458,0.000299,,,,,,,,
1697107754.887166,120058.000000,1697107754.857893,0.000833,0.016949,0.030618,-0.000336,-0.000552,0.000369,,,,,,,,
1697107754.901338,120059.000000,1697107754.867934,0.001030,0.019002,0.034582,-0.000376,-0.000617,0.000419,,,,,,,,
1697107754.908781,120060.000000,1697107754.878696,0.001295,0.020551,0.037680,-0.000406,-0.000665,0.000459,,,,,,,,
1697107754.921393,120061.000000,1697107754.888001,0.001673,0.021621,0.039979,-0.000427,-0.000697,0.000490,,,,,,,,
1697107754.936936,120062.000000,1697107754.898007,0.002215,0.022899,0.042852,-0.000451,-0.000737,0.000528,,,,,,,,
1697107754.943235,120063.000000,1697107754.908273,0.002907,0.024378,0.046434,-0.000481,-0.000785,0.000574,,,,,,,,
1697107754.954220,120064.000000,1697107754.917840,0.003675,0.025856,0.050285,-0.000510,-0.000835,0.000622,,,,,,,,
1697107754.965624,120066.000000,1697107754.937892,0.005419,0.028910,0.058339,-0.000568,-0.000941,0.000722,,,,,,,,
1697107754.981625,120067.000000,1697107754.949521,0.006402,0.030151,0.061988,-0.000591,-0.000988,0.000766,,,,,,,,
1697107754.991217,120068.000000,1697107754.962256,0.007313,0.030532,0.063744,-0.000597,-0.001007,0.000787,,,,,,,,
1697107755.001225,120070.000000,1697107754.978098,0.008534,0.029390,0.062079,-0.000571,-0.000973,0.000766,,,,,,,,
1697107755.010721,120071.000000,1697107754.989491,0.009223,0.029299,0.062411,-0.000568,-0.000973,0.000768,,,,,,,,
1697107755.024404,120072.000000,1697107754.998514,0.010105,0.029674,0.063950,-0.000576,-0.000992,0.000784,,,,,,,,
1697107755.032310,120073.000000,1697107755.007998,0.010986,0.029927,0.065306,-0.000581,-0.001010,0.000798,,,,,,,,
1697107755.052547,120074.000000,1697107755.018008,0.011679,0.029645,0.065437,-0.000578,-0.001010,0.000798,,,,,,,,
1697107755.063697,120075.000000,1697107755.030207,0.012341,0.029297,0.065200,-0.000573,-0.001005,0.000793,,,,,,,,
1697107755.071209,120076.000000,1697107755.038316,0.013361,0.029921,0.066855,-0.000585,-0.001029,0.000810,,,,,,,,
1697107755.075677,120077.000000,1697107755.048327,0.014797,0.031655,0.070763,-0.000618,-0.001085,0.000851,,,,,,,,
1697107755.084842,120078.000000,1697107755.057875,0.016206,0.033322,0.074474,-0.000651,-0.001142,0.000888,,,,,,,,
1697107755.096573,120079.000000,1697107755.067997,0.017121,0.033939,0.075981,-0.000666,-0.001169,0.000898,,,,,,,,
1697107755.105978,120080.000000,1697107755.077849,0.017412,0.033581,0.075396,-0.000664,-0.001167,0.000884,,,,,,,,
1697107755.117621,120082.000000,1697107755.097922,0.015787,0.030110,0.067442,-0.000602,-0.001062,0.000782,,,,,,,,
1697107755.134243,120083.000000,1697107755.107886,0.014392,0.027892,0.061995,-0.000558,-0.000988,0.000715,,,,,,,,
1697107755.142893,120085.000000,1697107755.127888,0.011337,0.023532,0.050750,-0.000467,-0.000830,0.000581,,,,,,,,
1697107755.156404,120086.000000,1697107755.137902,0.009827,0.021512,0.045480,-0.000424,-0.000754,0.000520,,,,,,,,
1697107755.165875,120087.000000,1697107755.147906,0.008163,0.019099,0.039526,-0.000374,-0.000666,0.000452,,,,,,,,
1697107755.177368,120088.000000,1697107755.157901,0.006198,0.015587,0.031599,-0.000303,-0.000543,0.000363,,,,,,,,
1697107755.189256,120089.000000,1697107755.168014,0.004029,0.010862,0.021596,-0.000211,-0.000379,0.000250,,,,,,,,
1697107755.194042,120090.000000,1697107755.178106,0.002056,0.005898,0.011505,-0.000114,-0.000207,0.000134,,,,,,,,
1697107755.198985,120091.000000,1697107755.188097,0.000387,0.001177,0.002251,-0.000023,-0.000041,0.000027,,,,,,,,
1697107755.217210,120092.000000,1697107755.198982,0.000000,0.000000,0.000000,0.000000,0.000000,0.000000,,,,,,,,
1697107755.223652,120093.000000,1697107755.210090,0.000000,0.000000,0.000000,0.000000,0.000000,0.000000,,,,,,,,
1697107755.236300,120094.000000,1697107755.218273,0.000000,0.000000,0.000000,0.000000,0.000000,0.000000,,,,,,,,
1697107755.249790,120095.000000,1697107755.228368,0.000000,0.000000,0.000000,0.000000,0.000000,0.000000,,,,,,,,
1697107755.255582,120097.000000,1697107755.247905,0.000000,0.000000,0.000000,0.000000,0.000000,0.000000,,,,,,,,
1697107755.266792,120098.000000,1697107755.258029,0.000000,0.000000,0.000000,0.000000,0.000000,0.000000,,,,,,,,
1697107755.277959,120099.000000,1697107755.267899,0.000070,0.000326,0.000543,-0.000006,-0.000011,0.000007,,,,,,,,
1697107755.292242,120100.000000,1697107755.277888,0.000607,0.002845,0.004648,-0.000052,-0.000093,0.000055,,,,,,,,
1697107755.303528,120101.000000,1697107755.288160,0.001161,0.005397,0.008667,-0.000099,-0.000174,0.000103,,,,,,,,
1697107755.312805,120102.000000,1697107755.297999,0.001724,0.007886,0.012490,-0.000144,-0.000252,0.000147,,,,,,,,
1697107755.322644,120103.000000,1697107755.307909,0.002247,0.009951,0.015554,-0.000182,-0.000315,0.000181,,,,,,,,
1697107755.337259,120104.000000,1697107755.318228,0.002602,0.010975,0.016930,-0.000202,-0.000344,0.000196,,,,,,,,
1697107755.351993,120105.000000,1697107755.328168,0.002814,0.011129,0.016987,-0.000206,-0.000347,0.000196,,,,,,,,
1697107755.359984,120107.000000,1697107755.349154,0.004119,0.013990,0.021101,-0.000261,-0.000432,0.000239,,,,,,,,
1697107755.373344,120108.000000,1697107755.360992,0.004709,0.014995,0.022519,-0.000282,-0.000461,0.000253,,,,,,,,
1697107755.386211,120109.000000,1697107755.369990,0.004913,0.015051,0.022488,-0.000284,-0.000462,0.000252,,,,,,,,
1697107755.394965,120110.000000,1697107755.377978,0.004796,0.014396,0.021377,-0.000273,-0.000441,0.000239,,,,,,,,
1697107755.404129,120111.000000,1697107755.387888,0.004555,0.013428,0.019826,-0.000257,-0.000411,0.000221,,,,,,,,
1697107755.425704,120112.000000,1697107755.397968,0.004421,0.012790,0.018796,-0.000246,-0.000391,0.000209,,,,,,,,
1697107755.434988,120113.000000,1697107755.407904,0.004484,0.012800,0.018717,-0.000247,-0.000391,0.000209,,,,,,,,
1697107755.440555,120114.000000,1697107755.417929,0.004597,0.013115,0.019047,-0.000253,-0.000399,0.000212,,,,,,,,
1697107755.444306,120115.000000,1697107755.428818,0.004639,0.013439,0.019340,-0.000259,-0.000407,0.000216,,,,,,,,
1697107755.454726,120116.000000,1697107755.438875,0.004514,0.013454,0.019150,-0.000258,-0.000405,0.000214,,,,,,,,
1697107755.469120,120117.000000,1697107755.448071,0.004226,0.013119,0.018472,-0.000250,-0.000393,0.000206,,,,,,,,
1697107755.484186,120119.000000,1697107755.468094,0.003644,0.012275,0.017043,-0.000230,-0.000363,0.000189,,,,,,,,
1697107755.500757,120120.000000,1697107755.477754,0.003211,0.011095,0.015318,-0.000207,-0.000326,0.000170,,,,,,,,
1697107755.510423,120122.000000,1697107755.498105,0.001321,0.004666,0.006340,-0.000087,-0.000135,0.000071,,,,,,,,
1697107755.523879,120123.000000,1697107755.507845,0.000027,0.000095,0.000128,-0.000002,-0.000003,0.000001,,,,,,,,
1697107755.542072,120124.000000,1697107755.518417,0.000000,0.000000,0.000000,0.000000,0.000000,0.000000,,,,,,,,
1697107755.556057,120126.000000,1697107755.539259,0.000000,0.000000,0.000000,0.000000,0.000000,0.000000,,,,,,,,
1697107755.571355,120127.000000,1697107755.548207,0.000000,0.000000,0.000000,0.000000,0.000000,0.000000,,,,,,,,
1697107755.583003,120129.000000,1697107755.568134,0.000000,0.000000,0.000000,0.000000,0.000000,0.000000,,,,,,,,
1697107755.599918,120130.000000,1697107755.578833,0.000000,0.000000,0.000000,0.000000,0.000000,0.000000,,,,,,,,
1697107755.622423,120132.000000,1697107755.598976,0.000000,0.000000,0.000000,0.000000,0.000000,0.000000,,,,,,,,
1697107755.636850,120133.000000,1697107755.608163,0.000000,0.000000,0.000000,0.000000,0.000000,0.000000,,,,,,,,
1697107755.638232,120134.000000,1697107755.618866,0.000000,0.000000,0.000000,0.000000,0.000000,0.000000,,,,,,,,
1697107755.642978,120135.000000,1697107755.627894,0.000000,0.000000,0.000000,0.000000,0.000000,0.000000,,,,,,,,
1697107755.650834,120136.000000,1697107755.638062,0.000000,0.000000,0.000000,0.000000,0.000000,0.000000,,,,,,,,
1697107755.658726,120137.000000,1697107755.647861,0.000000,0.000000,0.000000,0.000000,0.000000,0.000000,,,,,,,,
1697107755.672702,120138.000000,1697107755.657891,0.000000,0.000000,0.000000,0.000000,0.000000,0.000000,,,,,,,,
1697107755.678237,120139.000000,1697107755.668139,0.000000,0.000000,0.000000,0.000000,0.000000,0.000000,,,,,,,,
1697107755.689160,120140.000000,1697107755.677962,0.000000,0.000000,0.000000,0.000000,0.000000,0.000000,,,,,,,,
1697107755.701724,120141.000000,1697107755.688071,0.000000,0.000000,0.000000,0.000000,0.000000,0.000000,,,,,,,,
1697107755.713554,120142.000000,1697107755.697926,0.000000,0.000000,0.000000,0.000000,0.000000,0.000000,,,,,,,,
1697107755.722116,120143.000000,1697107755.708027,0.000000,0.000000,0.000000,0.000000,0.000000,0.000000,,,,,,,,
1697107755.731656,120144.000000,1697107755.719814,0.000000,0.000000,0.000000,0.000000,0.000000,0.000000,,,,,,,,
1697107755.747431,120145.000000,1697107755.727897,0.000000,0.000000,0.000000,0.000000,0.000000,0.000000,,,,,,,,
1697107755.766654,120146.000000,1697107755.738146,0.000000,0.000000,0.000000,0.000000,0.000000,0.000000,,,,,,,,
1697107755.769001,120148.000000,1697107755.758060,0.000000,0.000000,0.000000,0.000000,0.000000,0.000000,,,,,,,,
1697107755.785363,120149.000000,1697107755.767890,0.000000,0.000000,0.000000,0.000000,0.000000,0.000000,,,,,,,,
1697107755.798768,120150.000000,1697107755.779768,0.000000,0.000000,0.000000,0.000000,0.000000,0.000000,,,,,,,,
1697107755.812635,120152.000000,1697107755.797844,0.000000,0.000000,0.000000,0.000000,0.000000,0.000000,,,,,,,,
1697107755.827080,120153.000000,1697107755.807968,0.000000,0.000000,0.000000,0.000000,0.000000,0.000000,,,,,,,,
1697107755.844001,120154.000000,1697107755.818343,0.000000,0.000000,0.000000,0.000000,0.000000,0.000000,,,,,,,,
1697107755.853211,120156.000000,1697107755.837868,0.000000,0.000000,0.000000,0.000000,0.000000,0.000000,,,,,,,,
1697107755.864533,120157.000000,1697107755.848167,0.000000,0.000000,0.000000,0.000000,0.000000,0.000000,,,,,,,,
1697107755.873765,120158.000000,1697107755.860927,0.000000,0.000000,0.000000,0.000000,0.000000,0.000000,,,,,,,,
1697107755.895449,120159.000000,1697107755.869219,0.000000,0.000000,0.000000,0.000000,0.000000,0.000000,,,,,,,,
1697107755.902113,120161.000000,1697107755.887993,0.000000,0.000000,0.000000,0.000000,0.000000,0.000000,,,,,,,,
1697107755.928608,120162.000000,1697107755.901402,0.000000,0.000000,0.000000,0.000000,0.000000,0.000000,,,,,,,,
1697107755.933238,120164.000000,1697107755.918300,0.000000,0.000000,0.000000,0.000000,0.000000,0.000000,,,,,,,,
1697107755.943538,120165.000000,1697107755.930080,0.000000,0.000000,0.000000,0.000000,0.000000,0.000000,,,,,,,,
1697107755.956920,120166.000000,1697107755.937977,0.000000,0.000000,0.000000,0.000000,0.000000,0.000000,,,,,,,,
1697107755.964906,120167.000000,1697107755.948164,0.000000,0.000000,0.000000,0.000000,0.000000,0.000000,,,,,,,,
1697107755.975559,120168.000000,1697107755.957887,0.000000,0.000000,0.000000,0.000000,0.000000,0.000000,,,,,,,,
1697107755.986095,120169.000000,1697107755.967976,0.000000,0.000000,0.000000,0.000000,0.000000,0.000000,,,,,,,,
1697107755.996354,120170.000000,1697107755.977977,0.000000,0.000000,0.000000,0.000000,0.000000,0.000000,,,,,,,,
1697107756.010253,120171.000000,1697107755.991127,0.000000,0.000000,0.000000,0.000000,0.000000,0.000000,,,,,,,,
