__time,/kms40_driver/wrench/header/seq,/kms40_driver/wrench/header/stamp,/kms40_driver/wrench/wrench/force/x,/kms40_driver/wrench/wrench/force/y,/kms40_driver/wrench/wrench/force/z,/kms40_driver/wrench/wrench/torque/x,/kms40_driver/wrench/wrench/torque/y,/kms40_driver/wrench/wrench/torque/z
1696857273.516321,681131.000000000,1696857273.513803005,-0.054000000,-0.179000000,-0.022000000,-0.001000000,0.000000000,0.000000000
1696857273.517135,681132.000000000,1696857273.515782833,-0.053000000,-0.180000000,-0.022000000,-0.001000000,0.000000000,0.000000000
1696857273.519171,681133.000000000,1696857273.517796755,-0.052000000,-0.180000000,-0.023000000,-0.001000000,0.000000000,0.000000000
1696857273.521343,681134.000000000,1696857273.519804478,-0.052000000,-0.180000000,-0.024000000,-0.001000000,0.000000000,0.000000000
1696857273.523181,681135.000000000,1696857273.521785021,-0.051000000,-0.179000000,-0.025000000,-0.001000000,0.000000000,0.000000000
1696857273.525090,681136.000000000,1696857273.523772717,-0.051000000,-0.178000000,-0.025000000,-0.001000000,0.000000000,0.000000000
1696857273.527081,681137.000000000,1696857273.525779963,-0.051000000,-0.175000000,-0.023000000,-0.001000000,0.000000000,0.000000000
1696857273.529182,681138.000000000,1696857273.527786255,-0.050000000,-0.172000000,-0.024000000,-0.001000000,0.000000000,0.000000000
1696857273.531160,681139.000000000,1696857273.529810667,-0.050000000,-0.170000000,-0.024000000,-0.001000000,0.000000000,0.000000000
1696857273.533148,681140.000000000,1696857273.531768560,-0.050000000,-0.168000000,-0.024000000,-0.001000000,0.000000000,0.000000000
1696857273.535389,681141.000000000,1696857273.533901215,-0.050000000,-0.167000000,-0.025000000,-0.001000000,0.000000000,0.000000000
1696857273.554563,681150.000000000,1696857273.553073168,-0.049000000,-0.162000000,-0.037000000,-0.001000000,0.000000000,0.000000000
1696857273.563411,681155.000000000,1696857273.561800241,-0.051000000,-0.162000000,-0.051000000,0.000000000,0.000000000,0.000000000
1696857273.574913,681160.000000000,1696857273.571757555,-0.053000000,-0.159000000,-0.064000000,0.000000000,0.000000000,0.001000000
1696857273.575162,681161.000000000,1696857273.573806047,-0.054000000,-0.156000000,-0.068000000,0.000000000,0.000000000,0.001000000
1696857273.577435,681162.000000000,1696857273.575741768,-0.055000000,-0.154000000,-0.070000000,0.000000000,0.000000000,0.001000000
1696857273.579153,681163.000000000,1696857273.577773094,-0.055000000,-0.153000000,-0.073000000,0.000000000,0.000000000,0.001000000
1696857273.581170,681164.000000000,1696857273.579799652,-0.056000000,-0.153000000,-0.076000000,0.000000000,0.000000000,0.001000000
1696857273.583158,681165.000000000,1696857273.581806421,-0.056000000,-0.154000000,-0.080000000,0.000000000,0.000000000,0.001000000
1696857273.585148,681166.000000000,1696857273.583795786,-0.057000000,-0.155000000,-0.083000000,0.000000000,0.000000000,0.001000000
1696857273.587094,681167.000000000,1696857273.585804462,-0.057000000,-0.157000000,-0.085000000,0.000000000,0.000000000,0.001000000
1696857273.589090,681168.000000000,1696857273.587775946,-0.057000000,-0.158000000,-0.088000000,0.000000000,0.000000000,0.001000000
1696857273.591278,681169.000000000,1696857273.589803219,-0.057000000,-0.157000000,-0.090000000,0.000000000,0.000000000,0.002000000
1696857273.593069,681170.000000000,1696857273.591757774,-0.057000000,-0.157000000,-0.092000000,0.000000000,0.000000000,0.002000000
1696857273.602867,681174.000000000,1696857273.599788904,-0.058000000,-0.150000000,-0.094000000,0.000000000,0.000000000,0.002000000
1696857273.618437,681182.000000000,1696857273.615803719,-0.054000000,-0.158000000,-0.090000000,0.000000000,0.000000000,0.002000000
1696857273.619162,681183.000000000,1696857273.617829561,-0.053000000,-0.157000000,-0.088000000,0.000000000,0.000000000,0.001000000
1696857273.621241,681184.000000000,1696857273.619773865,-0.053000000,-0.156000000,-0.084000000,-0.001000000,0.000000000,0.001000000
1696857273.623176,681185.000000000,1696857273.621777058,-0.052000000,-0.155000000,-0.081000000,-0.001000000,0.000000000,0.001000000
1696857273.625081,681186.000000000,1696857273.623771906,-0.052000000,-0.156000000,-0.079000000,-0.001000000,0.000000000,0.001000000
1696857273.627160,681187.000000000,1696857273.625783443,-0.051000000,-0.157000000,-0.076000000,-0.001000000,0.000000000,0.001000000
1696857273.629098,681188.000000000,1696857273.627744436,-0.050000000,-0.159000000,-0.073000000,-0.001000000,0.000000000,0.001000000
1696857273.631129,681189.000000000,1696857273.629760265,-0.049000000,-0.162000000,-0.071000000,-0.001000000,0.000000000,0.001000000
1696857273.633254,681190.000000000,1696857273.631745815,-0.048000000,-0.164000000,-0.067000000,-0.001000000,0.000000000,0.001000000
1696857273.635063,681191.000000000,1696857273.633762836,-0.046000000,-0.166000000,-0.064000000,-0.001000000,0.000000000,0.001000000
1696857273.637067,681192.000000000,1696857273.635782242,-0.046000000,-0.168000000,-0.061000000,-0.001000000,0.000000000,0.001000000
1696857273.639121,681193.000000000,1696857273.637784481,-0.044000000,-0.168000000,-0.058000000,-0.001000000,0.000000000,0.001000000
1696857273.641444,681194.000000000,1696857273.639850140,-0.044000000,-0.167000000,-0.054000000,-0.001000000,0.000000000,0.001000000
1696857273.643453,681195.000000000,1696857273.641810179,-0.043000000,-0.167000000,-0.048000000,-0.001000000,0.000000000,0.000000000
1696857273.645070,681196.000000000,1696857273.643762827,-0.042000000,-0.166000000,-0.045000000,-0.001000000,0.000000000,0.000000000
1696857273.661777,681203.000000000,1696857273.657779694,-0.038000000,-0.179000000,-0.027000000,0.000000000,0.000000000,0.000000000
1696857273.662243,681204.000000000,1696857273.659772158,-0.037000000,-0.179000000,-0.025000000,0.000000000,0.000000000,0.000000000
1696857273.675088,681210.000000000,1696857273.671765804,-0.038000000,-0.180000000,-0.013000000,-0.001000000,0.000000000,0.000000000
1696857273.675509,681211.000000000,1696857273.673877239,-0.038000000,-0.181000000,-0.012000000,-0.001000000,0.000000000,0.000000000
1696857273.677202,681212.000000000,1696857273.675853729,-0.038000000,-0.184000000,-0.012000000,0.000000000,0.000000000,0.000000000
1696857273.679125,681213.000000000,1696857273.677816868,-0.038000000,-0.186000000,-0.012000000,0.000000000,0.000000000,0.000000000
1696857273.681101,681214.000000000,1696857273.679760695,-0.038000000,-0.188000000,-0.012000000,0.000000000,0.000000000,0.000000000
1696857273.683157,681215.000000000,1696857273.681812286,-0.038000000,-0.188000000,-0.012000000,0.000000000,0.000000000,0.000000000
1696857273.685123,681216.000000000,1696857273.683794975,-0.039000000,-0.188000000,-0.009000000,0.000000000,0.000000000,0.000000000
1696857273.687163,681217.000000000,1696857273.685837746,-0.040000000,-0.187000000,-0.007000000,0.000000000,0.000000000,0.000000000
1696857273.704528,681225.000000000,1696857273.701789856,-0.044000000,-0.191000000,-0.004000000,0.000000000,0.000000000,0.000000000
1696857273.705533,681226.000000000,1696857273.703817368,-0.044000000,-0.191000000,-0.004000000,0.000000000,0.000000000,0.000000000
1696857273.707084,681227.000000000,1696857273.705796003,-0.045000000,-0.191000000,-0.002000000,0.000000000,0.000000000,0.000000000
1696857273.709004,681228.000000000,1696857273.707746029,-0.045000000,-0.189000000,-0.001000000,0.000000000,0.000000000,0.000000000
1696857273.711073,681229.000000000,1696857273.709781647,-0.046000000,-0.187000000,0.000000000,0.000000000,0.000000000,0.000000000
1696857273.713056,681230.000000000,1696857273.711771965,-0.047000000,-0.185000000,0.002000000,0.000000000,0.000000000,0.000000000
1696857273.715165,681231.000000000,1696857273.713774920,-0.047000000,-0.184000000,0.004000000,0.000000000,0.000000000,0.000000000
1696857273.717034,681232.000000000,1696857273.715757370,-0.048000000,-0.184000000,0.004000000,0.000000000,0.000000000,0.000000000
1696857273.719082,681233.000000000,1696857273.717795610,-0.048000000,-0.184000000,0.005000000,0.000000000,0.000000000,0.000000000
1696857273.721279,681234.000000000,1696857273.719771385,-0.048000000,-0.186000000,0.006000000,0.000000000,0.000000000,0.000000000
1696857273.723057,681235.000000000,1696857273.721767426,-0.049000000,-0.187000000,0.007000000,0.000000000,0.000000000,0.000000000
1696857273.725120,681236.000000000,1696857273.723780870,-0.049000000,-0.188000000,0.008000000,0.000000000,0.000000000,0.000000000
1696857273.727312,681237.000000000,1696857273.725775242,-0.048000000,-0.188000000,0.009000000,0.000000000,0.000000000,0.000000000
1696857273.729281,681238.000000000,1696857273.727821589,-0.049000000,-0.188000000,0.010000000,0.000000000,0.000000000,0.000000000
1696857273.748445,681247.000000000,1696857273.745792150,-0.049000000,-0.182000000,0.020000000,0.000000000,0.000000000,0.000000000
1696857273.749198,681248.000000000,1696857273.747774601,-0.048000000,-0.182000000,0.020000000,0.000000000,0.000000000,0.000000000
1696857273.751131,681249.000000000,1696857273.749815464,-0.048000000,-0.182000000,0.020000000,0.000000000,0.000000000,0.000000000
1696857273.753228,681250.000000000,1696857273.751833916,-0.048000000,-0.180000000,0.020000000,0.000000000,0.000000000,0.000000000
1696857273.755110,681251.000000000,1696857273.753775358,-0.048000000,-0.178000000,0.021000000,0.000000000,0.000000000,0.000000000
1696857273.757699,681252.000000000,1696857273.755752802,-0.048000000,-0.176000000,0.022000000,0.000000000,0.000000000,0.000000000
1696857273.759079,681253.000000000,1696857273.757774115,-0.048000000,-0.174000000,0.021000000,-0.001000000,0.000000000,0.000000000
1696857273.761173,681254.000000000,1696857273.759780407,-0.047000000,-0.173000000,0.021000000,-0.001000000,0.000000000,0.000000000
1696857273.763102,681255.000000000,1696857273.761801720,-0.048000000,-0.173000000,0.020000000,-0.001000000,0.000000000,0.000000000
1696857273.765115,681256.000000000,1696857273.763772726,-0.047000000,-0.173000000,0.018000000,-0.001000000,0.000000000,0.000000000
1696857273.767126,681257.000000000,1696857273.765843630,-0.047000000,-0.174000000,0.017000000,0.000000000,0.000000000,0.000000000
1696857273.769555,681258.000000000,1696857273.767870903,-0.046000000,-0.176000000,0.015000000,0.000000000,0.000000000,0.000000000
1696857273.771270,681259.000000000,1696857273.769783020,-0.046000000,-0.177000000,0.014000000,0.000000000,0.000000000,0.000000000
1696857273.789688,681268.000000000,1696857273.787787437,-0.045000000,-0.172000000,0.000000000,-0.001000000,0.000000000,0.000000000
1696857273.791565,681269.000000000,1696857273.789820671,-0.044000000,-0.173000000,-0.001000000,-0.001000000,0.000000000,0.000000000
1696857273.807937,681277.000000000,1696857273.805841208,-0.045000000,-0.170000000,-0.012000000,-0.001000000,0.000000000,0.000000000
1696857273.809475,681278.000000000,1696857273.808022976,-0.046000000,-0.171000000,-0.013000000,-0.001000000,0.000000000,0.000000000
1696857273.811145,681279.000000000,1696857273.809837103,-0.046000000,-0.172000000,-0.016000000,-0.001000000,0.000000000,0.000000000
1696857273.813080,681280.000000000,1696857273.811765194,-0.046000000,-0.174000000,-0.016000000,-0.001000000,0.000000000,0.000000000
1696857273.826228,681286.000000000,1696857273.823755026,-0.047000000,-0.175000000,-0.025000000,-0.001000000,0.000000000,0.000000000
1696857273.827959,681287.000000000,1696857273.825779676,-0.048000000,-0.173000000,-0.026000000,-0.001000000,0.000000000,0.000000000
1696857273.829057,681288.000000000,1696857273.827758789,-0.048000000,-0.172000000,-0.028000000,-0.001000000,0.000000000,0.000000000
1696857273.831109,681289.000000000,1696857273.829812765,-0.049000000,-0.172000000,-0.031000000,-0.001000000,0.000000000,0.000000000
1696857273.833197,681290.000000000,1696857273.831797600,-0.049000000,-0.173000000,-0.034000000,-0.001000000,0.000000000,0.000000000
1696857273.835105,681291.000000000,1696857273.833825350,-0.049000000,-0.174000000,-0.036000000,-0.001000000,0.000000000,0.000000000
1696857273.837094,681292.000000000,1696857273.835803032,-0.049000000,-0.176000000,-0.040000000,-0.001000000,0.000000000,0.000000000
1696857273.839323,681293.000000000,1696857273.837829590,-0.049000000,-0.177000000,-0.042000000,0.000000000,0.000000000,0.000000000
1696857273.841830,681294.000000000,1696857273.839776754,-0.049000000,-0.178000000,-0.046000000,0.000000000,0.000000000,0.000000000
1696857273.844050,681295.000000000,1696857273.842670918,-0.049000000,-0.177000000,-0.050000000,0.000000000,0.000000000,0.000000000
1696857273.845665,681296.000000000,1696857273.844233751,-0.049000000,-0.176000000,-0.053000000,0.000000000,0.000000000,0.000000000
1696857273.847097,681297.000000000,1696857273.845773220,-0.049000000,-0.174000000,-0.055000000,0.000000000,0.000000000,0.000000000
1696857273.849311,681298.000000000,1696857273.847774982,-0.050000000,-0.172000000,-0.058000000,-0.001000000,0.000000000,0.000000000
1696857273.851285,681299.000000000,1696857273.849809170,-0.050000000,-0.170000000,-0.062000000,-0.001000000,0.000000000,0.001000000
1696857273.853215,681300.000000000,1696857273.851871252,-0.050000000,-0.169000000,-0.066000000,-0.001000000,0.000000000,0.001000000
1696857273.855303,681301.000000000,1696857273.853794336,-0.050000000,-0.169000000,-0.070000000,0.000000000,0.000000000,0.001000000
1696857273.857189,681302.000000000,1696857273.855802774,-0.050000000,-0.169000000,-0.076000000,0.000000000,0.000000000,0.001000000
1696857273.871540,681309.000000000,1696857273.869808912,-0.048000000,-0.164000000,-0.102000000,0.000000000,0.000000000,0.001000000
1696857273.873633,681310.000000000,1696857273.871736050,-0.048000000,-0.162000000,-0.105000000,0.000000000,0.000000000,0.002000000
1696857273.875088,681311.000000000,1696857273.873774767,-0.048000000,-0.160000000,-0.108000000,0.000000000,0.000000000,0.002000000
1696857273.877003,681312.000000000,1696857273.875744343,-0.048000000,-0.159000000,-0.112000000,0.000000000,0.000000000,0.002000000
1696857273.879075,681313.000000000,1696857273.877764702,-0.047000000,-0.160000000,-0.114000000,0.000000000,0.000000000,0.002000000
1696857273.882134,681314.000000000,1696857273.879756451,-0.046000000,-0.160000000,-0.117000000,0.000000000,0.000000000,0.002000000
1696857273.890026,681318.000000000,1696857273.887790442,-0.045000000,-0.161000000,-0.122000000,0.000000000,0.000000000,0.002000000
1696857273.891125,681319.000000000,1696857273.889827728,-0.045000000,-0.159000000,-0.122000000,0.000000000,0.000000000,0.002000000
1696857273.893156,681320.000000000,1696857273.891780376,-0.045000000,-0.157000000,-0.120000000,0.000000000,0.000000000,0.002000000
1696857273.896513,681321.000000000,1696857273.893767595,-0.045000000,-0.155000000,-0.118000000,0.000000000,0.000000000,0.002000000
1696857273.908545,681327.000000000,1696857273.905796528,-0.044000000,-0.157000000,-0.105000000,0.000000000,0.000000000,0.001000000
1696857273.929413,681337.000000000,1696857273.925827980,-0.044000000,-0.157000000,-0.063000000,0.000000000,0.000000000,0.000000000
1696857273.952329,681349.000000000,1696857273.949817657,-0.047000000,-0.166000000,-0.029000000,0.000000000,0.000000000,0.000000000
1696857273.955856,681351.000000000,1696857273.953822374,-0.047000000,-0.170000000,-0.028000000,0.000000000,0.000000000,0.000000000
1696857273.957107,681352.000000000,1696857273.955772638,-0.047000000,-0.170000000,-0.029000000,0.000000000,0.000000000,0.000000000
1696857273.959149,681353.000000000,1696857273.957795382,-0.047000000,-0.170000000,-0.028000000,0.000000000,0.000000000,0.000000000
1696857273.962435,681354.000000000,1696857273.959782362,-0.048000000,-0.169000000,-0.026000000,0.000000000,0.000000000,0.000000000
1696857273.963442,681355.000000000,1696857273.961796284,-0.048000000,-0.168000000,-0.026000000,0.000000000,0.000000000,0.000000000
1696857273.965083,681356.000000000,1696857273.963773727,-0.049000000,-0.168000000,-0.025000000,0.000000000,0.000000000,0.000000000
1696857273.967191,681357.000000000,1696857273.965808153,-0.049000000,-0.168000000,-0.026000000,0.000000000,0.000000000,0.000000000
1696857273.969370,681358.000000000,1696857273.967831135,-0.050000000,-0.170000000,-0.026000000,0.000000000,0.000000000,0.000000000
1696857273.971204,681359.000000000,1696857273.969825983,-0.050000000,-0.171000000,-0.027000000,0.000000000,0.000000000,0.000000000
1696857273.989143,681367.000000000,1696857273.985789776,-0.049000000,-0.177000000,-0.025000000,0.000000000,0.000000000,0.000000000
1696857273.989434,681368.000000000,1696857273.987774611,-0.049000000,-0.176000000,-0.025000000,0.000000000,0.000000000,0.000000000
1696857273.991149,681369.000000000,1696857273.989839554,-0.049000000,-0.177000000,-0.025000000,0.000000000,0.000000000,0.000000000
1696857273.993134,681370.000000000,1696857273.991811991,-0.049000000,-0.179000000,-0.025000000,0.000000000,0.000000000,0.000000000
1696857273.995154,681371.000000000,1696857273.993779182,-0.049000000,-0.181000000,-0.024000000,0.000000000,0.000000000,0.000000000
1696857273.997178,681372.000000000,1696857273.995774984,-0.048000000,-0.183000000,-0.023000000,0.000000000,0.000000000,0.000000000
1696857273.999306,681373.000000000,1696857273.997826099,-0.048000000,-0.185000000,-0.023000000,0.000000000,0.000000000,0.000000000
1696857274.001199,681374.000000000,1696857273.999772072,-0.048000000,-0.187000000,-0.022000000,0.000000000,0.000000000,0.000000000
1696857274.003217,681375.000000000,1696857274.001822710,-0.048000000,-0.186000000,-0.020000000,0.000000000,0.000000000,0.000000000
1696857274.005261,681376.000000000,1696857274.003876925,-0.048000000,-0.185000000,-0.017000000,0.000000000,0.000000000,0.000000000
1696857274.007505,681377.000000000,1696857274.005770445,-0.048000000,-0.184000000,-0.016000000,0.000000000,0.000000000,0.000000000
1696857274.009322,681378.000000000,1696857274.007741451,-0.048000000,-0.182000000,-0.013000000,0.000000000,0.000000000,0.000000000
1696857274.011232,681379.000000000,1696857274.009768963,-0.048000000,-0.181000000,-0.010000000,0.000000000,0.000000000,0.000000000
1696857274.013225,681380.000000000,1696857274.011799335,-0.048000000,-0.181000000,-0.009000000,0.000000000,0.000000000,0.000000000
1696857274.031543,681389.000000000,1696857274.029794931,-0.049000000,-0.183000000,0.002000000,-0.001000000,0.000000000,0.000000000
1696857274.033095,681390.000000000,1696857274.031773090,-0.050000000,-0.181000000,0.005000000,-0.001000000,0.000000000,0.000000000
1696857274.035126,681391.000000000,1696857274.033792973,-0.050000000,-0.180000000,0.005000000,-0.001000000,0.000000000,0.000000000
1696857274.037216,681392.000000000,1696857274.035837173,-0.051000000,-0.180000000,0.005000000,-0.001000000,0.000000000,0.000000000
1696857274.039102,681393.000000000,1696857274.037785530,-0.051000000,-0.181000000,0.006000000,-0.001000000,0.000000000,0.000000000
1696857274.041792,681394.000000000,1696857274.039854765,-0.051000000,-0.183000000,0.005000000,-0.001000000,0.000000000,0.000000000
1696857274.043072,681395.000000000,1696857274.041774035,-0.052000000,-0.184000000,0.005000000,-0.001000000,0.000000000,0.000000000
1696857274.045058,681396.000000000,1696857274.043770552,-0.052000000,-0.186000000,0.005000000,0.000000000,0.000000000,0.000000000
1696857274.047090,681397.000000000,1696857274.045794487,-0.052000000,-0.186000000,0.004000000,0.000000000,0.000000000,0.000000000
1696857274.049075,681398.000000000,1696857274.047757626,-0.052000000,-0.186000000,0.004000000,0.000000000,0.000000000,0.000000000
1696857274.051215,681399.000000000,1696857274.049868584,-0.053000000,-0.185000000,0.004000000,-0.001000000,0.000000000,0.000000000
1696857274.053152,681400.000000000,1696857274.051845789,-0.053000000,-0.183000000,0.003000000,-0.001000000,0.000000000,0.000000000
1696857274.055134,681401.000000000,1696857274.053789139,-0.054000000,-0.181000000,0.003000000,-0.001000000,0.000000000,0.000000000
1696857274.071360,681409.000000000,1696857274.069808483,-0.056000000,-0.189000000,-0.009000000,0.000000000,0.000000000,0.000000000
1696857274.080972,681413.000000000,1696857274.077799082,-0.056000000,-0.184000000,-0.011000000,-0.001000000,0.000000000,0.000000000
1696857274.091486,681419.000000000,1696857274.089826107,-0.054000000,-0.191000000,-0.018000000,0.000000000,0.000000000,0.000000000
1696857274.093062,681420.000000000,1696857274.091789961,-0.053000000,-0.192000000,-0.020000000,0.000000000,0.000000000,0.000000000
1696857274.095067,681421.000000000,1696857274.093789339,-0.053000000,-0.191000000,-0.020000000,0.000000000,0.000000000,0.000000000
1696857274.097496,681422.000000000,1696857274.095801353,-0.053000000,-0.190000000,-0.019000000,0.000000000,0.000000000,0.000000000
1696857274.099112,681423.000000000,1696857274.097810507,-0.052000000,-0.188000000,-0.018000000,0.000000000,0.000000000,0.000000000
1696857274.101057,681424.000000000,1696857274.099781275,-0.052000000,-0.186000000,-0.018000000,0.000000000,0.000000000,0.000000000
1696857274.103134,681425.000000000,1696857274.101840734,-0.052000000,-0.185000000,-0.018000000,-0.001000000,0.000000000,0.000000000
1696857274.105192,681426.000000000,1696857274.103799105,-0.052000000,-0.184000000,-0.018000000,-0.001000000,0.000000000,0.000000000
1696857274.107095,681427.000000000,1696857274.105799437,-0.051000000,-0.185000000,-0.018000000,0.000000000,0.000000000,0.000000000
1696857274.109132,681428.000000000,1696857274.107775450,-0.051000000,-0.186000000,-0.018000000,0.000000000,0.000000000,0.000000000
1696857274.111169,681429.000000000,1696857274.109801769,-0.050000000,-0.187000000,-0.018000000,0.000000000,0.000000000,0.000000000
1696857274.123145,681435.000000000,1696857274.121795654,-0.048000000,-0.178000000,-0.020000000,0.000000000,0.000000000,0.000000000
1696857274.131207,681439.000000000,1696857274.129798174,-0.049000000,-0.172000000,-0.026000000,-0.001000000,0.000000000,0.000000000
1696857274.134171,681440.000000000,1696857274.132832527,-0.049000000,-0.173000000,-0.029000000,0.000000000,0.000000000,0.000000000
1696857274.135406,681441.000000000,1696857274.134149075,-0.049000000,-0.173000000,-0.033000000,0.000000000,0.000000000,0.000000000
1696857274.137265,681442.000000000,1696857274.135899544,-0.049000000,-0.172000000,-0.035000000,0.000000000,0.000000000,0.000000000
1696857274.139104,681443.000000000,1696857274.137795687,-0.049000000,-0.171000000,-0.038000000,0.000000000,0.000000000,0.000000000
1696857274.141448,681444.000000000,1696857274.139856815,-0.049000000,-0.168000000,-0.041000000,0.000000000,0.000000000,0.000000000
1696857274.143088,681445.000000000,1696857274.141796827,-0.050000000,-0.165000000,-0.044000000,0.000000000,0.000000000,0.000000000
1696857274.145266,681446.000000000,1696857274.143919468,-0.051000000,-0.162000000,-0.046000000,-0.001000000,0.000000000,0.000000000
1696857274.148245,681447.000000000,1696857274.145844221,-0.051000000,-0.159000000,-0.049000000,-0.001000000,0.000000000,0.000000000
1696857274.149100,681448.000000000,1696857274.147760868,-0.052000000,-0.156000000,-0.053000000,-0.001000000,0.000000000,0.000000000
1696857274.151105,681449.000000000,1696857274.149777889,-0.053000000,-0.155000000,-0.057000000,-0.001000000,0.000000000,0.000000000
1696857274.153115,681450.000000000,1696857274.151827812,-0.053000000,-0.155000000,-0.061000000,-0.001000000,0.000000000,0.000000000
1696857274.155196,681451.000000000,1696857274.153836966,-0.054000000,-0.156000000,-0.066000000,-0.001000000,0.000000000,0.000000000
1696857274.157114,681452.000000000,1696857274.155825377,-0.054000000,-0.156000000,-0.069000000,-0.001000000,0.000000000,0.000000000
1696857274.159088,681453.000000000,1696857274.157810211,-0.055000000,-0.156000000,-0.074000000,0.000000000,0.000000000,0.001000000
1696857274.161432,681454.000000000,1696857274.159805298,-0.055000000,-0.156000000,-0.078000000,0.000000000,0.000000000,0.001000000
1696857274.163525,681455.000000000,1696857274.161880493,-0.055000000,-0.155000000,-0.083000000,0.000000000,0.000000000,0.001000000
1696857274.165103,681456.000000000,1696857274.163778543,-0.056000000,-0.153000000,-0.084000000,-0.001000000,0.000000000,0.001000000
1696857274.183538,681465.000000000,1696857274.181794643,-0.060000000,-0.156000000,-0.103000000,0.000000000,0.000000000,0.001000000
1696857274.191498,681469.000000000,1696857274.189801455,-0.061000000,-0.156000000,-0.097000000,-0.001000000,0.000000000,0.001000000
1696857274.193539,681470.000000000,1696857274.191771746,-0.061000000,-0.156000000,-0.096000000,-0.001000000,0.000000000,0.001000000
1696857274.195116,681471.000000000,1696857274.193821907,-0.061000000,-0.156000000,-0.093000000,-0.001000000,0.000000000,0.001000000
1696857274.197175,681472.000000000,1696857274.195807934,-0.061000000,-0.158000000,-0.092000000,-0.001000000,0.000000000,0.001000000
1696857274.199136,681473.000000000,1696857274.197805405,-0.061000000,-0.160000000,-0.090000000,-0.001000000,0.000000000,0.001000000
1696857274.201330,681474.000000000,1696857274.199814796,-0.060000000,-0.163000000,-0.087000000,0.000000000,0.000000000,0.001000000
1696857274.203213,681475.000000000,1696857274.201804399,-0.060000000,-0.167000000,-0.085000000,0.000000000,0.000000000,0.001000000
1696857274.205202,681476.000000000,1696857274.203808546,-0.059000000,-0.169000000,-0.082000000,0.000000000,0.000000000,0.001000000
1696857274.207274,681477.000000000,1696857274.205824614,-0.058000000,-0.171000000,-0.079000000,0.000000000,0.000000000,0.001000000
1696857274.209589,681478.000000000,1696857274.207799435,-0.058000000,-0.172000000,-0.074000000,0.000000000,0.000000000,0.001000000
1696857274.226785,681486.000000000,1696857274.223874569,-0.053000000,-0.179000000,-0.043000000,0.000000000,0.000000000,0.000000000
1696857274.227137,681487.000000000,1696857274.225799322,-0.052000000,-0.181000000,-0.040000000,0.000000000,0.000000000,0.000000000
1696857274.229007,681488.000000000,1696857274.227759838,-0.051000000,-0.182000000,-0.037000000,0.000000000,0.000000000,0.000000000
1696857274.231035,681489.000000000,1696857274.229782104,-0.050000000,-0.183000000,-0.034000000,0.000000000,0.000000000,0.000000000
1696857274.233566,681490.000000000,1696857274.231871843,-0.050000000,-0.182000000,-0.030000000,0.000000000,0.000000000,0.000000000
1696857274.235137,681491.000000000,1696857274.233851910,-0.050000000,-0.181000000,-0.026000000,0.000000000,0.000000000,0.000000000
1696857274.237139,681492.000000000,1696857274.235842228,-0.049000000,-0.179000000,-0.022000000,-0.001000000,0.000000000,0.000000000
1696857274.239123,681493.000000000,1696857274.237812757,-0.049000000,-0.178000000,-0.019000000,-0.001000000,0.000000000,0.000000000
1696857274.241873,681494.000000000,1696857274.239900351,-0.048000000,-0.178000000,-0.017000000,-0.001000000,0.000000000,0.000000000
1696857274.243203,681495.000000000,1696857274.241803408,-0.048000000,-0.178000000,-0.015000000,-0.001000000,0.000000000,0.000000000
1696857274.245077,681496.000000000,1696857274.243787050,-0.048000000,-0.179000000,-0.014000000,-0.001000000,0.000000000,0.000000000
1696857274.247162,681497.000000000,1696857274.245831966,-0.047000000,-0.181000000,-0.011000000,-0.001000000,0.000000000,0.000000000
1696857274.249428,681498.000000000,1696857274.247782707,-0.046000000,-0.182000000,-0.010000000,0.000000000,0.000000000,0.000000000
1696857274.251143,681499.000000000,1696857274.249814749,-0.046000000,-0.183000000,-0.008000000,0.000000000,0.000000000,0.000000000
1696857274.253061,681500.000000000,1696857274.251785517,-0.046000000,-0.184000000,-0.008000000,0.000000000,0.000000000,0.000000000
1696857274.266760,681506.000000000,1696857274.263811111,-0.047000000,-0.176000000,0.000000000,-0.001000000,0.000000000,0.000000000
1696857274.267124,681507.000000000,1696857274.265829563,-0.047000000,-0.177000000,0.001000000,-0.001000000,0.000000000,0.000000000
1696857274.269502,681508.000000000,1696857274.267824650,-0.047000000,-0.179000000,0.001000000,-0.001000000,0.000000000,0.000000000
1696857274.271068,681509.000000000,1696857274.269792795,-0.047000000,-0.180000000,0.002000000,-0.001000000,0.000000000,0.000000000
1696857274.273427,681510.000000000,1696857274.271781921,-0.047000000,-0.182000000,0.003000000,-0.001000000,0.000000000,0.000000000
1696857274.275720,681511.000000000,1696857274.273806334,-0.048000000,-0.183000000,0.003000000,-0.001000000,0.000000000,0.000000000
1696857274.277089,681512.000000000,1696857274.275788546,-0.048000000,-0.183000000,0.004000000,-0.001000000,0.000000000,0.000000000
1696857274.279170,681513.000000000,1696857274.277836561,-0.048000000,-0.181000000,0.006000000,-0.001000000,0.000000000,0.000000000
1696857274.281606,681514.000000000,1696857274.279792309,-0.049000000,-0.180000000,0.008000000,-0.001000000,0.000000000,0.000000000
1696857274.283119,681515.000000000,1696857274.281830072,-0.050000000,-0.178000000,0.010000000,-0.001000000,0.000000000,0.000000000
1696857274.285089,681516.000000000,1696857274.283798218,-0.050000000,-0.178000000,0.010000000,-0.001000000,0.000000000,0.000000000
1696857274.287248,681517.000000000,1696857274.285780191,-0.051000000,-0.177000000,0.012000000,-0.001000000,0.000000000,0.000000000
1696857274.289065,681518.000000000,1696857274.287775755,-0.052000000,-0.178000000,0.012000000,-0.001000000,0.000000000,0.000000000
1696857274.291156,681519.000000000,1696857274.289812565,-0.052000000,-0.181000000,0.013000000,-0.001000000,0.000000000,0.000000000
1696857274.293111,681520.000000000,1696857274.291792870,-0.053000000,-0.183000000,0.012000000,-0.001000000,0.000000000,0.000000000
1696857274.295082,681521.000000000,1696857274.293796539,-0.053000000,-0.185000000,0.013000000,-0.001000000,0.000000000,0.000000000
1696857274.297110,681522.000000000,1696857274.295811415,-0.053000000,-0.187000000,0.013000000,0.000000000,0.000000000,0.000000000
1696857274.305265,681526.000000000,1696857274.303782225,-0.055000000,-0.185000000,0.016000000,-0.001000000,0.000000000,0.000000000
1696857274.307085,681527.000000000,1696857274.305809498,-0.056000000,-0.183000000,0.017000000,-0.001000000,0.000000000,0.000000000
1696857274.324766,681535.000000000,1696857274.321832418,-0.057000000,-0.192000000,0.012000000,0.000000000,0.000000000,0.000000000
1696857274.325345,681536.000000000,1696857274.323801756,-0.057000000,-0.191000000,0.012000000,0.000000000,0.000000000,0.000000000
1696857274.327118,681537.000000000,1696857274.325800180,-0.058000000,-0.189000000,0.013000000,0.000000000,0.000000000,0.000000000
1696857274.329245,681538.000000000,1696857274.327788591,-0.058000000,-0.188000000,0.013000000,-0.001000000,0.000000000,0.000000000
1696857274.331959,681539.000000000,1696857274.329824924,-0.058000000,-0.186000000,0.011000000,-0.001000000,0.000000000,0.000000000
1696857274.333132,681540.000000000,1696857274.331797361,-0.058000000,-0.186000000,0.010000000,-0.001000000,0.000000000,0.000000000
1696857274.335126,681541.000000000,1696857274.333820820,-0.058000000,-0.187000000,0.010000000,-0.001000000,0.000000000,0.000000000
1696857274.337359,681542.000000000,1696857274.335848093,-0.058000000,-0.188000000,0.008000000,0.000000000,0.000000000,0.000000000
1696857274.339611,681543.000000000,1696857274.337807178,-0.058000000,-0.190000000,0.006000000,0.000000000,0.000000000,0.000000000
1696857274.354223,681550.000000000,1696857274.351878881,-0.057000000,-0.184000000,0.001000000,-0.001000000,0.000000000,0.000000000
1696857274.355229,681551.000000000,1696857274.353800774,-0.057000000,-0.183000000,0.000000000,-0.001000000,0.000000000,0.000000000
1696857274.357100,681552.000000000,1696857274.355776310,-0.057000000,-0.184000000,0.000000000,-0.001000000,0.000000000,0.000000000
1696857274.359155,681553.000000000,1696857274.357834101,-0.057000000,-0.185000000,-0.001000000,-0.001000000,0.000000000,0.000000000
1696857274.361325,681554.000000000,1696857274.359875917,-0.057000000,-0.186000000,-0.002000000,-0.001000000,0.000000000,0.000000000
1696857274.363210,681555.000000000,1696857274.361816645,-0.056000000,-0.187000000,-0.002000000,0.000000000,0.000000000,0.000000000
1696857274.365175,681556.000000000,1696857274.363807440,-0.056000000,-0.188000000,-0.003000000,0.000000000,0.000000000,0.000000000
1696857274.368649,681557.000000000,1696857274.365962982,-0.055000000,-0.188000000,-0.005000000,0.000000000,0.000000000,0.000000000
1696857274.369695,681558.000000000,1696857274.367810249,-0.055000000,-0.187000000,-0.004000000,0.000000000,0.000000000,0.000000000
1696857274.372154,681559.000000000,1696857274.369806767,-0.055000000,-0.186000000,-0.004000000,-0.001000000,0.000000000,0.000000000
1696857274.373261,681560.000000000,1696857274.371781826,-0.055000000,-0.183000000,-0.002000000,-0.001000000,0.000000000,0.000000000
1696857274.375231,681561.000000000,1696857274.373802662,-0.055000000,-0.182000000,-0.002000000,-0.001000000,0.000000000,0.000000000
1696857274.377368,681562.000000000,1696857274.375804663,-0.056000000,-0.180000000,-0.001000000,-0.001000000,0.000000000,0.000000000
1696857274.379263,681563.000000000,1696857274.377811909,-0.055000000,-0.180000000,-0.002000000,-0.001000000,0.000000000,0.000000000
1696857274.381124,681564.000000000,1696857274.379784346,-0.055000000,-0.180000000,-0.003000000,-0.001000000,0.000000000,0.000000000
1696857274.401306,681573.000000000,1696857274.397943974,-0.053000000,-0.178000000,-0.003000000,-0.001000000,0.000000000,0.000000000
1696857274.401450,681574.000000000,1696857274.399816990,-0.054000000,-0.177000000,-0.003000000,-0.001000000,0.000000000,0.000000000
1696857274.403550,681575.000000000,1696857274.401812315,-0.053000000,-0.177000000,-0.005000000,-0.001000000,0.000000000,0.000000000
1696857274.405250,681576.000000000,1696857274.403789520,-0.053000000,-0.178000000,-0.007000000,-0.001000000,0.000000000,0.000000000
1696857274.407166,681577.000000000,1696857274.405808210,-0.053000000,-0.180000000,-0.007000000,-0.001000000,0.000000000,0.000000000
1696857274.409617,681578.000000000,1696857274.407845974,-0.053000000,-0.181000000,-0.009000000,-0.001000000,0.000000000,0.000000000
1696857274.412188,681579.000000000,1696857274.409884453,-0.052000000,-0.182000000,-0.012000000,0.000000000,0.000000000,0.000000000
1696857274.413212,681580.000000000,1696857274.411797762,-0.052000000,-0.182000000,-0.014000000,0.000000000,0.000000000,0.000000000
1696857274.415237,681581.000000000,1696857274.413872242,-0.052000000,-0.180000000,-0.015000000,0.000000000,0.000000000,0.000000000
1696857274.417375,681582.000000000,1696857274.415869474,-0.052000000,-0.178000000,-0.017000000,-0.001000000,0.000000000,0.000000000
1696857274.419221,681583.000000000,1696857274.417863607,-0.052000000,-0.176000000,-0.019000000,-0.001000000,0.000000000,0.000000000
1696857274.421289,681584.000000000,1696857274.419982195,-0.052000000,-0.173000000,-0.021000000,-0.001000000,0.000000000,0.000000000
1696857274.423276,681585.000000000,1696857274.421834946,-0.052000000,-0.171000000,-0.025000000,-0.001000000,0.000000000,0.000000000
1696857274.425840,681586.000000000,1696857274.424443245,-0.052000000,-0.171000000,-0.028000000,-0.001000000,0.000000000,0.000000000
1696857274.427600,681587.000000000,1696857274.426074028,-0.052000000,-0.171000000,-0.034000000,-0.001000000,0.000000000,0.000000000
1696857274.429199,681588.000000000,1696857274.427835941,-0.052000000,-0.172000000,-0.036000000,0.000000000,0.000000000,0.000000000
1696857274.431228,681589.000000000,1696857274.429842710,-0.051000000,-0.173000000,-0.041000000,0.000000000,0.000000000,0.000000000
1696857274.433208,681590.000000000,1696857274.431851625,-0.051000000,-0.173000000,-0.046000000,0.000000000,0.000000000,0.000000000
1696857274.435069,681591.000000000,1696857274.433794260,-0.051000000,-0.173000000,-0.050000000,0.000000000,0.000000000,0.000000000
1696857274.437069,681592.000000000,1696857274.435783148,-0.051000000,-0.171000000,-0.055000000,0.000000000,0.000000000,0.000000000
1696857274.439137,681593.000000000,1696857274.437825441,-0.051000000,-0.169000000,-0.058000000,0.000000000,0.000000000,0.000000000
1696857274.441341,681594.000000000,1696857274.439918995,-0.051000000,-0.166000000,-0.062000000,0.000000000,0.000000000,0.001000000
1696857274.443211,681595.000000000,1696857274.441827774,-0.051000000,-0.163000000,-0.066000000,0.000000000,0.000000000,0.001000000
1696857274.445127,681596.000000000,1696857274.443815470,-0.051000000,-0.161000000,-0.070000000,0.000000000,0.000000000,0.001000000
1696857274.447115,681597.000000000,1696857274.445809126,-0.051000000,-0.160000000,-0.075000000,0.000000000,0.000000000,0.001000000
1696857274.449087,681598.000000000,1696857274.447796106,-0.052000000,-0.159000000,-0.078000000,0.000000000,0.000000000,0.001000000
1696857274.451127,681599.000000000,1696857274.449822664,-0.051000000,-0.160000000,-0.084000000,0.000000000,0.000000000,0.001000000
1696857274.453116,681600.000000000,1696857274.451797247,-0.051000000,-0.161000000,-0.088000000,0.000000000,0.000000000,0.001000000
1696857274.455184,681601.000000000,1696857274.453858376,-0.050000000,-0.162000000,-0.092000000,0.000000000,0.000000000,0.001000000
1696857274.457346,681602.000000000,1696857274.455793619,-0.050000000,-0.162000000,-0.096000000,0.000000000,0.000000000,0.001000000
1696857274.459117,681603.000000000,1696857274.457827091,-0.049000000,-0.161000000,-0.099000000,0.000000000,0.000000000,0.001000000
1696857274.461069,681604.000000000,1696857274.459792614,-0.049000000,-0.160000000,-0.101000000,0.000000000,0.000000000,0.001000000
1696857274.463119,681605.000000000,1696857274.461809397,-0.049000000,-0.157000000,-0.102000000,0.000000000,0.000000000,0.001000000
1696857274.465263,681606.000000000,1696857274.463797569,-0.049000000,-0.155000000,-0.103000000,0.000000000,0.000000000,0.002000000
1696857274.467088,681607.000000000,1696857274.465808153,-0.049000000,-0.153000000,-0.105000000,0.000000000,0.000000000,0.002000000
1696857274.469075,681608.000000000,1696857274.467800140,-0.049000000,-0.152000000,-0.106000000,0.000000000,0.000000000,0.002000000
1696857274.471144,681609.000000000,1696857274.469828844,-0.049000000,-0.152000000,-0.107000000,0.000000000,0.000000000,0.002000000
1696857274.474339,681610.000000000,1696857274.471826315,-0.049000000,-0.153000000,-0.108000000,0.000000000,0.000000000,0.002000000
1696857274.475316,681611.000000000,1696857274.473834038,-0.048000000,-0.155000000,-0.108000000,0.000000000,0.000000000,0.002000000
1696857274.477109,681612.000000000,1696857274.475829840,-0.047000000,-0.157000000,-0.109000000,0.000000000,0.000000000,0.002000000
1696857274.479091,681613.000000000,1696857274.477805376,-0.047000000,-0.158000000,-0.108000000,0.000000000,0.000000000,0.002000000
1696857274.481128,681614.000000000,1696857274.479799271,-0.046000000,-0.159000000,-0.107000000,0.000000000,0.000000000,0.001000000
1696857274.483399,681615.000000000,1696857274.481833696,-0.046000000,-0.159000000,-0.105000000,0.000000000,0.000000000,0.001000000
1696857274.485103,681616.000000000,1696857274.483783007,-0.046000000,-0.158000000,-0.102000000,0.000000000,0.000000000,0.001000000
1696857274.487212,681617.000000000,1696857274.485827446,-0.045000000,-0.157000000,-0.099000000,0.000000000,0.000000000,0.001000000
1696857274.489507,681618.000000000,1696857274.487830639,-0.045000000,-0.156000000,-0.096000000,0.000000000,0.000000000,0.001000000
1696857274.491236,681619.000000000,1696857274.489892244,-0.045000000,-0.155000000,-0.093000000,0.000000000,0.000000000,0.001000000
1696857274.493083,681620.000000000,1696857274.491804600,-0.045000000,-0.156000000,-0.090000000,0.000000000,0.000000000,0.001000000
1696857274.496056,681621.000000000,1696857274.493821621,-0.044000000,-0.157000000,-0.087000000,0.000000000,0.000000000,0.001000000
1696857274.497282,681622.000000000,1696857274.495788813,-0.044000000,-0.160000000,-0.084000000,0.000000000,0.000000000,0.001000000
1696857274.499438,681623.000000000,1696857274.497996569,-0.043000000,-0.163000000,-0.081000000,0.000000000,0.000000000,0.001000000
1696857274.501455,681624.000000000,1696857274.499835253,-0.043000000,-0.165000000,-0.078000000,0.000000000,0.000000000,0.001000000
1696857274.503148,681625.000000000,1696857274.501818657,-0.042000000,-0.167000000,-0.074000000,0.000000000,0.000000000,0.001000000
1696857274.505212,681626.000000000,1696857274.503931046,-0.042000000,-0.168000000,-0.070000000,0.000000000,0.000000000,0.001000000
1696857274.507104,681627.000000000,1696857274.505832434,-0.042000000,-0.168000000,-0.066000000,0.000000000,0.000000000,0.000000000
1696857274.509066,681628.000000000,1696857274.507796526,-0.041000000,-0.167000000,-0.061000000,0.000000000,0.000000000,0.000000000
1696857274.511094,681629.000000000,1696857274.509828806,-0.041000000,-0.166000000,-0.056000000,-0.001000000,0.000000000,0.000000000
1696857274.513263,681630.000000000,1696857274.511902094,-0.042000000,-0.165000000,-0.052000000,-0.001000000,0.000000000,0.000000000
1696857274.516171,681631.000000000,1696857274.513818026,-0.042000000,-0.166000000,-0.047000000,-0.001000000,0.000000000,0.000000000
1696857274.517102,681632.000000000,1696857274.515799761,-0.041000000,-0.167000000,-0.045000000,-0.001000000,0.000000000,0.000000000
1696857274.519113,681633.000000000,1696857274.517826080,-0.041000000,-0.169000000,-0.042000000,-0.001000000,0.000000000,0.000000000
1696857274.521140,681634.000000000,1696857274.519850731,-0.041000000,-0.172000000,-0.039000000,-0.001000000,0.000000000,0.000000000
1696857274.523155,681635.000000000,1696857274.521817923,-0.040000000,-0.175000000,-0.036000000,0.000000000,0.000000000,0.000000000
1696857274.525194,681636.000000000,1696857274.523829937,-0.040000000,-0.177000000,-0.033000000,0.000000000,0.000000000,0.000000000
1696857274.527167,681637.000000000,1696857274.525817156,-0.040000000,-0.178000000,-0.030000000,0.000000000,0.000000000,0.000000000
1696857274.529328,681638.000000000,1696857274.527805805,-0.039000000,-0.178000000,-0.028000000,0.000000000,0.000000000,0.000000000
1696857274.531148,681639.000000000,1696857274.529834270,-0.039000000,-0.178000000,-0.025000000,-0.001000000,0.000000000,0.000000000
1696857274.533204,681640.000000000,1696857274.531800747,-0.040000000,-0.176000000,-0.021000000,-0.001000000,0.000000000,0.000000000
1696857274.535139,681641.000000000,1696857274.533809900,-0.040000000,-0.175000000,-0.018000000,-0.001000000,0.000000000,0.000000000
1696857274.537482,681642.000000000,1696857274.535834551,-0.040000000,-0.175000000,-0.017000000,-0.001000000,0.000000000,0.000000000
1696857274.539156,681643.000000000,1696857274.537830353,-0.040000000,-0.176000000,-0.016000000,-0.001000000,0.000000000,0.000000000
1696857274.541193,681644.000000000,1696857274.539794922,-0.041000000,-0.177000000,-0.014000000,-0.001000000,0.000000000,0.000000000
1696857274.543507,681645.000000000,1696857274.541874170,-0.040000000,-0.180000000,-0.013000000,-0.001000000,0.000000000,0.000000000
1696857274.545225,681646.000000000,1696857274.543858767,-0.040000000,-0.182000000,-0.013000000,0.000000000,0.000000000,0.000000000
1696857274.547187,681647.000000000,1696857274.545828819,-0.040000000,-0.184000000,-0.012000000,0.000000000,0.000000000,0.000000000
1696857274.549351,681648.000000000,1696857274.547796249,-0.040000000,-0.185000000,-0.011000000,0.000000000,0.000000000,0.000000000
1696857274.551233,681649.000000000,1696857274.549827099,-0.040000000,-0.186000000,-0.011000000,0.000000000,0.000000000,0.000000000
1696857274.553133,681650.000000000,1696857274.551805258,-0.040000000,-0.185000000,-0.010000000,0.000000000,0.000000000,0.000000000
1696857274.555151,681651.000000000,1696857274.553807259,-0.041000000,-0.184000000,-0.006000000,0.000000000,0.000000000,0.000000000
1696857274.557077,681652.000000000,1696857274.555790901,-0.041000000,-0.182000000,-0.006000000,0.000000000,0.000000000,0.000000000
1696857274.559122,681653.000000000,1696857274.557813406,-0.042000000,-0.181000000,-0.005000000,-0.001000000,0.000000000,0.000000000
1696857274.561605,681654.000000000,1696857274.559803486,-0.042000000,-0.181000000,-0.004000000,-0.001000000,0.000000000,0.000000000
1696857274.563077,681655.000000000,1696857274.561808348,-0.042000000,-0.182000000,-0.006000000,0.000000000,0.000000000,0.000000000
1696857274.565121,681656.000000000,1696857274.563824892,-0.043000000,-0.184000000,-0.005000000,0.000000000,0.000000000,0.000000000
1696857274.567114,681657.000000000,1696857274.565816164,-0.043000000,-0.186000000,-0.005000000,0.000000000,0.000000000,0.000000000
1696857274.570061,681658.000000000,1696857274.567904711,-0.042000000,-0.188000000,-0.005000000,0.000000000,0.000000000,0.000000000
1696857274.571069,681659.000000000,1696857274.569808483,-0.043000000,-0.189000000,-0.004000000,0.000000000,0.000000000,0.000000000
1696857274.573117,681660.000000000,1696857274.571790695,-0.043000000,-0.190000000,-0.005000000,0.000000000,0.000000000,0.000000000
1696857274.575103,681661.000000000,1696857274.573823452,-0.043000000,-0.189000000,-0.004000000,0.000000000,0.000000000,0.000000000
1696857274.577127,681662.000000000,1696857274.575795650,-0.043000000,-0.188000000,-0.003000000,0.000000000,0.000000000,0.000000000
1696857274.579071,681663.000000000,1696857274.577813148,-0.044000000,-0.186000000,-0.002000000,0.000000000,0.000000000,0.000000000
1696857274.581139,681664.000000000,1696857274.579796076,-0.044000000,-0.185000000,0.000000000,0.000000000,0.000000000,0.000000000
1696857274.583148,681665.000000000,1696857274.581802130,-0.045000000,-0.184000000,0.000000000,0.000000000,0.000000000,0.000000000
1696857274.585122,681666.000000000,1696857274.583786488,-0.045000000,-0.184000000,0.000000000,0.000000000,0.000000000,0.000000000
1696857274.587692,681667.000000000,1696857274.585853100,-0.045000000,-0.185000000,0.000000000,0.000000000,0.000000000,0.000000000
1696857274.589132,681668.000000000,1696857274.587834120,-0.045000000,-0.187000000,0.000000000,0.000000000,0.000000000,0.000000000
1696857274.591151,681669.000000000,1696857274.589824438,-0.045000000,-0.188000000,-0.001000000,0.000000000,0.000000000,0.000000000
1696857274.593312,681670.000000000,1696857274.591786385,-0.045000000,-0.189000000,-0.001000000,0.000000000,0.000000000,0.000000000
1696857274.595098,681671.000000000,1696857274.593802929,-0.045000000,-0.190000000,-0.001000000,0.000000000,0.000000000,0.000000000
1696857274.597111,681672.000000000,1696857274.595808029,-0.045000000,-0.189000000,-0.001000000,0.000000000,0.000000000,0.000000000
1696857274.599094,681673.000000000,1696857274.597801685,-0.045000000,-0.188000000,0.000000000,0.000000000,0.000000000,0.000000000
1696857274.601718,681674.000000000,1696857274.599815845,-0.045000000,-0.185000000,0.000000000,0.000000000,0.000000000,0.000000000
1696857274.603300,681675.000000000,1696857274.601932526,-0.045000000,-0.183000000,0.000000000,0.000000000,0.000000000,0.000000000
1696857274.605168,681676.000000000,1696857274.603817463,-0.046000000,-0.181000000,0.002000000,0.000000000,0.000000000,0.000000000
1696857274.607386,681677.000000000,1696857274.605841637,-0.046000000,-0.181000000,0.001000000,0.000000000,0.000000000,0.000000000
1696857274.609369,681678.000000000,1696857274.607864618,-0.046000000,-0.180000000,0.001000000,0.000000000,0.000000000,0.000000000
1696857274.611349,681679.000000000,1696857274.609822989,-0.045000000,-0.182000000,0.000000000,0.000000000,0.000000000,0.000000000
1696857274.613349,681680.000000000,1696857274.611794710,-0.045000000,-0.183000000,0.000000000,0.000000000,0.000000000,0.000000000
1696857274.615372,681681.000000000,1696857274.613864660,-0.045000000,-0.184000000,0.000000000,0.000000000,0.000000000,0.000000000
1696857274.617386,681682.000000000,1696857274.615806818,-0.044000000,-0.184000000,0.000000000,0.000000000,0.000000000,0.000000000
1696857274.619544,681683.000000000,1696857274.617979050,-0.044000000,-0.183000000,-0.001000000,0.000000000,0.000000000,0.000000000
1696857274.621297,681684.000000000,1696857274.619806290,-0.043000000,-0.182000000,-0.001000000,0.000000000,0.000000000,0.000000000
1696857274.623324,681685.000000000,1696857274.621814966,-0.043000000,-0.180000000,0.000000000,0.000000000,0.000000000,0.000000000
1696857274.625541,681686.000000000,1696857274.623806953,-0.043000000,-0.177000000,0.000000000,-0.001000000,0.000000000,0.000000000
1696857274.627376,681687.000000000,1696857274.625868559,-0.043000000,-0.175000000,0.000000000,-0.001000000,0.000000000,0.000000000
1696857274.629297,681688.000000000,1696857274.627795219,-0.043000000,-0.173000000,0.000000000,-0.001000000,0.000000000,0.000000000
1696857274.631361,681689.000000000,1696857274.629863262,-0.043000000,-0.173000000,0.000000000,-0.001000000,0.000000000,0.000000000
1696857274.633307,681690.000000000,1696857274.631830454,-0.042000000,-0.174000000,0.000000000,-0.001000000,0.000000000,0.000000000
1696857274.635210,681691.000000000,1696857274.633825779,-0.041000000,-0.175000000,-0.001000000,-0.001000000,0.000000000,0.000000000
1696857274.637262,681692.000000000,1696857274.635826349,-0.041000000,-0.177000000,-0.001000000,0.000000000,0.000000000,0.000000000
1696857274.639254,681693.000000000,1696857274.637819290,-0.040000000,-0.178000000,-0.003000000,0.000000000,0.000000000,0.000000000
1696857274.642137,681694.000000000,1696857274.639928579,-0.040000000,-0.178000000,-0.003000000,0.000000000,0.000000000,0.000000000
1696857274.643623,681695.000000000,1696857274.641815901,-0.039000000,-0.177000000,-0.004000000,0.000000000,0.000000000,0.000000000
1696857274.645201,681696.000000000,1696857274.643827677,-0.039000000,-0.175000000,-0.002000000,-0.001000000,0.000000000,0.000000000
1696857274.647244,681697.000000000,1696857274.645828962,-0.039000000,-0.173000000,-0.002000000,-0.001000000,0.000000000,0.000000000
1696857274.649355,681698.000000000,1696857274.647933245,-0.039000000,-0.172000000,-0.001000000,-0.001000000,0.000000000,0.000000000
1696857274.651270,681699.000000000,1696857274.649836063,-0.039000000,-0.171000000,-0.002000000,-0.001000000,0.000000000,0.000000000
1696857274.653336,681700.000000000,1696857274.651828766,-0.039000000,-0.171000000,-0.001000000,-0.001000000,0.000000000,0.000000000
1696857274.655341,681701.000000000,1696857274.653892756,-0.039000000,-0.172000000,-0.003000000,-0.001000000,0.000000000,0.000000000
1696857274.657868,681702.000000000,1696857274.655798435,-0.039000000,-0.174000000,-0.002000000,-0.001000000,0.000000000,0.000000000
1696857274.659300,681703.000000000,1696857274.657845020,-0.038000000,-0.176000000,-0.003000000,-0.001000000,0.000000000,0.000000000
1696857274.661668,681704.000000000,1696857274.659822226,-0.038000000,-0.178000000,-0.004000000,0.000000000,0.000000000,0.000000000
1696857274.663315,681705.000000000,1696857274.661830425,-0.038000000,-0.179000000,-0.004000000,0.000000000,0.000000000,0.000000000
1696857274.665391,681706.000000000,1696857274.663834572,-0.037000000,-0.180000000,-0.005000000,0.000000000,0.000000000,0.000000000
1696857274.667339,681707.000000000,1696857274.665830135,-0.037000000,-0.179000000,-0.005000000,0.000000000,0.000000000,0.000000000
1696857274.669348,681708.000000000,1696857274.667861700,-0.038000000,-0.178000000,-0.003000000,0.000000000,0.000000000,0.000000000
1696857274.671335,681709.000000000,1696857274.669834614,-0.038000000,-0.177000000,-0.004000000,-0.001000000,0.000000000,0.000000000
1696857274.673314,681710.000000000,1696857274.671815634,-0.038000000,-0.177000000,-0.003000000,-0.001000000,0.000000000,0.000000000
1696857274.675410,681711.000000000,1696857274.673888683,-0.038000000,-0.177000000,-0.003000000,-0.001000000,0.000000000,0.000000000
1696857274.677270,681712.000000000,1696857274.675823689,-0.038000000,-0.178000000,-0.005000000,-0.001000000,0.000000000,0.000000000
1696857274.679252,681713.000000000,1696857274.677823067,-0.038000000,-0.180000000,-0.005000000,0.000000000,0.000000000,0.000000000
1696857274.681356,681714.000000000,1696857274.679812670,-0.038000000,-0.183000000,-0.005000000,0.000000000,0.000000000,0.000000000
1696857274.683403,681715.000000000,1696857274.681923866,-0.038000000,-0.185000000,-0.005000000,0.000000000,0.000000000,0.000000000
1696857274.685215,681716.000000000,1696857274.683813095,-0.037000000,-0.187000000,-0.007000000,0.000000000,0.000000000,0.000000000
1696857274.687265,681717.000000000,1696857274.685859919,-0.037000000,-0.187000000,-0.008000000,0.000000000,0.000000000,0.000000000
1696857274.689174,681718.000000000,1696857274.687819004,-0.037000000,-0.187000000,-0.008000000,0.000000000,0.000000000,0.000000000
1696857274.691097,681719.000000000,1696857274.689844131,-0.037000000,-0.186000000,-0.008000000,0.000000000,0.000000000,0.000000000
1696857274.693074,681720.000000000,1696857274.691796303,-0.038000000,-0.184000000,-0.008000000,0.000000000,0.000000000,0.000000000
1696857274.695111,681721.000000000,1696857274.693828106,-0.038000000,-0.183000000,-0.008000000,0.000000000,0.000000000,0.000000000
1696857274.697325,681722.000000000,1696857274.695873022,-0.038000000,-0.182000000,-0.009000000,0.000000000,0.000000000,0.000000000
1696857274.699178,681723.000000000,1696857274.697814465,-0.038000000,-0.181000000,-0.011000000,0.000000000,0.000000000,0.000000000
1696857274.701435,681724.000000000,1696857274.699832201,-0.038000000,-0.182000000,-0.012000000,0.000000000,0.000000000,0.000000000
1696857274.703148,681725.000000000,1696857274.701830149,-0.038000000,-0.183000000,-0.015000000,0.000000000,0.000000000,0.000000000
1696857274.705282,681726.000000000,1696857274.703846216,-0.038000000,-0.184000000,-0.017000000,0.000000000,0.000000000,0.000000000
1696857274.707130,681727.000000000,1696857274.705852270,-0.038000000,-0.185000000,-0.019000000,0.000000000,0.000000000,0.000000000
1696857274.709123,681728.000000000,1696857274.707839966,-0.038000000,-0.185000000,-0.022000000,0.000000000,0.000000000,0.000000000
1696857274.711156,681729.000000000,1696857274.709861279,-0.038000000,-0.183000000,-0.024000000,0.000000000,0.000000000,0.000000000
1696857274.713382,681730.000000000,1696857274.711874008,-0.038000000,-0.181000000,-0.026000000,0.000000000,0.000000000,0.000000000
1696857274.715226,681731.000000000,1696857274.713830948,-0.039000000,-0.177000000,-0.028000000,0.000000000,0.000000000,0.000000000
1696857274.718491,681732.000000000,1696857274.717080832,-0.039000000,-0.174000000,-0.030000000,0.000000000,0.000000000,0.000000000
1696857274.719618,681733.000000000,1696857274.718213558,-0.039000000,-0.171000000,-0.033000000,0.000000000,0.000000000,0.000000000
1696857274.721600,681734.000000000,1696857274.719841719,-0.040000000,-0.169000000,-0.036000000,0.000000000,0.000000000,0.000000000
1696857274.723196,681735.000000000,1696857274.721816301,-0.040000000,-0.167000000,-0.040000000,0.000000000,0.000000000,0.000000000
1696857274.725158,681736.000000000,1696857274.723810673,-0.040000000,-0.167000000,-0.044000000,0.000000000,0.000000000,0.000000000
1696857274.727157,681737.000000000,1696857274.725818396,-0.040000000,-0.167000000,-0.047000000,0.000000000,0.000000000,0.000000000
1696857274.729482,681738.000000000,1696857274.727833509,-0.040000000,-0.166000000,-0.053000000,0.000000000,0.000000000,0.000000000
1696857274.731126,681739.000000000,1696857274.729836941,-0.041000000,-0.164000000,-0.055000000,0.000000000,0.000000000,0.000000000
1696857274.733111,681740.000000000,1696857274.731826782,-0.041000000,-0.163000000,-0.060000000,0.000000000,0.000000000,0.000000000
1696857274.735095,681741.000000000,1696857274.733807802,-0.041000000,-0.159000000,-0.063000000,0.000000000,0.000000000,0.001000000
1696857274.737522,681742.000000000,1696857274.735799789,-0.042000000,-0.156000000,-0.067000000,0.000000000,0.000000000,0.001000000
1696857274.739146,681743.000000000,1696857274.737818956,-0.042000000,-0.152000000,-0.069000000,0.000000000,0.000000000,0.001000000
1696857274.741376,681744.000000000,1696857274.739908695,-0.043000000,-0.148000000,-0.073000000,0.000000000,0.000000000,0.001000000
1696857274.743104,681745.000000000,1696857274.741824627,-0.044000000,-0.145000000,-0.075000000,0.000000000,0.000000000,0.001000000
1696857274.745270,681746.000000000,1696857274.743828058,-0.044000000,-0.144000000,-0.080000000,0.000000000,0.000000000,0.001000000
1696857274.747283,681747.000000000,1696857274.745887280,-0.045000000,-0.143000000,-0.083000000,0.000000000,0.000000000,0.001000000
1696857274.749296,681748.000000000,1696857274.747807026,-0.045000000,-0.143000000,-0.086000000,0.000000000,0.000000000,0.001000000
1696857274.751115,681749.000000000,1696857274.749845266,-0.045000000,-0.143000000,-0.090000000,0.000000000,0.000000000,0.001000000
1696857274.753106,681750.000000000,1696857274.751830816,-0.045000000,-0.143000000,-0.092000000,0.000000000,0.000000000,0.001000000
1696857274.755337,681751.000000000,1696857274.753834724,-0.045000000,-0.143000000,-0.096000000,0.000000000,0.000000000,0.001000000
1696857274.757190,681752.000000000,1696857274.755865574,-0.046000000,-0.142000000,-0.097000000,0.000000000,0.000000000,0.001000000
1696857274.759053,681753.000000000,1696857274.757775545,-0.046000000,-0.139000000,-0.098000000,0.000000000,0.000000000,0.001000000
1696857274.761117,681754.000000000,1696857274.759783506,-0.047000000,-0.137000000,-0.099000000,0.000000000,0.000000000,0.001000000
1696857274.763181,681755.000000000,1696857274.761859894,-0.047000000,-0.135000000,-0.099000000,0.000000000,0.000000000,0.001000000
1696857274.765115,681756.000000000,1696857274.763808250,-0.048000000,-0.134000000,-0.100000000,0.000000000,0.000000000,0.001000000
1696857274.767152,681757.000000000,1696857274.765848398,-0.048000000,-0.133000000,-0.101000000,0.000000000,0.000000000,0.001000000
1696857274.769238,681758.000000000,1696857274.767931223,-0.048000000,-0.135000000,-0.101000000,0.000000000,0.000000000,0.001000000
1696857274.771104,681759.000000000,1696857274.769821167,-0.048000000,-0.137000000,-0.100000000,0.000000000,0.000000000,0.001000000
1696857274.773091,681760.000000000,1696857274.771790028,-0.048000000,-0.139000000,-0.101000000,0.000000000,0.000000000,0.001000000
1696857274.775233,681761.000000000,1696857274.773851395,-0.047000000,-0.142000000,-0.101000000,0.000000000,0.000000000,0.001000000
1696857274.777693,681762.000000000,1696857274.775881290,-0.047000000,-0.143000000,-0.099000000,0.000000000,0.000000000,0.001000000
1696857274.779228,681763.000000000,1696857274.777825117,-0.047000000,-0.145000000,-0.098000000,0.000000000,0.000000000,0.001000000
1696857274.781611,681764.000000000,1696857274.779866934,-0.046000000,-0.145000000,-0.096000000,0.000000000,0.000000000,0.001000000
1696857274.783135,681765.000000000,1696857274.781835318,-0.046000000,-0.145000000,-0.093000000,0.000000000,0.000000000,0.001000000
1696857274.785255,681766.000000000,1696857274.783875465,-0.046000000,-0.144000000,-0.089000000,0.000000000,0.000000000,0.001000000
1696857274.787148,681767.000000000,1696857274.785841227,-0.046000000,-0.145000000,-0.086000000,0.000000000,0.000000000,0.001000000
1696857274.789176,681768.000000000,1696857274.787827492,-0.046000000,-0.146000000,-0.083000000,0.000000000,0.000000000,0.001000000
1696857274.791673,681769.000000000,1696857274.789816856,-0.045000000,-0.148000000,-0.080000000,0.000000000,0.000000000,0.001000000
1696857274.793105,681770.000000000,1696857274.791805983,-0.045000000,-0.151000000,-0.077000000,0.000000000,0.000000000,0.001000000
1696857274.795107,681771.000000000,1696857274.793814421,-0.044000000,-0.155000000,-0.074000000,0.000000000,0.000000000,0.001000000
1696857274.797142,681772.000000000,1696857274.795846701,-0.043000000,-0.158000000,-0.071000000,0.000000000,0.000000000,0.001000000
1696857274.799184,681773.000000000,1696857274.797812700,-0.042000000,-0.161000000,-0.068000000,0.000000000,0.000000000,0.001000000
1696857274.801408,681774.000000000,1696857274.799839020,-0.042000000,-0.163000000,-0.065000000,0.000000000,0.000000000,0.001000000
1696857274.803107,681775.000000000,1696857274.801814079,-0.041000000,-0.164000000,-0.061000000,0.000000000,0.000000000,0.001000000
1696857274.805076,681776.000000000,1696857274.803794384,-0.040000000,-0.165000000,-0.058000000,0.000000000,0.000000000,0.001000000
1696857274.807183,681777.000000000,1696857274.805905581,-0.040000000,-0.165000000,-0.053000000,0.000000000,0.000000000,0.000000000
