__time,/kms40_driver/wrench/header/seq,/kms40_driver/wrench/header/stamp,/kms40_driver/wrench/wrench/force/x,/kms40_driver/wrench/wrench/force/y,/kms40_driver/wrench/wrench/force/z,/kms40_driver/wrench/wrench/torque/x,/kms40_driver/wrench/wrench/torque/y,/kms40_driver/wrench/wrench/torque/z
1696857184.453317,637219.000000000,1696857184.452074766,-0.069000000,0.445000000,0.056000000,0.006000000,0.000000000,-0.005000000
1696857184.455329,637220.000000000,1696857184.454087496,-0.065000000,0.458000000,0.049000000,0.006000000,0.000000000,-0.005000000
1696857184.457322,637221.000000000,1696857184.456045389,-0.060000000,0.470000000,0.042000000,0.005000000,0.000000000,-0.005000000
1696857184.459334,637222.000000000,1696857184.458084345,-0.055000000,0.480000000,0.033000000,0.005000000,0.000000000,-0.005000000
1696857184.462786,637223.000000000,1696857184.460074902,-0.050000000,0.489000000,0.025000000,0.004000000,0.000000000,-0.005000000
1696857184.463572,637224.000000000,1696857184.462074518,-0.046000000,0.496000000,0.017000000,0.004000000,0.000000000,-0.005000000
1696857184.465380,637225.000000000,1696857184.464055061,-0.041000000,0.502000000,0.010000000,0.003000000,0.000000000,-0.005000000
1696857184.467338,637226.000000000,1696857184.466088295,-0.036000000,0.507000000,0.003000000,0.003000000,0.000000000,-0.005000000
1696857184.469429,637227.000000000,1696857184.468110085,-0.032000000,0.511000000,-0.003000000,0.003000000,0.000000000,-0.005000000
1696857184.471384,637228.000000000,1696857184.470104933,-0.029000000,0.516000000,-0.009000000,0.003000000,0.001000000,-0.005000000
1696857184.473417,637229.000000000,1696857184.472094059,-0.025000000,0.520000000,-0.014000000,0.002000000,0.001000000,-0.005000000
1696857184.475356,637230.000000000,1696857184.474085808,-0.023000000,0.525000000,-0.018000000,0.002000000,0.001000000,-0.005000000
1696857184.477398,637231.000000000,1696857184.476085186,-0.021000000,0.529000000,-0.022000000,0.002000000,0.001000000,-0.005000000
1696857184.479539,637232.000000000,1696857184.478125572,-0.020000000,0.533000000,-0.025000000,0.002000000,0.001000000,-0.005000000
1696857184.481382,637233.000000000,1696857184.480077028,-0.019000000,0.536000000,-0.027000000,0.001000000,0.001000000,-0.005000000
1696857184.483435,637234.000000000,1696857184.482150555,-0.019000000,0.536000000,-0.029000000,0.001000000,0.001000000,-0.005000000
1696857184.485370,637235.000000000,1696857184.484066725,-0.019000000,0.536000000,-0.031000000,0.001000000,0.001000000,-0.005000000
1696857184.487378,637236.000000000,1696857184.486086130,-0.020000000,0.533000000,-0.032000000,0.001000000,0.001000000,-0.005000000
1696857184.489347,637237.000000000,1696857184.488052130,-0.021000000,0.529000000,-0.032000000,0.002000000,0.001000000,-0.005000000
1696857184.491434,637238.000000000,1696857184.490084171,-0.023000000,0.525000000,-0.032000000,0.002000000,0.001000000,-0.005000000
1696857184.493468,637239.000000000,1696857184.492122173,-0.025000000,0.521000000,-0.031000000,0.002000000,0.001000000,-0.005000000
1696857184.495673,637240.000000000,1696857184.494088650,-0.028000000,0.517000000,-0.028000000,0.002000000,0.001000000,-0.005000000
1696857184.497430,637241.000000000,1696857184.496156454,-0.032000000,0.513000000,-0.026000000,0.002000000,0.001000000,-0.005000000
1696857184.499622,637242.000000000,1696857184.498161554,-0.036000000,0.510000000,-0.022000000,0.002000000,0.000000000,-0.005000000
1696857184.501671,637243.000000000,1696857184.500102282,-0.040000000,0.507000000,-0.017000000,0.003000000,0.000000000,-0.005000000
1696857184.503335,637244.000000000,1696857184.502074003,-0.045000000,0.503000000,-0.012000000,0.003000000,0.000000000,-0.005000000
1696857184.505339,637245.000000000,1696857184.504086971,-0.051000000,0.499000000,-0.006000000,0.003000000,0.000000000,-0.005000000
1696857184.507323,637246.000000000,1696857184.506071568,-0.056000000,0.492000000,-0.002000000,0.003000000,0.000000000,-0.005000000
1696857184.509362,637247.000000000,1696857184.508094311,-0.061000000,0.485000000,0.004000000,0.004000000,0.000000000,-0.005000000
1696857184.511354,637248.000000000,1696857184.510068655,-0.067000000,0.477000000,0.010000000,0.004000000,0.000000000,-0.005000000
1696857184.513361,637249.000000000,1696857184.512079000,-0.072000000,0.468000000,0.017000000,0.004000000,0.000000000,-0.005000000
1696857184.515398,637250.000000000,1696857184.514114618,-0.077000000,0.460000000,0.024000000,0.005000000,0.000000000,-0.005000000
1696857184.517323,637251.000000000,1696857184.516080141,-0.083000000,0.453000000,0.031000000,0.005000000,0.000000000,-0.005000000
1696857184.519338,637252.000000000,1696857184.518096447,-0.088000000,0.446000000,0.039000000,0.006000000,-0.001000000,-0.005000000
1696857184.521372,637253.000000000,1696857184.520062208,-0.093000000,0.440000000,0.048000000,0.006000000,-0.001000000,-0.005000000
1696857184.523352,637254.000000000,1696857184.522095919,-0.099000000,0.436000000,0.057000000,0.006000000,-0.001000000,-0.005000000
1696857184.525351,637255.000000000,1696857184.524079800,-0.103000000,0.431000000,0.066000000,0.006000000,-0.001000000,-0.005000000
1696857184.527608,637256.000000000,1696857184.526338577,-0.108000000,0.425000000,0.074000000,0.007000000,-0.001000000,-0.005000000
1696857184.529353,637257.000000000,1696857184.528100252,-0.112000000,0.419000000,0.082000000,0.007000000,-0.001000000,-0.005000000
1696857184.531326,637258.000000000,1696857184.530073881,-0.115000000,0.413000000,0.089000000,0.007000000,-0.002000000,-0.005000000
1696857184.533696,637259.000000000,1696857184.532083988,-0.118000000,0.405000000,0.096000000,0.008000000,-0.002000000,-0.005000000
1696857184.535387,637260.000000000,1696857184.534120560,-0.119000000,0.397000000,0.101000000,0.008000000,-0.002000000,-0.005000000
1696857184.537443,637261.000000000,1696857184.536101818,-0.121000000,0.390000000,0.108000000,0.009000000,-0.002000000,-0.005000000
1696857184.539346,637262.000000000,1696857184.538069725,-0.122000000,0.383000000,0.113000000,0.009000000,-0.002000000,-0.005000000
1696857184.542001,637263.000000000,1696857184.540063858,-0.122000000,0.378000000,0.118000000,0.009000000,-0.002000000,-0.005000000
1696857184.543349,637264.000000000,1696857184.542069674,-0.122000000,0.374000000,0.123000000,0.010000000,-0.002000000,-0.005000000
1696857184.545361,637265.000000000,1696857184.544084787,-0.122000000,0.372000000,0.128000000,0.010000000,-0.001000000,-0.005000000
1696857184.547433,637266.000000000,1696857184.546106815,-0.121000000,0.370000000,0.132000000,0.010000000,-0.001000000,-0.005000000
1696857184.549352,637267.000000000,1696857184.548098564,-0.119000000,0.368000000,0.135000000,0.010000000,-0.001000000,-0.005000000
1696857184.551577,637268.000000000,1696857184.550295591,-0.117000000,0.366000000,0.137000000,0.010000000,-0.001000000,-0.005000000
1696857184.553327,637269.000000000,1696857184.552071095,-0.114000000,0.363000000,0.137000000,0.010000000,-0.001000000,-0.005000000
1696857184.555337,637270.000000000,1696857184.554077864,-0.111000000,0.360000000,0.136000000,0.011000000,-0.001000000,-0.005000000
1696857184.557422,637271.000000000,1696857184.556100130,-0.106000000,0.356000000,0.135000000,0.011000000,-0.001000000,-0.005000000
1696857184.559426,637272.000000000,1696857184.558187962,-0.102000000,0.353000000,0.133000000,0.011000000,0.000000000,-0.004000000
1696857184.561611,637273.000000000,1696857184.560326815,-0.097000000,0.351000000,0.130000000,0.011000000,0.000000000,-0.004000000
1696857184.564083,637274.000000000,1696857184.562794447,-0.092000000,0.351000000,0.127000000,0.011000000,0.000000000,-0.004000000
1696857184.565438,637275.000000000,1696857184.564105511,-0.086000000,0.351000000,0.122000000,0.011000000,0.000000000,-0.004000000
1696857184.567761,637276.000000000,1696857184.566128492,-0.080000000,0.354000000,0.119000000,0.011000000,0.000000000,-0.004000000
1696857184.569393,637277.000000000,1696857184.568090677,-0.075000000,0.357000000,0.113000000,0.011000000,0.000000000,-0.004000000
1696857184.571336,637278.000000000,1696857184.570068836,-0.070000000,0.361000000,0.108000000,0.011000000,0.000000000,-0.004000000
1696857184.573414,637279.000000000,1696857184.572122574,-0.064000000,0.365000000,0.101000000,0.011000000,0.001000000,-0.004000000
1696857184.575332,637280.000000000,1696857184.574077606,-0.058000000,0.368000000,0.093000000,0.011000000,0.001000000,-0.004000000
1696857184.577334,637281.000000000,1696857184.576085329,-0.052000000,0.370000000,0.084000000,0.011000000,0.001000000,-0.004000000
1696857184.580434,637282.000000000,1696857184.578131676,-0.047000000,0.372000000,0.074000000,0.011000000,0.001000000,-0.004000000
1696857184.581401,637283.000000000,1696857184.580141783,-0.041000000,0.375000000,0.065000000,0.011000000,0.002000000,-0.004000000
1696857184.583370,637284.000000000,1696857184.582122564,-0.036000000,0.378000000,0.056000000,0.011000000,0.002000000,-0.004000000
1696857184.585324,637285.000000000,1696857184.584072351,-0.031000000,0.383000000,0.045000000,0.011000000,0.002000000,-0.004000000
1696857184.587332,637286.000000000,1696857184.586074591,-0.027000000,0.388000000,0.036000000,0.010000000,0.002000000,-0.004000000
1696857184.589510,637287.000000000,1696857184.588111639,-0.023000000,0.396000000,0.026000000,0.010000000,0.002000000,-0.004000000
1696857184.591322,637288.000000000,1696857184.590059757,-0.020000000,0.404000000,0.016000000,0.010000000,0.003000000,-0.004000000
1696857184.593328,637289.000000000,1696857184.592073441,-0.018000000,0.413000000,0.008000000,0.009000000,0.003000000,-0.004000000
1696857184.595289,637290.000000000,1696857184.594046831,-0.016000000,0.421000000,0.000000000,0.009000000,0.003000000,-0.004000000
1696857184.597413,637291.000000000,1696857184.596092939,-0.015000000,0.429000000,-0.010000000,0.009000000,0.003000000,-0.004000000
1696857184.599711,637292.000000000,1696857184.598181486,-0.013000000,0.435000000,-0.021000000,0.008000000,0.003000000,-0.004000000
1696857184.601624,637293.000000000,1696857184.600068092,-0.013000000,0.442000000,-0.030000000,0.008000000,0.003000000,-0.003000000
1696857184.603366,637294.000000000,1696857184.602103710,-0.013000000,0.447000000,-0.039000000,0.008000000,0.003000000,-0.003000000
1696857184.605393,637295.000000000,1696857184.604099274,-0.013000000,0.453000000,-0.048000000,0.007000000,0.003000000,-0.003000000
1696857184.607376,637296.000000000,1696857184.606088161,-0.015000000,0.460000000,-0.055000000,0.007000000,0.003000000,-0.003000000
1696857184.609313,637297.000000000,1696857184.608072758,-0.017000000,0.466000000,-0.062000000,0.007000000,0.002000000,-0.003000000
1696857184.611574,637298.000000000,1696857184.610077381,-0.020000000,0.475000000,-0.069000000,0.006000000,0.002000000,-0.003000000
1696857184.613500,637299.000000000,1696857184.612180948,-0.023000000,0.484000000,-0.074000000,0.006000000,0.002000000,-0.003000000
1696857184.615328,637300.000000000,1696857184.614092827,-0.027000000,0.492000000,-0.078000000,0.005000000,0.002000000,-0.003000000
1696857184.617338,637301.000000000,1696857184.616113901,-0.031000000,0.501000000,-0.082000000,0.005000000,0.001000000,-0.003000000
1696857184.619311,637302.000000000,1696857184.618086815,-0.036000000,0.509000000,-0.085000000,0.004000000,0.001000000,-0.003000000
1696857184.621409,637303.000000000,1696857184.620115519,-0.042000000,0.514000000,-0.089000000,0.004000000,0.001000000,-0.003000000
1696857184.623404,637304.000000000,1696857184.622094393,-0.047000000,0.519000000,-0.091000000,0.004000000,0.001000000,-0.003000000
1696857184.625356,637305.000000000,1696857184.624114513,-0.052000000,0.522000000,-0.093000000,0.004000000,0.000000000,-0.003000000
1696857184.627326,637306.000000000,1696857184.626079798,-0.058000000,0.525000000,-0.094000000,0.003000000,0.000000000,-0.003000000
1696857184.629477,637307.000000000,1696857184.628113270,-0.063000000,0.528000000,-0.093000000,0.003000000,0.000000000,-0.003000000
1696857184.631334,637308.000000000,1696857184.630089283,-0.070000000,0.531000000,-0.092000000,0.003000000,0.000000000,-0.003000000
1696857184.633307,637309.000000000,1696857184.632067919,-0.076000000,0.534000000,-0.091000000,0.003000000,0.000000000,-0.003000000
1696857184.635370,637310.000000000,1696857184.634086370,-0.082000000,0.538000000,-0.087000000,0.002000000,0.000000000,-0.003000000
1696857184.637427,637311.000000000,1696857184.636103868,-0.088000000,0.541000000,-0.084000000,0.002000000,-0.001000000,-0.003000000
1696857184.639403,637312.000000000,1696857184.638101339,-0.094000000,0.544000000,-0.079000000,0.002000000,-0.001000000,-0.004000000
1696857184.641401,637313.000000000,1696857184.640092850,-0.099000000,0.545000000,-0.075000000,0.002000000,-0.002000000,-0.004000000
1696857184.643336,637314.000000000,1696857184.642081499,-0.104000000,0.545000000,-0.070000000,0.002000000,-0.002000000,-0.004000000
1696857184.645537,637315.000000000,1696857184.644154072,-0.109000000,0.544000000,-0.065000000,0.002000000,-0.002000000,-0.004000000
1696857184.647736,637316.000000000,1696857184.646190882,-0.113000000,0.540000000,-0.060000000,0.002000000,-0.002000000,-0.004000000
1696857184.649499,637317.000000000,1696857184.648118019,-0.116000000,0.536000000,-0.054000000,0.002000000,-0.003000000,-0.004000000
1696857184.651397,637318.000000000,1696857184.650124788,-0.119000000,0.531000000,-0.047000000,0.002000000,-0.003000000,-0.004000000
1696857184.653453,637319.000000000,1696857184.652117252,-0.121000000,0.526000000,-0.040000000,0.003000000,-0.003000000,-0.004000000
1696857184.655373,637320.000000000,1696857184.654109001,-0.123000000,0.521000000,-0.033000000,0.003000000,-0.003000000,-0.004000000
1696857184.657440,637321.000000000,1696857184.656093836,-0.124000000,0.517000000,-0.025000000,0.003000000,-0.003000000,-0.004000000
1696857184.659680,637322.000000000,1696857184.658118248,-0.125000000,0.513000000,-0.016000000,0.003000000,-0.003000000,-0.004000000
1696857184.662003,637323.000000000,1696857184.660171032,-0.125000000,0.509000000,-0.008000000,0.003000000,-0.003000000,-0.004000000
1696857184.663365,637324.000000000,1696857184.662081957,-0.125000000,0.504000000,0.000000000,0.004000000,-0.003000000,-0.004000000
1696857184.665317,637325.000000000,1696857184.664068937,-0.123000000,0.498000000,0.008000000,0.004000000,-0.003000000,-0.004000000
1696857184.667387,637326.000000000,1696857184.666079998,-0.121000000,0.490000000,0.016000000,0.004000000,-0.003000000,-0.004000000
1696857184.669472,637327.000000000,1696857184.668126583,-0.118000000,0.480000000,0.023000000,0.005000000,-0.003000000,-0.004000000
1696857184.671370,637328.000000000,1696857184.670104980,-0.115000000,0.470000000,0.031000000,0.005000000,-0.003000000,-0.005000000
1696857184.673542,637329.000000000,1696857184.672118425,-0.110000000,0.460000000,0.038000000,0.006000000,-0.003000000,-0.005000000
1696857184.675360,637330.000000000,1696857184.674104214,-0.105000000,0.450000000,0.045000000,0.006000000,-0.002000000,-0.005000000
1696857184.677412,637331.000000000,1696857184.676128149,-0.100000000,0.441000000,0.053000000,0.007000000,-0.002000000,-0.005000000
1696857184.679384,637332.000000000,1696857184.678095341,-0.094000000,0.432000000,0.060000000,0.007000000,-0.002000000,-0.005000000
1696857184.681465,637333.000000000,1696857184.680118561,-0.088000000,0.425000000,0.068000000,0.008000000,-0.001000000,-0.005000000
1696857184.683387,637334.000000000,1696857184.682131767,-0.082000000,0.418000000,0.076000000,0.008000000,-0.001000000,-0.005000000
1696857184.685399,637335.000000000,1696857184.684098482,-0.076000000,0.412000000,0.082000000,0.009000000,-0.001000000,-0.005000000
1696857184.687368,637336.000000000,1696857184.686086416,-0.069000000,0.405000000,0.089000000,0.009000000,-0.001000000,-0.005000000
1696857184.689429,637337.000000000,1696857184.688067675,-0.063000000,0.397000000,0.094000000,0.009000000,0.000000000,-0.005000000
1696857184.691630,637338.000000000,1696857184.690176964,-0.055000000,0.388000000,0.097000000,0.010000000,0.000000000,-0.005000000
1696857184.693416,637339.000000000,1696857184.692142010,-0.048000000,0.379000000,0.103000000,0.010000000,0.000000000,-0.005000000
1696857184.695353,637340.000000000,1696857184.694108009,-0.040000000,0.371000000,0.106000000,0.011000000,0.000000000,-0.005000000
1696857184.697328,637341.000000000,1696857184.696108103,-0.033000000,0.363000000,0.109000000,0.011000000,0.000000000,-0.005000000
1696857184.699826,637342.000000000,1696857184.698130369,-0.026000000,0.356000000,0.111000000,0.012000000,0.001000000,-0.005000000
1696857184.701855,637343.000000000,1696857184.700123787,-0.019000000,0.351000000,0.114000000,0.012000000,0.001000000,-0.005000000
1696857184.703455,637344.000000000,1696857184.702097416,-0.013000000,0.348000000,0.116000000,0.012000000,0.001000000,-0.005000000
1696857184.705313,637345.000000000,1696857184.704080582,-0.007000000,0.346000000,0.118000000,0.012000000,0.002000000,-0.005000000
1696857184.707341,637346.000000000,1696857184.706097841,-0.002000000,0.344000000,0.119000000,0.012000000,0.002000000,-0.005000000
1696857184.709352,637347.000000000,1696857184.708090305,0.001000000,0.344000000,0.120000000,0.012000000,0.002000000,-0.005000000
1696857184.711335,637348.000000000,1696857184.710052013,0.006000000,0.343000000,0.120000000,0.012000000,0.002000000,-0.005000000
1696857184.713358,637349.000000000,1696857184.712092400,0.009000000,0.341000000,0.119000000,0.012000000,0.002000000,-0.005000000
1696857184.715335,637350.000000000,1696857184.714079380,0.013000000,0.340000000,0.116000000,0.013000000,0.002000000,-0.005000000
1696857184.717568,637351.000000000,1696857184.716140270,0.015000000,0.339000000,0.114000000,0.013000000,0.003000000,-0.005000000
1696857184.719334,637352.000000000,1696857184.718077660,0.017000000,0.338000000,0.113000000,0.013000000,0.003000000,-0.005000000
1696857184.721524,637353.000000000,1696857184.720078707,0.019000000,0.340000000,0.109000000,0.012000000,0.003000000,-0.005000000
1696857184.723391,637354.000000000,1696857184.722065449,0.020000000,0.342000000,0.104000000,0.012000000,0.003000000,-0.005000000
1696857184.725491,637355.000000000,1696857184.724136591,0.019000000,0.346000000,0.101000000,0.012000000,0.003000000,-0.005000000
1696857184.727344,637356.000000000,1696857184.726075411,0.018000000,0.353000000,0.098000000,0.012000000,0.003000000,-0.005000000
1696857184.729404,637357.000000000,1696857184.728094101,0.016000000,0.359000000,0.094000000,0.011000000,0.003000000,-0.005000000
1696857184.731323,637358.000000000,1696857184.730056524,0.014000000,0.367000000,0.090000000,0.011000000,0.002000000,-0.005000000
1696857184.733452,637359.000000000,1696857184.732116461,0.011000000,0.374000000,0.085000000,0.011000000,0.002000000,-0.005000000
1696857184.735411,637360.000000000,1696857184.734109640,0.007000000,0.381000000,0.079000000,0.010000000,0.002000000,-0.005000000
1696857184.737306,637361.000000000,1696857184.736056328,0.003000000,0.387000000,0.073000000,0.010000000,0.002000000,-0.005000000
1696857184.739320,637362.000000000,1696857184.738070488,0.000000000,0.393000000,0.067000000,0.009000000,0.002000000,-0.005000000
1696857184.741692,637363.000000000,1696857184.740170956,-0.005000000,0.399000000,0.060000000,0.009000000,0.001000000,-0.005000000
1696857184.743366,637364.000000000,1696857184.742102861,-0.010000000,0.405000000,0.054000000,0.009000000,0.001000000,-0.005000000
1696857184.745367,637365.000000000,1696857184.744111061,-0.015000000,0.413000000,0.048000000,0.008000000,0.001000000,-0.005000000
1696857184.747427,637366.000000000,1696857184.746107578,-0.021000000,0.421000000,0.041000000,0.008000000,0.000000000,-0.005000000
1696857184.749714,637367.000000000,1696857184.748191118,-0.028000000,0.431000000,0.036000000,0.007000000,0.000000000,-0.004000000
1696857184.751407,637368.000000000,1696857184.750101566,-0.034000000,0.442000000,0.032000000,0.007000000,0.000000000,-0.004000000
1696857184.753316,637369.000000000,1696857184.752069712,-0.041000000,0.452000000,0.025000000,0.006000000,0.000000000,-0.004000000
1696857184.755348,637370.000000000,1696857184.754095793,-0.048000000,0.462000000,0.022000000,0.006000000,0.000000000,-0.004000000
1696857184.757637,637371.000000000,1696857184.756202459,-0.054000000,0.470000000,0.016000000,0.005000000,0.000000000,-0.004000000
1696857184.759418,637372.000000000,1696857184.758106709,-0.061000000,0.477000000,0.010000000,0.005000000,-0.001000000,-0.004000000
1696857184.761394,637373.000000000,1696857184.760135651,-0.066000000,0.483000000,0.005000000,0.004000000,-0.001000000,-0.004000000
1696857184.763336,637374.000000000,1696857184.762083292,-0.072000000,0.488000000,0.001000000,0.004000000,-0.001000000,-0.004000000
1696857184.765488,637375.000000000,1696857184.764170647,-0.078000000,0.493000000,-0.002000000,0.004000000,-0.001000000,-0.004000000
1696857184.767359,637376.000000000,1696857184.766105175,-0.083000000,0.498000000,-0.005000000,0.003000000,-0.002000000,-0.004000000
1696857184.769326,637377.000000000,1696857184.768073797,-0.087000000,0.504000000,-0.008000000,0.003000000,-0.002000000,-0.004000000
1696857184.771329,637378.000000000,1696857184.770087242,-0.092000000,0.510000000,-0.011000000,0.003000000,-0.002000000,-0.004000000
1696857184.773486,637379.000000000,1696857184.772158146,-0.096000000,0.515000000,-0.012000000,0.003000000,-0.002000000,-0.004000000
1696857184.775425,637380.000000000,1696857184.774142981,-0.100000000,0.521000000,-0.013000000,0.002000000,-0.003000000,-0.004000000
1696857184.777411,637381.000000000,1696857184.776103020,-0.103000000,0.525000000,-0.012000000,0.002000000,-0.003000000,-0.004000000
1696857184.779484,637382.000000000,1696857184.778118372,-0.106000000,0.528000000,-0.012000000,0.002000000,-0.003000000,-0.004000000
1696857184.781690,637383.000000000,1696857184.780191422,-0.108000000,0.529000000,-0.013000000,0.002000000,-0.003000000,-0.004000000
1696857184.783386,637384.000000000,1696857184.782150030,-0.109000000,0.528000000,-0.012000000,0.002000000,-0.003000000,-0.004000000
1696857184.785446,637385.000000000,1696857184.784076214,-0.109000000,0.526000000,-0.011000000,0.002000000,-0.003000000,-0.004000000
1696857184.787315,637386.000000000,1696857184.786078453,-0.109000000,0.523000000,-0.010000000,0.002000000,-0.003000000,-0.004000000
1696857184.789444,637387.000000000,1696857184.788185835,-0.108000000,0.520000000,-0.008000000,0.002000000,-0.003000000,-0.004000000
1696857184.791321,637388.000000000,1696857184.790089130,-0.107000000,0.517000000,-0.005000000,0.002000000,-0.003000000,-0.004000000
1696857184.793315,637389.000000000,1696857184.792069674,-0.105000000,0.514000000,-0.002000000,0.003000000,-0.003000000,-0.004000000
1696857184.795356,637390.000000000,1696857184.794064045,-0.103000000,0.511000000,0.001000000,0.003000000,-0.003000000,-0.004000000
1696857184.797579,637391.000000000,1696857184.796212435,-0.101000000,0.509000000,0.006000000,0.003000000,-0.003000000,-0.004000000
1696857184.799893,637392.000000000,1696857184.798106670,-0.098000000,0.505000000,0.011000000,0.003000000,-0.002000000,-0.004000000
1696857184.801946,637393.000000000,1696857184.800141096,-0.095000000,0.501000000,0.016000000,0.003000000,-0.002000000,-0.004000000
1696857184.803347,637394.000000000,1696857184.802084208,-0.091000000,0.494000000,0.021000000,0.004000000,-0.002000000,-0.004000000
1696857184.805498,637395.000000000,1696857184.804197788,-0.087000000,0.487000000,0.025000000,0.004000000,-0.002000000,-0.004000000
1696857184.807324,637396.000000000,1696857184.806066751,-0.082000000,0.478000000,0.030000000,0.004000000,-0.001000000,-0.004000000
1696857184.809399,637397.000000000,1696857184.808083534,-0.077000000,0.468000000,0.035000000,0.005000000,-0.001000000,-0.004000000
1696857184.811399,637398.000000000,1696857184.810096979,-0.072000000,0.459000000,0.041000000,0.005000000,-0.001000000,-0.004000000
1696857184.813571,637399.000000000,1696857184.812157631,-0.067000000,0.450000000,0.046000000,0.006000000,-0.001000000,-0.005000000
1696857184.815356,637400.000000000,1696857184.814086437,-0.062000000,0.441000000,0.052000000,0.006000000,0.000000000,-0.005000000
1696857184.817347,637401.000000000,1696857184.816055298,-0.056000000,0.434000000,0.058000000,0.007000000,0.000000000,-0.005000000
1696857184.819417,637402.000000000,1696857184.818150997,-0.052000000,0.428000000,0.067000000,0.007000000,0.000000000,-0.005000000
1696857184.821676,637403.000000000,1696857184.820181608,-0.047000000,0.421000000,0.073000000,0.008000000,0.000000000,-0.005000000
1696857184.823495,637404.000000000,1696857184.822126389,-0.043000000,0.415000000,0.078000000,0.008000000,0.000000000,-0.005000000
1696857184.825439,637405.000000000,1696857184.824069977,-0.039000000,0.407000000,0.083000000,0.008000000,0.000000000,-0.005000000
1696857184.827445,637406.000000000,1696857184.826083899,-0.034000000,0.399000000,0.088000000,0.009000000,0.000000000,-0.005000000
1696857184.829629,637407.000000000,1696857184.828199863,-0.030000000,0.391000000,0.092000000,0.009000000,0.001000000,-0.005000000
1696857184.831834,637408.000000000,1696857184.830127478,-0.026000000,0.382000000,0.096000000,0.010000000,0.001000000,-0.005000000
1696857184.833414,637409.000000000,1696857184.832089663,-0.023000000,0.374000000,0.100000000,0.010000000,0.001000000,-0.005000000
1696857184.835372,637410.000000000,1696857184.834080458,-0.019000000,0.367000000,0.102000000,0.011000000,0.001000000,-0.005000000
1696857184.837505,637411.000000000,1696857184.836153269,-0.017000000,0.362000000,0.105000000,0.011000000,0.001000000,-0.005000000
1696857184.839427,637412.000000000,1696857184.838097334,-0.015000000,0.358000000,0.108000000,0.011000000,0.002000000,-0.005000000
1696857184.841522,637413.000000000,1696857184.840123415,-0.013000000,0.356000000,0.110000000,0.011000000,0.002000000,-0.005000000
1696857184.843325,637414.000000000,1696857184.842086315,-0.012000000,0.355000000,0.112000000,0.011000000,0.002000000,-0.005000000
1696857184.845489,637415.000000000,1696857184.844195366,-0.012000000,0.354000000,0.113000000,0.012000000,0.002000000,-0.005000000
1696857184.847326,637416.000000000,1696857184.846092463,-0.012000000,0.354000000,0.113000000,0.012000000,0.002000000,-0.005000000
1696857184.849396,637417.000000000,1696857184.848108053,-0.013000000,0.353000000,0.111000000,0.012000000,0.002000000,-0.005000000
1696857184.851318,637418.000000000,1696857184.850081444,-0.014000000,0.353000000,0.110000000,0.012000000,0.002000000,-0.005000000
1696857184.854441,637419.000000000,1696857184.852595568,-0.015000000,0.352000000,0.108000000,0.012000000,0.002000000,-0.005000000
1696857184.855839,637420.000000000,1696857184.854514599,-0.016000000,0.352000000,0.104000000,0.012000000,0.002000000,-0.005000000
1696857184.857393,637421.000000000,1696857184.856100082,-0.018000000,0.353000000,0.101000000,0.012000000,0.002000000,-0.005000000
1696857184.859385,637422.000000000,1696857184.858078957,-0.021000000,0.356000000,0.097000000,0.012000000,0.002000000,-0.005000000
1696857184.861918,637423.000000000,1696857184.860124826,-0.024000000,0.360000000,0.093000000,0.012000000,0.002000000,-0.005000000
1696857184.863456,637424.000000000,1696857184.862144470,-0.028000000,0.366000000,0.088000000,0.012000000,0.002000000,-0.005000000
1696857184.865409,637425.000000000,1696857184.864091158,-0.032000000,0.373000000,0.084000000,0.011000000,0.001000000,-0.004000000
1696857184.867447,637426.000000000,1696857184.866122484,-0.036000000,0.381000000,0.078000000,0.011000000,0.001000000,-0.004000000
1696857184.869557,637427.000000000,1696857184.868124723,-0.040000000,0.389000000,0.073000000,0.011000000,0.001000000,-0.004000000
1696857184.871348,637428.000000000,1696857184.870097160,-0.045000000,0.396000000,0.066000000,0.010000000,0.001000000,-0.004000000
1696857184.873391,637429.000000000,1696857184.872108698,-0.050000000,0.403000000,0.058000000,0.010000000,0.001000000,-0.004000000
1696857184.875973,637430.000000000,1696857184.874141216,-0.054000000,0.409000000,0.051000000,0.010000000,0.000000000,-0.004000000
1696857184.877570,637431.000000000,1696857184.876141310,-0.059000000,0.415000000,0.043000000,0.009000000,0.000000000,-0.004000000
1696857184.879315,637432.000000000,1696857184.878083467,-0.063000000,0.422000000,0.035000000,0.009000000,0.000000000,-0.004000000
1696857184.881451,637433.000000000,1696857184.880123377,-0.068000000,0.429000000,0.028000000,0.009000000,0.000000000,-0.004000000
1696857184.883425,637434.000000000,1696857184.882132530,-0.073000000,0.437000000,0.020000000,0.008000000,0.000000000,-0.004000000
1696857184.885432,637435.000000000,1696857184.884126663,-0.077000000,0.446000000,0.012000000,0.008000000,0.000000000,-0.003000000
1696857184.887330,637436.000000000,1696857184.886090755,-0.082000000,0.456000000,0.006000000,0.007000000,0.000000000,-0.003000000
1696857184.889578,637437.000000000,1696857184.888126373,-0.086000000,0.466000000,0.000000000,0.007000000,0.000000000,-0.003000000
1696857184.891340,637438.000000000,1696857184.890102625,-0.090000000,0.476000000,-0.006000000,0.007000000,0.000000000,-0.003000000
1696857184.893438,637439.000000000,1696857184.892152071,-0.094000000,0.484000000,-0.013000000,0.006000000,0.000000000,-0.003000000
1696857184.895367,637440.000000000,1696857184.894087076,-0.097000000,0.491000000,-0.020000000,0.006000000,-0.001000000,-0.003000000
1696857184.897403,637441.000000000,1696857184.896125555,-0.100000000,0.496000000,-0.026000000,0.005000000,-0.001000000,-0.003000000
1696857184.899402,637442.000000000,1696857184.898096800,-0.102000000,0.500000000,-0.032000000,0.005000000,-0.001000000,-0.003000000
1696857184.901487,637443.000000000,1696857184.900145054,-0.104000000,0.504000000,-0.037000000,0.005000000,-0.001000000,-0.003000000
1696857184.903844,637444.000000000,1696857184.902092218,-0.106000000,0.508000000,-0.041000000,0.005000000,-0.001000000,-0.003000000
1696857184.905354,637445.000000000,1696857184.904098034,-0.107000000,0.511000000,-0.045000000,0.005000000,-0.001000000,-0.003000000
1696857184.907332,637446.000000000,1696857184.906093121,-0.108000000,0.516000000,-0.048000000,0.004000000,-0.001000000,-0.003000000
1696857184.909649,637447.000000000,1696857184.908137798,-0.108000000,0.520000000,-0.050000000,0.004000000,-0.001000000,-0.003000000
1696857184.911401,637448.000000000,1696857184.910149813,-0.109000000,0.524000000,-0.052000000,0.004000000,-0.001000000,-0.003000000
1696857184.913390,637449.000000000,1696857184.912098646,-0.109000000,0.528000000,-0.053000000,0.004000000,-0.001000000,-0.003000000
1696857184.915527,637450.000000000,1696857184.914187670,-0.108000000,0.530000000,-0.054000000,0.003000000,-0.001000000,-0.003000000
1696857184.917549,637451.000000000,1696857184.916163683,-0.107000000,0.530000000,-0.055000000,0.003000000,-0.001000000,-0.003000000
1696857184.919440,637452.000000000,1696857184.918109179,-0.105000000,0.529000000,-0.055000000,0.003000000,-0.001000000,-0.003000000
1696857184.921726,637453.000000000,1696857184.920129538,-0.103000000,0.526000000,-0.055000000,0.003000000,-0.001000000,-0.003000000
1696857184.923378,637454.000000000,1696857184.922097683,-0.100000000,0.523000000,-0.054000000,0.003000000,-0.001000000,-0.003000000
1696857184.925505,637455.000000000,1696857184.924147606,-0.097000000,0.518000000,-0.052000000,0.004000000,-0.001000000,-0.003000000
1696857184.927342,637456.000000000,1696857184.926103115,-0.094000000,0.514000000,-0.051000000,0.004000000,-0.001000000,-0.003000000
1696857184.929322,637457.000000000,1696857184.928099632,-0.091000000,0.511000000,-0.048000000,0.004000000,-0.001000000,-0.003000000
1696857184.931328,637458.000000000,1696857184.930098534,-0.088000000,0.507000000,-0.045000000,0.004000000,-0.001000000,-0.003000000
1696857184.933536,637459.000000000,1696857184.932147026,-0.084000000,0.505000000,-0.041000000,0.004000000,-0.001000000,-0.003000000
1696857184.936362,637460.000000000,1696857184.934146404,-0.081000000,0.502000000,-0.036000000,0.004000000,-0.001000000,-0.004000000
1696857184.937421,637461.000000000,1696857184.936082125,-0.077000000,0.498000000,-0.031000000,0.004000000,0.000000000,-0.004000000
1696857184.939315,637462.000000000,1696857184.938084364,-0.073000000,0.493000000,-0.027000000,0.005000000,0.000000000,-0.004000000
1696857184.941844,637463.000000000,1696857184.940090656,-0.069000000,0.487000000,-0.024000000,0.005000000,0.000000000,-0.004000000
1696857184.943348,637464.000000000,1696857184.942095041,-0.065000000,0.479000000,-0.020000000,0.005000000,0.000000000,-0.004000000
1696857184.945343,637465.000000000,1696857184.944075346,-0.062000000,0.472000000,-0.014000000,0.006000000,0.000000000,-0.004000000
1696857184.947337,637466.000000000,1696857184.946103096,-0.057000000,0.463000000,-0.011000000,0.006000000,0.000000000,-0.004000000
1696857184.950096,637467.000000000,1696857184.948126554,-0.053000000,0.456000000,-0.007000000,0.006000000,0.000000000,-0.004000000
1696857184.951322,637468.000000000,1696857184.950086355,-0.049000000,0.450000000,-0.001000000,0.007000000,0.000000000,-0.004000000
1696857184.953332,637469.000000000,1696857184.952072382,-0.046000000,0.444000000,0.003000000,0.007000000,0.000000000,-0.004000000
1696857184.955418,637470.000000000,1696857184.954151630,-0.043000000,0.439000000,0.009000000,0.007000000,0.000000000,-0.004000000
1696857184.957467,637471.000000000,1696857184.956115007,-0.040000000,0.436000000,0.014000000,0.007000000,0.000000000,-0.004000000
1696857184.959465,637472.000000000,1696857184.958090544,-0.038000000,0.432000000,0.021000000,0.007000000,0.000000000,-0.004000000
1696857184.961688,637473.000000000,1696857184.960095167,-0.035000000,0.428000000,0.025000000,0.008000000,0.000000000,-0.004000000
1696857184.963589,637474.000000000,1696857184.962191343,-0.033000000,0.424000000,0.029000000,0.008000000,0.000000000,-0.004000000
1696857184.965515,637475.000000000,1696857184.964091539,-0.032000000,0.418000000,0.034000000,0.008000000,0.000000000,-0.004000000
1696857184.967453,637476.000000000,1696857184.966093302,-0.030000000,0.412000000,0.038000000,0.009000000,0.000000000,-0.004000000
1696857184.969724,637477.000000000,1696857184.968074560,-0.028000000,0.407000000,0.042000000,0.009000000,0.000000000,-0.004000000
1696857184.971447,637478.000000000,1696857184.970094919,-0.027000000,0.402000000,0.046000000,0.009000000,0.000000000,-0.005000000
1696857184.973720,637479.000000000,1696857184.972194195,-0.026000000,0.398000000,0.049000000,0.009000000,0.000000000,-0.005000000
1696857184.975480,637480.000000000,1696857184.974081993,-0.026000000,0.396000000,0.053000000,0.009000000,0.001000000,-0.005000000
1696857184.977541,637481.000000000,1696857184.976118565,-0.025000000,0.395000000,0.056000000,0.009000000,0.001000000,-0.005000000
1696857184.979525,637482.000000000,1696857184.978093624,-0.027000000,0.395000000,0.061000000,0.010000000,0.000000000,-0.005000000
1696857184.981608,637483.000000000,1696857184.980128288,-0.027000000,0.396000000,0.064000000,0.009000000,0.000000000,-0.004000000
1696857184.983876,637484.000000000,1696857184.982144117,-0.028000000,0.397000000,0.067000000,0.009000000,0.000000000,-0.004000000
1696857184.985438,637485.000000000,1696857184.984103441,-0.030000000,0.397000000,0.070000000,0.010000000,0.000000000,-0.005000000
1696857184.987356,637486.000000000,1696857184.986085653,-0.031000000,0.397000000,0.072000000,0.010000000,0.000000000,-0.005000000
1696857184.989552,637487.000000000,1696857184.988115549,-0.032000000,0.396000000,0.074000000,0.010000000,0.000000000,-0.005000000
1696857184.991441,637488.000000000,1696857184.990086794,-0.034000000,0.395000000,0.075000000,0.010000000,0.000000000,-0.004000000
1696857184.993393,637489.000000000,1696857184.992076874,-0.035000000,0.395000000,0.076000000,0.010000000,0.000000000,-0.004000000
1696857184.995388,637490.000000000,1696857184.994084597,-0.037000000,0.395000000,0.078000000,0.010000000,0.000000000,-0.005000000
1696857184.997422,637491.000000000,1696857184.996110439,-0.039000000,0.397000000,0.078000000,0.010000000,0.000000000,-0.005000000
1696857184.999939,637492.000000000,1696857184.998148441,-0.041000000,0.400000000,0.080000000,0.009000000,0.000000000,-0.005000000
1696857185.001437,637493.000000000,1696857185.000092983,-0.044000000,0.404000000,0.081000000,0.009000000,0.000000000,-0.005000000
1696857185.003395,637494.000000000,1696857185.002123117,-0.046000000,0.408000000,0.083000000,0.009000000,0.000000000,-0.005000000
1696857185.005361,637495.000000000,1696857185.004097939,-0.049000000,0.413000000,0.083000000,0.009000000,0.000000000,-0.004000000
1696857185.007753,637496.000000000,1696857185.006116390,-0.051000000,0.417000000,0.083000000,0.009000000,0.000000000,-0.005000000
1696857185.009340,637497.000000000,1696857185.008084536,-0.054000000,0.419000000,0.083000000,0.009000000,0.000000000,-0.005000000
1696857185.011628,637498.000000000,1696857185.010134935,-0.056000000,0.421000000,0.082000000,0.008000000,0.000000000,-0.005000000
1696857185.013976,637499.000000000,1696857185.012102604,-0.058000000,0.422000000,0.081000000,0.008000000,0.000000000,-0.005000000
1696857185.015346,637500.000000000,1696857185.014082909,-0.059000000,0.424000000,0.079000000,0.008000000,0.000000000,-0.005000000
1696857185.017376,637501.000000000,1696857185.016076565,-0.061000000,0.426000000,0.078000000,0.008000000,0.000000000,-0.005000000
1696857185.019335,637502.000000000,1696857185.018095255,-0.062000000,0.428000000,0.076000000,0.008000000,0.000000000,-0.005000000
1696857185.021513,637503.000000000,1696857185.020168543,-0.064000000,0.432000000,0.075000000,0.008000000,0.000000000,-0.005000000
1696857185.023426,637504.000000000,1696857185.022096634,-0.066000000,0.436000000,0.074000000,0.008000000,0.000000000,-0.005000000
1696857185.025403,637505.000000000,1696857185.024127960,-0.067000000,0.441000000,0.073000000,0.007000000,0.000000000,-0.005000000
1696857185.027337,637506.000000000,1696857185.026092291,-0.069000000,0.446000000,0.072000000,0.007000000,0.000000000,-0.005000000
1696857185.029671,637507.000000000,1696857185.028202295,-0.070000000,0.450000000,0.070000000,0.007000000,0.000000000,-0.005000000
1696857185.031368,637508.000000000,1696857185.030129671,-0.071000000,0.453000000,0.068000000,0.007000000,0.000000000,-0.005000000
1696857185.033331,637509.000000000,1696857185.032086849,-0.071000000,0.455000000,0.065000000,0.007000000,0.000000000,-0.005000000
1696857185.035354,637510.000000000,1696857185.034087658,-0.071000000,0.455000000,0.062000000,0.007000000,0.000000000,-0.005000000
1696857185.037532,637511.000000000,1696857185.036220312,-0.072000000,0.456000000,0.060000000,0.006000000,0.000000000,-0.005000000
1696857185.039383,637512.000000000,1696857185.038127184,-0.072000000,0.456000000,0.058000000,0.006000000,0.000000000,-0.005000000
1696857185.041525,637513.000000000,1696857185.040108442,-0.072000000,0.458000000,0.056000000,0.006000000,0.000000000,-0.005000000
1696857185.043367,637514.000000000,1696857185.042123318,-0.071000000,0.460000000,0.054000000,0.006000000,0.000000000,-0.005000000
1696857185.045544,637515.000000000,1696857185.044214249,-0.071000000,0.462000000,0.053000000,0.006000000,0.000000000,-0.005000000
1696857185.047359,637516.000000000,1696857185.046111822,-0.071000000,0.465000000,0.053000000,0.006000000,0.000000000,-0.005000000
1696857185.049556,637517.000000000,1696857185.048124790,-0.071000000,0.469000000,0.052000000,0.006000000,0.000000000,-0.005000000
1696857185.051363,637518.000000000,1696857185.050091982,-0.071000000,0.472000000,0.051000000,0.005000000,0.000000000,-0.005000000
1696857185.053563,637519.000000000,1696857185.052187681,-0.071000000,0.473000000,0.050000000,0.005000000,0.000000000,-0.005000000
1696857185.055399,637520.000000000,1696857185.054108143,-0.070000000,0.474000000,0.049000000,0.005000000,0.000000000,-0.005000000
1696857185.057381,637521.000000000,1696857185.056091309,-0.069000000,0.473000000,0.048000000,0.005000000,0.000000000,-0.005000000
1696857185.059401,637522.000000000,1696857185.058100224,-0.068000000,0.472000000,0.047000000,0.005000000,0.000000000,-0.005000000
1696857185.061583,637523.000000000,1696857185.060153961,-0.067000000,0.471000000,0.047000000,0.005000000,0.000000000,-0.005000000
1696857185.063622,637524.000000000,1696857185.062227011,-0.065000000,0.470000000,0.046000000,0.005000000,0.000000000,-0.005000000
1696857185.065470,637525.000000000,1696857185.064119101,-0.064000000,0.469000000,0.046000000,0.005000000,0.000000000,-0.005000000
1696857185.067421,637526.000000000,1696857185.066102266,-0.062000000,0.470000000,0.046000000,0.005000000,0.000000000,-0.005000000
1696857185.069430,637527.000000000,1696857185.068128347,-0.061000000,0.471000000,0.049000000,0.005000000,0.000000000,-0.005000000
1696857185.071456,637528.000000000,1696857185.070107460,-0.059000000,0.473000000,0.051000000,0.005000000,0.000000000,-0.005000000
1696857185.073450,637529.000000000,1696857185.072085619,-0.057000000,0.474000000,0.054000000,0.005000000,0.000000000,-0.005000000
1696857185.075434,637530.000000000,1696857185.074105024,-0.055000000,0.475000000,0.055000000,0.005000000,0.000000000,-0.005000000
1696857185.077444,637531.000000000,1696857185.076126814,-0.052000000,0.475000000,0.056000000,0.005000000,0.000000000,-0.005000000
1696857185.079454,637532.000000000,1696857185.078122377,-0.050000000,0.473000000,0.058000000,0.005000000,0.000000000,-0.005000000
1696857185.082097,637533.000000000,1696857185.080109596,-0.046000000,0.470000000,0.058000000,0.005000000,0.000000000,-0.005000000
1696857185.083506,637534.000000000,1696857185.082130909,-0.043000000,0.466000000,0.061000000,0.005000000,0.000000000,-0.006000000
1696857185.085905,637535.000000000,1696857185.084109545,-0.040000000,0.463000000,0.063000000,0.005000000,0.001000000,-0.006000000
1696857185.087682,637536.000000000,1696857185.086143017,-0.037000000,0.461000000,0.066000000,0.006000000,0.001000000,-0.006000000
1696857185.089441,637537.000000000,1696857185.088105917,-0.034000000,0.459000000,0.068000000,0.006000000,0.001000000,-0.006000000
1696857185.091462,637538.000000000,1696857185.090110779,-0.031000000,0.458000000,0.072000000,0.006000000,0.001000000,-0.006000000
1696857185.093422,637539.000000000,1696857185.092104673,-0.028000000,0.458000000,0.075000000,0.006000000,0.001000000,-0.006000000
1696857185.095498,637540.000000000,1696857185.094085455,-0.025000000,0.458000000,0.078000000,0.006000000,0.001000000,-0.006000000
1696857185.097416,637541.000000000,1696857185.096121550,-0.022000000,0.458000000,0.082000000,0.006000000,0.001000000,-0.006000000
1696857185.099682,637542.000000000,1696857185.098123550,-0.019000000,0.455000000,0.084000000,0.006000000,0.002000000,-0.006000000
1696857185.101711,637543.000000000,1696857185.100120544,-0.016000000,0.452000000,0.086000000,0.006000000,0.002000000,-0.006000000
1696857185.103402,637544.000000000,1696857185.102099657,-0.013000000,0.448000000,0.089000000,0.006000000,0.002000000,-0.006000000
1696857185.105423,637545.000000000,1696857185.104081154,-0.010000000,0.443000000,0.091000000,0.006000000,0.002000000,-0.006000000
1696857185.107460,637546.000000000,1696857185.106099367,-0.007000000,0.438000000,0.094000000,0.007000000,0.002000000,-0.006000000
1696857185.109618,637547.000000000,1696857185.108142853,-0.005000000,0.433000000,0.096000000,0.007000000,0.002000000,-0.006000000
1696857185.111442,637548.000000000,1696857185.110148430,-0.003000000,0.430000000,0.098000000,0.007000000,0.002000000,-0.006000000
1696857185.113364,637549.000000000,1696857185.112077713,-0.002000000,0.427000000,0.099000000,0.007000000,0.002000000,-0.006000000
1696857185.115393,637550.000000000,1696857185.114109278,-0.001000000,0.426000000,0.102000000,0.007000000,0.002000000,-0.006000000
1696857185.117496,637551.000000000,1696857185.116106510,-0.001000000,0.425000000,0.103000000,0.007000000,0.002000000,-0.006000000
1696857185.119488,637552.000000000,1696857185.118121147,-0.001000000,0.424000000,0.105000000,0.008000000,0.002000000,-0.006000000
1696857185.121869,637553.000000000,1696857185.120130539,-0.002000000,0.421000000,0.106000000,0.008000000,0.002000000,-0.006000000
1696857185.123435,637554.000000000,1696857185.122095823,-0.003000000,0.418000000,0.106000000,0.008000000,0.002000000,-0.006000000
1696857185.125521,637555.000000000,1696857185.124124527,-0.005000000,0.414000000,0.105000000,0.008000000,0.002000000,-0.006000000
1696857185.127410,637556.000000000,1696857185.126094103,-0.007000000,0.410000000,0.104000000,0.008000000,0.002000000,-0.006000000
1696857185.129440,637557.000000000,1696857185.128098011,-0.010000000,0.405000000,0.103000000,0.009000000,0.002000000,-0.006000000
1696857185.131604,637558.000000000,1696857185.130195141,-0.014000000,0.401000000,0.102000000,0.009000000,0.002000000,-0.006000000
1696857185.134176,637559.000000000,1696857185.132183790,-0.018000000,0.399000000,0.099000000,0.009000000,0.002000000,-0.006000000
1696857185.135551,637560.000000000,1696857185.134175539,-0.023000000,0.398000000,0.097000000,0.009000000,0.001000000,-0.006000000
1696857185.137442,637561.000000000,1696857185.136109114,-0.029000000,0.398000000,0.094000000,0.009000000,0.001000000,-0.005000000
1696857185.139425,637562.000000000,1696857185.138101816,-0.035000000,0.399000000,0.093000000,0.009000000,0.001000000,-0.005000000
1696857185.141583,637563.000000000,1696857185.140144348,-0.042000000,0.400000000,0.089000000,0.009000000,0.000000000,-0.005000000
1696857185.144867,637564.000000000,1696857185.143498898,-0.049000000,0.401000000,0.085000000,0.009000000,0.000000000,-0.005000000
1696857185.146468,637565.000000000,1696857185.144632578,-0.057000000,0.401000000,0.080000000,0.009000000,0.000000000,-0.005000000
1696857185.147431,637566.000000000,1696857185.146097183,-0.064000000,0.401000000,0.074000000,0.009000000,0.000000000,-0.005000000
1696857185.149561,637567.000000000,1696857185.148153782,-0.072000000,0.400000000,0.068000000,0.009000000,0.000000000,-0.004000000
1696857185.151452,637568.000000000,1696857185.150104046,-0.079000000,0.399000000,0.063000000,0.010000000,0.000000000,-0.004000000
1696857185.153523,637569.000000000,1696857185.152168751,-0.087000000,0.399000000,0.057000000,0.010000000,-0.001000000,-0.004000000
1696857185.155489,637570.000000000,1696857185.154095650,-0.094000000,0.400000000,0.050000000,0.010000000,-0.001000000,-0.004000000
1696857185.157596,637571.000000000,1696857185.156167984,-0.102000000,0.403000000,0.044000000,0.009000000,-0.001000000,-0.004000000
1696857185.159388,637572.000000000,1696857185.158122301,-0.109000000,0.406000000,0.037000000,0.009000000,-0.002000000,-0.004000000
1696857185.161497,637573.000000000,1696857185.160129070,-0.116000000,0.411000000,0.031000000,0.009000000,-0.002000000,-0.003000000
1696857185.163422,637574.000000000,1696857185.162106276,-0.123000000,0.416000000,0.025000000,0.009000000,-0.002000000,-0.003000000
1696857185.165499,637575.000000000,1696857185.164158106,-0.130000000,0.422000000,0.018000000,0.009000000,-0.003000000,-0.003000000
1696857185.167531,637576.000000000,1696857185.166102409,-0.136000000,0.426000000,0.011000000,0.009000000,-0.003000000,-0.003000000
1696857185.169454,637577.000000000,1696857185.168112040,-0.141000000,0.431000000,0.004000000,0.008000000,-0.003000000,-0.003000000
1696857185.171407,637578.000000000,1696857185.170072317,-0.146000000,0.434000000,-0.002000000,0.008000000,-0.004000000,-0.003000000
1696857185.173647,637579.000000000,1696857185.172183275,-0.149000000,0.437000000,-0.009000000,0.008000000,-0.004000000,-0.003000000
1696857185.175499,637580.000000000,1696857185.174150944,-0.152000000,0.440000000,-0.015000000,0.008000000,-0.004000000,-0.003000000
1696857185.177458,637581.000000000,1696857185.176101923,-0.154000000,0.444000000,-0.022000000,0.008000000,-0.004000000,-0.002000000
1696857185.179477,637582.000000000,1696857185.178100586,-0.155000000,0.449000000,-0.028000000,0.007000000,-0.004000000,-0.002000000
1696857185.181889,637583.000000000,1696857185.180140495,-0.155000000,0.455000000,-0.033000000,0.007000000,-0.004000000,-0.002000000
1696857185.184370,637584.000000000,1696857185.182184219,-0.155000000,0.462000000,-0.037000000,0.007000000,-0.004000000,-0.002000000
1696857185.185749,637585.000000000,1696857185.184100151,-0.154000000,0.469000000,-0.041000000,0.007000000,-0.004000000,-0.002000000
1696857185.187498,637586.000000000,1696857185.186114550,-0.152000000,0.476000000,-0.043000000,0.006000000,-0.004000000,-0.002000000
1696857185.189429,637587.000000000,1696857185.188136101,-0.150000000,0.482000000,-0.047000000,0.006000000,-0.004000000,-0.002000000
1696857185.191373,637588.000000000,1696857185.190105438,-0.146000000,0.487000000,-0.049000000,0.006000000,-0.003000000,-0.002000000
1696857185.193412,637589.000000000,1696857185.192108870,-0.142000000,0.490000000,-0.052000000,0.005000000,-0.003000000,-0.002000000
1696857185.195420,637590.000000000,1696857185.194141626,-0.137000000,0.493000000,-0.054000000,0.005000000,-0.003000000,-0.002000000
1696857185.197534,637591.000000000,1696857185.196181297,-0.132000000,0.495000000,-0.055000000,0.005000000,-0.003000000,-0.003000000
1696857185.199565,637592.000000000,1696857185.198133945,-0.126000000,0.497000000,-0.055000000,0.005000000,-0.002000000,-0.003000000
1696857185.201372,637593.000000000,1696857185.200127125,-0.120000000,0.499000000,-0.056000000,0.005000000,-0.002000000,-0.003000000
1696857185.203369,637594.000000000,1696857185.202102423,-0.114000000,0.502000000,-0.055000000,0.005000000,-0.002000000,-0.003000000
1696857185.205411,637595.000000000,1696857185.204139709,-0.108000000,0.505000000,-0.053000000,0.005000000,-0.002000000,-0.003000000
1696857185.207397,637596.000000000,1696857185.206115484,-0.102000000,0.509000000,-0.051000000,0.004000000,-0.001000000,-0.003000000
1696857185.209338,637597.000000000,1696857185.208082438,-0.096000000,0.512000000,-0.047000000,0.004000000,-0.001000000,-0.003000000
1696857185.211376,637598.000000000,1696857185.210110903,-0.089000000,0.515000000,-0.043000000,0.004000000,-0.001000000,-0.003000000
1696857185.213405,637599.000000000,1696857185.212112904,-0.083000000,0.517000000,-0.039000000,0.004000000,-0.001000000,-0.003000000
1696857185.215356,637600.000000000,1696857185.214092493,-0.077000000,0.516000000,-0.036000000,0.004000000,0.000000000,-0.004000000
1696857185.217337,637601.000000000,1696857185.216080904,-0.070000000,0.514000000,-0.032000000,0.004000000,0.000000000,-0.004000000
1696857185.219407,637602.000000000,1696857185.218124390,-0.064000000,0.511000000,-0.026000000,0.004000000,0.000000000,-0.004000000
1696857185.221424,637603.000000000,1696857185.220123053,-0.058000000,0.508000000,-0.022000000,0.004000000,0.000000000,-0.004000000
1696857185.223630,637604.000000000,1696857185.222131729,-0.053000000,0.504000000,-0.016000000,0.004000000,0.000000000,-0.004000000
1696857185.225386,637605.000000000,1696857185.224092722,-0.049000000,0.501000000,-0.011000000,0.004000000,0.000000000,-0.004000000
1696857185.227653,637606.000000000,1696857185.226116657,-0.046000000,0.499000000,-0.004000000,0.004000000,0.000000000,-0.004000000
1696857185.229514,637607.000000000,1696857185.228136301,-0.043000000,0.497000000,0.002000000,0.004000000,0.000000000,-0.005000000
1696857185.231435,637608.000000000,1696857185.230118752,-0.041000000,0.495000000,0.009000000,0.004000000,0.000000000,-0.005000000
1696857185.233387,637609.000000000,1696857185.232106686,-0.040000000,0.493000000,0.017000000,0.005000000,0.000000000,-0.005000000
1696857185.235460,637610.000000000,1696857185.234104156,-0.038000000,0.489000000,0.023000000,0.005000000,0.001000000,-0.005000000
1696857185.237450,637611.000000000,1696857185.236099005,-0.037000000,0.484000000,0.029000000,0.005000000,0.001000000,-0.005000000
1696857185.239381,637612.000000000,1696857185.238074064,-0.036000000,0.478000000,0.036000000,0.005000000,0.001000000,-0.005000000
1696857185.241611,637613.000000000,1696857185.240161896,-0.035000000,0.471000000,0.041000000,0.006000000,0.001000000,-0.005000000
1696857185.243410,637614.000000000,1696857185.242095947,-0.035000000,0.464000000,0.048000000,0.006000000,0.001000000,-0.005000000
1696857185.245621,637615.000000000,1696857185.244139433,-0.035000000,0.456000000,0.055000000,0.006000000,0.001000000,-0.005000000
1696857185.247424,637616.000000000,1696857185.246103525,-0.035000000,0.449000000,0.060000000,0.007000000,0.001000000,-0.005000000
1696857185.249450,637617.000000000,1696857185.248130798,-0.036000000,0.444000000,0.066000000,0.007000000,0.001000000,-0.005000000
1696857185.251435,637618.000000000,1696857185.250101089,-0.038000000,0.439000000,0.072000000,0.007000000,0.001000000,-0.005000000
1696857185.253572,637619.000000000,1696857185.252146244,-0.039000000,0.435000000,0.078000000,0.007000000,0.001000000,-0.005000000
1696857185.255420,637620.000000000,1696857185.254129648,-0.041000000,0.431000000,0.085000000,0.007000000,0.001000000,-0.005000000
1696857185.257515,637621.000000000,1696857185.256094933,-0.042000000,0.427000000,0.089000000,0.008000000,0.000000000,-0.005000000
1696857185.259414,637622.000000000,1696857185.258104801,-0.043000000,0.422000000,0.092000000,0.008000000,0.000000000,-0.005000000
1696857185.261505,637623.000000000,1696857185.260116816,-0.045000000,0.416000000,0.096000000,0.008000000,0.000000000,-0.005000000
1696857185.263506,637624.000000000,1696857185.262150288,-0.046000000,0.409000000,0.100000000,0.008000000,0.000000000,-0.005000000
1696857185.265425,637625.000000000,1696857185.264090776,-0.048000000,0.402000000,0.104000000,0.009000000,0.000000000,-0.005000000
1696857185.267427,637626.000000000,1696857185.266127825,-0.048000000,0.396000000,0.106000000,0.009000000,0.000000000,-0.005000000
1696857185.269500,637627.000000000,1696857185.268136978,-0.049000000,0.390000000,0.108000000,0.009000000,0.000000000,-0.005000000
1696857185.271373,637628.000000000,1696857185.270122051,-0.050000000,0.386000000,0.110000000,0.010000000,0.000000000,-0.005000000
1696857185.273490,637629.000000000,1696857185.272161722,-0.051000000,0.384000000,0.112000000,0.010000000,0.000000000,-0.005000000
1696857185.275392,637630.000000000,1696857185.274085522,-0.053000000,0.382000000,0.114000000,0.010000000,0.000000000,-0.005000000
1696857185.277397,637631.000000000,1696857185.276101589,-0.053000000,0.382000000,0.116000000,0.010000000,0.000000000,-0.005000000
1696857185.279404,637632.000000000,1696857185.278074741,-0.054000000,0.382000000,0.116000000,0.010000000,0.000000000,-0.005000000
1696857185.281609,637633.000000000,1696857185.280078411,-0.055000000,0.381000000,0.116000000,0.010000000,0.000000000,-0.005000000
1696857185.283489,637634.000000000,1696857185.282131910,-0.056000000,0.379000000,0.115000000,0.010000000,0.000000000,-0.005000000
1696857185.285522,637635.000000000,1696857185.284158707,-0.056000000,0.377000000,0.112000000,0.010000000,0.000000000,-0.005000000
1696857185.287345,637636.000000000,1696857185.286086321,-0.057000000,0.375000000,0.111000000,0.010000000,0.000000000,-0.005000000
1696857185.289359,637637.000000000,1696857185.288092852,-0.057000000,0.373000000,0.109000000,0.010000000,0.000000000,-0.005000000
1696857185.291415,637638.000000000,1696857185.290092707,-0.058000000,0.373000000,0.107000000,0.010000000,0.000000000,-0.005000000
1696857185.293490,637639.000000000,1696857185.292131186,-0.058000000,0.374000000,0.104000000,0.010000000,0.000000000,-0.005000000
1696857185.295377,637640.000000000,1696857185.294103622,-0.059000000,0.376000000,0.102000000,0.010000000,0.000000000,-0.005000000
1696857185.297388,637641.000000000,1696857185.296115398,-0.059000000,0.379000000,0.098000000,0.010000000,0.000000000,-0.005000000
1696857185.299738,637642.000000000,1696857185.298114538,-0.060000000,0.384000000,0.096000000,0.009000000,0.000000000,-0.005000000
1696857185.301878,637643.000000000,1696857185.300136089,-0.061000000,0.388000000,0.093000000,0.009000000,0.000000000,-0.005000000
1696857185.303441,637644.000000000,1696857185.302106619,-0.063000000,0.393000000,0.089000000,0.009000000,0.000000000,-0.005000000
1696857185.305403,637645.000000000,1696857185.304085970,-0.064000000,0.396000000,0.084000000,0.009000000,0.000000000,-0.005000000
1696857185.307481,637646.000000000,1696857185.306129694,-0.066000000,0.400000000,0.079000000,0.009000000,0.000000000,-0.005000000
1696857185.309476,637647.000000000,1696857185.308118582,-0.067000000,0.403000000,0.075000000,0.008000000,0.000000000,-0.004000000
1696857185.312023,637648.000000000,1696857185.310153008,-0.069000000,0.405000000,0.069000000,0.008000000,0.000000000,-0.004000000
1696857185.313981,637649.000000000,1696857185.312150717,-0.071000000,0.409000000,0.064000000,0.008000000,0.000000000,-0.004000000
1696857185.315415,637650.000000000,1696857185.314114094,-0.072000000,0.413000000,0.058000000,0.008000000,0.000000000,-0.004000000
1696857185.317398,637651.000000000,1696857185.316121340,-0.075000000,0.418000000,0.053000000,0.007000000,0.000000000,-0.004000000
1696857185.319385,637652.000000000,1696857185.318125248,-0.077000000,0.425000000,0.048000000,0.007000000,0.000000000,-0.004000000
1696857185.321409,637653.000000000,1696857185.320121288,-0.079000000,0.432000000,0.044000000,0.007000000,0.000000000,-0.004000000
1696857185.323371,637654.000000000,1696857185.322120190,-0.081000000,0.439000000,0.041000000,0.006000000,0.000000000,-0.004000000
1696857185.325487,637655.000000000,1696857185.324141979,-0.084000000,0.446000000,0.037000000,0.006000000,-0.001000000,-0.004000000
1696857185.327372,637656.000000000,1696857185.326123476,-0.086000000,0.452000000,0.032000000,0.006000000,-0.001000000,-0.004000000
1696857185.329450,637657.000000000,1696857185.328134775,-0.088000000,0.456000000,0.028000000,0.005000000,-0.001000000,-0.004000000
1696857185.331420,637658.000000000,1696857185.330130100,-0.089000000,0.460000000,0.023000000,0.005000000,-0.001000000,-0.004000000
1696857185.333971,637659.000000000,1696857185.332152128,-0.089000000,0.463000000,0.019000000,0.005000000,-0.001000000,-0.004000000
1696857185.335398,637660.000000000,1696857185.334114313,-0.090000000,0.466000000,0.015000000,0.005000000,-0.001000000,-0.004000000
1696857185.337393,637661.000000000,1696857185.336114883,-0.090000000,0.469000000,0.012000000,0.005000000,-0.001000000,-0.004000000
1696857185.339456,637662.000000000,1696857185.338100672,-0.091000000,0.472000000,0.009000000,0.005000000,-0.001000000,-0.004000000
1696857185.341520,637663.000000000,1696857185.340151787,-0.091000000,0.476000000,0.007000000,0.004000000,-0.001000000,-0.004000000
1696857185.343386,637664.000000000,1696857185.342099428,-0.091000000,0.481000000,0.005000000,0.004000000,-0.001000000,-0.004000000
1696857185.345395,637665.000000000,1696857185.344110250,-0.091000000,0.485000000,0.005000000,0.004000000,-0.001000000,-0.004000000
1696857185.347385,637666.000000000,1696857185.346107483,-0.090000000,0.489000000,0.003000000,0.004000000,-0.001000000,-0.004000000
1696857185.349421,637667.000000000,1696857185.348118305,-0.088000000,0.492000000,0.003000000,0.004000000,-0.001000000,-0.004000000
1696857185.351464,637668.000000000,1696857185.350167036,-0.087000000,0.493000000,0.001000000,0.004000000,-0.001000000,-0.004000000
1696857185.353430,637669.000000000,1696857185.352082968,-0.084000000,0.493000000,0.001000000,0.004000000,-0.001000000,-0.004000000
1696857185.355448,637670.000000000,1696857185.354132414,-0.081000000,0.492000000,0.000000000,0.004000000,-0.001000000,-0.004000000
1696857185.357461,637671.000000000,1696857185.356087446,-0.078000000,0.490000000,0.001000000,0.004000000,-0.001000000,-0.004000000
1696857185.359435,637672.000000000,1696857185.358143568,-0.075000000,0.488000000,0.002000000,0.004000000,0.000000000,-0.004000000
1696857185.361460,637673.000000000,1696857185.360116959,-0.071000000,0.487000000,0.003000000,0.004000000,0.000000000,-0.004000000
1696857185.363403,637674.000000000,1696857185.362071037,-0.067000000,0.485000000,0.003000000,0.004000000,0.000000000,-0.005000000
1696857185.365709,637675.000000000,1696857185.364081621,-0.064000000,0.485000000,0.006000000,0.004000000,0.000000000,-0.005000000
