__time,/kms40_driver/wrench/header/seq,/kms40_driver/wrench/header/stamp,/kms40_driver/wrench/wrench/force/x,/kms40_driver/wrench/wrench/force/y,/kms40_driver/wrench/wrench/force/z,/kms40_driver/wrench/wrench/torque/x,/kms40_driver/wrench/wrench/torque/y,/kms40_driver/wrench/wrench/torque/z
1696854445.908878,5134478.000000000,1696854445.907365799,-0.114000000,0.076000000,0.078000000,0.005000000,0.002000000,-0.002000000
1696854445.909661,5134479.000000000,1696854445.909368038,-0.114000000,0.076000000,0.080000000,0.005000000,0.002000000,-0.002000000
1696854445.911630,5134480.000000000,1696854445.911354065,-0.114000000,0.076000000,0.081000000,0.005000000,0.002000000,-0.002000000
1696854445.913705,5134481.000000000,1696854445.913359642,-0.114000000,0.077000000,0.084000000,0.005000000,0.002000000,-0.002000000
1696854445.916108,5134482.000000000,1696854445.915353775,-0.113000000,0.077000000,0.086000000,0.005000000,0.002000000,-0.002000000
1696854445.917719,5134483.000000000,1696854445.917402029,-0.113000000,0.077000000,0.087000000,0.005000000,0.002000000,-0.002000000
1696854445.919657,5134484.000000000,1696854445.919351101,-0.112000000,0.077000000,0.089000000,0.005000000,0.002000000,-0.002000000
1696854445.921888,5134485.000000000,1696854445.921380520,-0.112000000,0.076000000,0.090000000,0.005000000,0.002000000,-0.002000000
1696854445.923643,5134486.000000000,1696854445.923358679,-0.111000000,0.074000000,0.090000000,0.005000000,0.002000000,-0.002000000
1696854445.926127,5134487.000000000,1696854445.925368786,-0.110000000,0.073000000,0.091000000,0.005000000,0.002000000,-0.002000000
1696854445.927607,5134488.000000000,1696854445.927341461,-0.109000000,0.072000000,0.092000000,0.005000000,0.002000000,-0.002000000
1696854445.929687,5134489.000000000,1696854445.929356575,-0.109000000,0.071000000,0.093000000,0.005000000,0.002000000,-0.002000000
1696854445.931630,5134490.000000000,1696854445.931352139,-0.108000000,0.071000000,0.094000000,0.005000000,0.002000000,-0.002000000
1696854445.933739,5134491.000000000,1696854445.933350325,-0.107000000,0.071000000,0.095000000,0.005000000,0.002000000,-0.002000000
1696854445.935641,5134492.000000000,1696854445.935363770,-0.107000000,0.072000000,0.097000000,0.005000000,0.002000000,-0.002000000
1696854445.937675,5134493.000000000,1696854445.937348366,-0.107000000,0.073000000,0.099000000,0.005000000,0.002000000,-0.002000000
1696854445.939724,5134494.000000000,1696854445.939403296,-0.106000000,0.073000000,0.100000000,0.005000000,0.002000000,-0.002000000
1696854445.942457,5134495.000000000,1696854445.941403151,-0.106000000,0.073000000,0.101000000,0.005000000,0.002000000,-0.002000000
1696854445.943762,5134496.000000000,1696854445.943360090,-0.105000000,0.073000000,0.101000000,0.005000000,0.002000000,-0.002000000
1696854445.945848,5134497.000000000,1696854445.945370197,-0.105000000,0.072000000,0.101000000,0.005000000,0.002000000,-0.002000000
1696854445.947660,5134498.000000000,1696854445.947344065,-0.105000000,0.071000000,0.100000000,0.005000000,0.002000000,-0.002000000
1696854445.949764,5134499.000000000,1696854445.949399233,-0.104000000,0.070000000,0.100000000,0.005000000,0.002000000,-0.002000000
1696854445.951703,5134500.000000000,1696854445.951358795,-0.104000000,0.069000000,0.101000000,0.005000000,0.002000000,-0.002000000
1696854445.953661,5134501.000000000,1696854445.953370333,-0.103000000,0.069000000,0.102000000,0.005000000,0.002000000,-0.002000000
1696854445.955609,5134502.000000000,1696854445.955343962,-0.103000000,0.070000000,0.101000000,0.005000000,0.002000000,-0.002000000
1696854445.957963,5134503.000000000,1696854445.957372189,-0.103000000,0.070000000,0.102000000,0.005000000,0.002000000,-0.002000000
1696854445.959664,5134504.000000000,1696854445.959328651,-0.103000000,0.072000000,0.102000000,0.005000000,0.002000000,-0.002000000
1696854445.961719,5134505.000000000,1696854445.961388350,-0.103000000,0.073000000,0.102000000,0.005000000,0.002000000,-0.002000000
1696854445.963597,5134506.000000000,1696854445.963328362,-0.103000000,0.073000000,0.102000000,0.005000000,0.002000000,-0.002000000
1696854445.966362,5134507.000000000,1696854445.965372324,-0.103000000,0.073000000,0.101000000,0.005000000,0.002000000,-0.002000000
1696854445.967949,5134508.000000000,1696854445.967347622,-0.103000000,0.073000000,0.101000000,0.005000000,0.002000000,-0.002000000
1696854445.969741,5134509.000000000,1696854445.969386816,-0.103000000,0.072000000,0.100000000,0.005000000,0.002000000,-0.002000000
1696854445.971718,5134510.000000000,1696854445.971345186,-0.103000000,0.071000000,0.098000000,0.005000000,0.002000000,-0.002000000
1696854445.973887,5134511.000000000,1696854445.973375082,-0.103000000,0.070000000,0.098000000,0.005000000,0.002000000,-0.002000000
1696854445.975755,5134512.000000000,1696854445.975360155,-0.103000000,0.070000000,0.096000000,0.005000000,0.002000000,-0.002000000
1696854445.977698,5134513.000000000,1696854445.977370024,-0.103000000,0.071000000,0.096000000,0.005000000,0.002000000,-0.002000000
1696854445.979713,5134514.000000000,1696854445.979342222,-0.103000000,0.072000000,0.096000000,0.005000000,0.002000000,-0.002000000
1696854445.981878,5134515.000000000,1696854445.981373787,-0.103000000,0.073000000,0.096000000,0.005000000,0.002000000,-0.002000000
1696854445.983766,5134516.000000000,1696854445.983408689,-0.104000000,0.074000000,0.095000000,0.005000000,0.002000000,-0.002000000
1696854445.986820,5134517.000000000,1696854445.985530853,-0.104000000,0.075000000,0.095000000,0.004000000,0.002000000,-0.002000000
1696854445.987927,5134518.000000000,1696854445.987339497,-0.104000000,0.075000000,0.093000000,0.004000000,0.002000000,-0.002000000
1696854445.989784,5134519.000000000,1696854445.989395380,-0.104000000,0.075000000,0.092000000,0.004000000,0.002000000,-0.002000000
1696854445.991698,5134520.000000000,1696854445.991334438,-0.104000000,0.075000000,0.091000000,0.004000000,0.002000000,-0.002000000
1696854445.993737,5134521.000000000,1696854445.993364811,-0.103000000,0.074000000,0.089000000,0.004000000,0.002000000,-0.002000000
1696854445.995891,5134522.000000000,1696854445.995345354,-0.103000000,0.073000000,0.088000000,0.004000000,0.002000000,-0.002000000
1696854445.997678,5134523.000000000,1696854445.997333527,-0.103000000,0.073000000,0.086000000,0.004000000,0.002000000,-0.002000000
1696854445.999952,5134524.000000000,1696854445.999381781,-0.103000000,0.073000000,0.085000000,0.004000000,0.002000000,-0.002000000
1696854446.001816,5134525.000000000,1696854446.001403093,-0.102000000,0.074000000,0.084000000,0.004000000,0.002000000,-0.002000000
1696854446.003793,5134526.000000000,1696854446.003369570,-0.102000000,0.076000000,0.083000000,0.004000000,0.002000000,-0.002000000
1696854446.006041,5134527.000000000,1696854446.005446911,-0.102000000,0.077000000,0.083000000,0.004000000,0.002000000,-0.002000000
1696854446.007851,5134528.000000000,1696854446.007359982,-0.102000000,0.078000000,0.081000000,0.004000000,0.002000000,-0.002000000
1696854446.009815,5134529.000000000,1696854446.009379864,-0.102000000,0.079000000,0.080000000,0.004000000,0.002000000,-0.002000000
1696854446.011833,5134530.000000000,1696854446.011349201,-0.102000000,0.079000000,0.077000000,0.004000000,0.002000000,-0.002000000
1696854446.013833,5134531.000000000,1696854446.013353109,-0.102000000,0.079000000,0.075000000,0.004000000,0.002000000,-0.002000000
1696854446.015792,5134532.000000000,1696854446.015343428,-0.101000000,0.078000000,0.071000000,0.004000000,0.002000000,-0.001000000
1696854446.017829,5134533.000000000,1696854446.017356396,-0.100000000,0.078000000,0.068000000,0.004000000,0.002000000,-0.001000000
1696854446.019831,5134534.000000000,1696854446.019354343,-0.099000000,0.078000000,0.065000000,0.004000000,0.002000000,-0.001000000
1696854446.021728,5134535.000000000,1696854446.021358967,-0.099000000,0.079000000,0.062000000,0.004000000,0.002000000,-0.001000000
1696854446.023710,5134536.000000000,1696854446.023361444,-0.098000000,0.079000000,0.059000000,0.004000000,0.002000000,-0.001000000
1696854446.026205,5134537.000000000,1696854446.025366545,-0.097000000,0.081000000,0.056000000,0.004000000,0.002000000,-0.001000000
1696854446.027739,5134538.000000000,1696854446.027378082,-0.097000000,0.083000000,0.053000000,0.004000000,0.002000000,-0.001000000
1696854446.030889,5134539.000000000,1696854446.029660702,-0.096000000,0.085000000,0.050000000,0.004000000,0.002000000,-0.001000000
1696854446.032130,5134540.000000000,1696854446.031783342,-0.096000000,0.087000000,0.048000000,0.004000000,0.002000000,-0.001000000
1696854446.034592,5134541.000000000,1696854446.033359289,-0.096000000,0.087000000,0.043000000,0.004000000,0.002000000,-0.001000000
1696854446.035724,5134542.000000000,1696854446.035377979,-0.095000000,0.088000000,0.039000000,0.005000000,0.002000000,-0.001000000
1696854446.037777,5134543.000000000,1696854446.037376404,-0.095000000,0.088000000,0.033000000,0.005000000,0.002000000,-0.001000000
1696854446.039684,5134544.000000000,1696854446.039360285,-0.094000000,0.088000000,0.030000000,0.005000000,0.002000000,0.000000000
1696854446.041796,5134545.000000000,1696854446.041394234,-0.093000000,0.088000000,0.025000000,0.005000000,0.002000000,0.000000000
1696854446.043953,5134546.000000000,1696854446.043350458,-0.092000000,0.089000000,0.020000000,0.005000000,0.002000000,0.000000000
1696854446.045946,5134547.000000000,1696854446.045362949,-0.092000000,0.090000000,0.017000000,0.005000000,0.002000000,0.000000000
1696854446.047785,5134548.000000000,1696854446.047397375,-0.091000000,0.091000000,0.013000000,0.005000000,0.002000000,0.000000000
1696854446.049808,5134549.000000000,1696854446.049396038,-0.091000000,0.093000000,0.010000000,0.005000000,0.002000000,0.000000000
1696854446.051731,5134550.000000000,1696854446.051333189,-0.090000000,0.095000000,0.006000000,0.005000000,0.002000000,0.000000000
1696854446.053704,5134551.000000000,1696854446.053348303,-0.090000000,0.097000000,0.003000000,0.005000000,0.002000000,0.000000000
1696854446.055720,5134552.000000000,1696854446.055347204,-0.090000000,0.098000000,0.000000000,0.005000000,0.002000000,0.000000000
1696854446.057994,5134553.000000000,1696854446.057360888,-0.090000000,0.098000000,-0.003000000,0.005000000,0.002000000,0.000000000
1696854446.059781,5134554.000000000,1696854446.059364319,-0.089000000,0.098000000,-0.007000000,0.005000000,0.002000000,0.000000000
1696854446.061686,5134555.000000000,1696854446.061354399,-0.089000000,0.098000000,-0.011000000,0.005000000,0.002000000,0.000000000
1696854446.063644,5134556.000000000,1696854446.063343287,-0.088000000,0.098000000,-0.014000000,0.005000000,0.002000000,0.000000000
1696854446.065900,5134557.000000000,1696854446.065368891,-0.088000000,0.097000000,-0.016000000,0.005000000,0.002000000,0.000000000
1696854446.067737,5134558.000000000,1696854446.067391634,-0.087000000,0.098000000,-0.019000000,0.005000000,0.002000000,0.000000000
1696854446.069766,5134559.000000000,1696854446.069354534,-0.087000000,0.098000000,-0.019000000,0.005000000,0.002000000,0.000000000
1696854446.071800,5134560.000000000,1696854446.071386099,-0.087000000,0.100000000,-0.020000000,0.005000000,0.002000000,0.000000000
1696854446.073740,5134561.000000000,1696854446.073353291,-0.088000000,0.100000000,-0.021000000,0.005000000,0.002000000,0.000000000
1696854446.075735,5134562.000000000,1696854446.075340271,-0.088000000,0.101000000,-0.020000000,0.005000000,0.002000000,0.000000000
1696854446.077725,5134563.000000000,1696854446.077345371,-0.088000000,0.102000000,-0.020000000,0.005000000,0.002000000,0.000000000
1696854446.079721,5134564.000000000,1696854446.079345465,-0.089000000,0.102000000,-0.020000000,0.005000000,0.002000000,0.000000000
1696854446.081732,5134565.000000000,1696854446.081387043,-0.088000000,0.101000000,-0.021000000,0.005000000,0.002000000,0.000000000
1696854446.083695,5134566.000000000,1696854446.083367825,-0.089000000,0.100000000,-0.019000000,0.005000000,0.002000000,0.000000000
1696854446.086535,5134567.000000000,1696854446.085417509,-0.089000000,0.098000000,-0.019000000,0.005000000,0.002000000,0.000000000
1696854446.087986,5134568.000000000,1696854446.087353230,-0.088000000,0.097000000,-0.019000000,0.005000000,0.002000000,0.000000000
1696854446.089729,5134569.000000000,1696854446.089386940,-0.089000000,0.096000000,-0.017000000,0.005000000,0.002000000,0.000000000
1696854446.091684,5134570.000000000,1696854446.091354132,-0.089000000,0.096000000,-0.014000000,0.005000000,0.002000000,0.000000000
1696854446.093721,5134571.000000000,1696854446.093387365,-0.089000000,0.096000000,-0.012000000,0.005000000,0.002000000,0.000000000
1696854446.095686,5134572.000000000,1696854446.095347166,-0.090000000,0.097000000,-0.008000000,0.005000000,0.002000000,0.000000000
1696854446.097790,5134573.000000000,1696854446.097365856,-0.090000000,0.097000000,-0.007000000,0.005000000,0.002000000,0.000000000
1696854453.955581,5137619.000000000,1696854453.953709841,-0.126000000,0.110000000,-0.022000000,0.005000000,0.002000000,0.000000000
1696854453.969949,5137626.000000000,1696854453.967710972,-0.128000000,0.110000000,-0.039000000,0.005000000,0.002000000,0.000000000
1696854453.983332,5137633.000000000,1696854453.981651545,-0.128000000,0.108000000,-0.040000000,0.005000000,0.003000000,0.000000000
1696854453.984065,5137634.000000000,1696854453.983759165,-0.127000000,0.106000000,-0.040000000,0.005000000,0.003000000,0.000000000
1696854453.986345,5137635.000000000,1696854453.985743523,-0.127000000,0.104000000,-0.039000000,0.005000000,0.003000000,0.000000000
1696854453.988012,5137636.000000000,1696854453.987723351,-0.127000000,0.103000000,-0.037000000,0.005000000,0.003000000,0.000000000
1696854453.990037,5137637.000000000,1696854453.989737749,-0.126000000,0.102000000,-0.034000000,0.005000000,0.003000000,0.000000000
1696854453.992093,5137638.000000000,1696854453.991770983,-0.126000000,0.102000000,-0.031000000,0.005000000,0.003000000,0.000000000
1696854453.994313,5137639.000000000,1696854453.993754148,-0.126000000,0.102000000,-0.028000000,0.005000000,0.003000000,0.000000000
1696854454.005011,5137644.000000000,1696854454.003736019,-0.125000000,0.096000000,-0.010000000,0.005000000,0.003000000,0.000000000
1696854454.012004,5137647.000000000,1696854454.009735107,-0.123000000,0.090000000,0.000000000,0.005000000,0.003000000,0.000000000
1696854454.012031,5137648.000000000,1696854454.011725903,-0.123000000,0.089000000,0.002000000,0.005000000,0.003000000,0.000000000
1696854454.014096,5137649.000000000,1696854454.013784885,-0.123000000,0.088000000,0.006000000,0.005000000,0.002000000,0.000000000
1696854454.016103,5137650.000000000,1696854454.015717268,-0.123000000,0.088000000,0.012000000,0.005000000,0.002000000,-0.001000000
1696854454.022802,5137653.000000000,1696854454.021680117,-0.122000000,0.086000000,0.021000000,0.005000000,0.002000000,-0.001000000
1696854454.024080,5137654.000000000,1696854454.023701191,-0.122000000,0.085000000,0.024000000,0.005000000,0.002000000,-0.001000000
1696854454.026458,5137655.000000000,1696854454.025742292,-0.122000000,0.083000000,0.025000000,0.005000000,0.002000000,-0.001000000
1696854454.028404,5137656.000000000,1696854454.027745008,-0.122000000,0.082000000,0.027000000,0.005000000,0.002000000,-0.001000000
1696854454.030182,5137657.000000000,1696854454.029734373,-0.121000000,0.080000000,0.029000000,0.005000000,0.002000000,-0.001000000
1696854454.032004,5137658.000000000,1696854454.031704664,-0.121000000,0.078000000,0.030000000,0.005000000,0.002000000,-0.001000000
1696854454.034109,5137659.000000000,1696854454.033735514,-0.120000000,0.078000000,0.031000000,0.005000000,0.002000000,-0.001000000
1696854454.036340,5137660.000000000,1696854454.035792828,-0.120000000,0.077000000,0.033000000,0.005000000,0.002000000,-0.001000000
1696854454.038091,5137661.000000000,1696854454.037743568,-0.119000000,0.078000000,0.033000000,0.005000000,0.002000000,-0.001000000
1696854454.040103,5137662.000000000,1696854454.039739609,-0.119000000,0.078000000,0.035000000,0.005000000,0.002000000,-0.001000000
1696854454.042058,5137663.000000000,1696854454.041742802,-0.119000000,0.078000000,0.035000000,0.005000000,0.002000000,-0.001000000
1696854454.044054,5137664.000000000,1696854454.043716431,-0.119000000,0.079000000,0.035000000,0.005000000,0.002000000,-0.001000000
1696854454.046131,5137665.000000000,1696854454.045700550,-0.119000000,0.079000000,0.035000000,0.005000000,0.002000000,-0.001000000
1696854454.048102,5137666.000000000,1696854454.047688007,-0.118000000,0.078000000,0.034000000,0.005000000,0.002000000,-0.001000000
1696854454.050132,5137667.000000000,1696854454.049700499,-0.118000000,0.076000000,0.032000000,0.005000000,0.002000000,-0.001000000
1696854454.067112,5137675.000000000,1696854454.065696239,-0.114000000,0.076000000,0.023000000,0.004000000,0.002000000,-0.001000000
1696854454.068026,5137676.000000000,1696854454.067685604,-0.113000000,0.076000000,0.021000000,0.004000000,0.002000000,-0.001000000
1696854454.070189,5137677.000000000,1696854454.069757462,-0.113000000,0.076000000,0.020000000,0.004000000,0.002000000,-0.001000000
1696854454.072032,5137678.000000000,1696854454.071733713,-0.112000000,0.075000000,0.018000000,0.004000000,0.002000000,-0.001000000
1696854454.074051,5137679.000000000,1696854454.073732138,-0.111000000,0.074000000,0.017000000,0.005000000,0.002000000,-0.001000000
1696854454.076031,5137680.000000000,1696854454.075729132,-0.111000000,0.072000000,0.015000000,0.005000000,0.002000000,-0.001000000
1696854454.078354,5137681.000000000,1696854454.077844143,-0.110000000,0.071000000,0.014000000,0.005000000,0.002000000,-0.001000000
1696854454.080078,5137682.000000000,1696854454.079780817,-0.110000000,0.071000000,0.014000000,0.005000000,0.002000000,-0.001000000
1696854454.082039,5137683.000000000,1696854454.081731081,-0.109000000,0.072000000,0.012000000,0.005000000,0.002000000,-0.001000000
1696854454.084336,5137684.000000000,1696854454.083711863,-0.108000000,0.072000000,0.013000000,0.005000000,0.002000000,-0.001000000
1696854454.086375,5137685.000000000,1696854454.085698128,-0.109000000,0.073000000,0.014000000,0.005000000,0.002000000,-0.001000000
1696854454.087965,5137686.000000000,1696854454.087684393,-0.108000000,0.074000000,0.014000000,0.005000000,0.002000000,-0.001000000
1696854454.090276,5137687.000000000,1696854454.089706898,-0.108000000,0.074000000,0.015000000,0.005000000,0.002000000,-0.001000000
1696854454.092088,5137688.000000000,1696854454.091685295,-0.108000000,0.074000000,0.014000000,0.005000000,0.002000000,-0.001000000
1696854454.094196,5137689.000000000,1696854454.093745708,-0.108000000,0.073000000,0.014000000,0.005000000,0.002000000,-0.001000000
1696854454.115976,5137699.000000000,1696854454.113684654,-0.108000000,0.074000000,0.024000000,0.005000000,0.002000000,-0.001000000
1696854454.116459,5137700.000000000,1696854454.115694046,-0.108000000,0.073000000,0.025000000,0.005000000,0.002000000,-0.001000000
1696854454.118114,5137701.000000000,1696854454.117690802,-0.108000000,0.072000000,0.026000000,0.005000000,0.002000000,-0.001000000
1696854454.120161,5137702.000000000,1696854454.119782925,-0.108000000,0.071000000,0.024000000,0.005000000,0.002000000,-0.001000000
1696854454.122102,5137703.000000000,1696854454.121739864,-0.108000000,0.070000000,0.026000000,0.005000000,0.002000000,-0.001000000
1696854454.124476,5137704.000000000,1696854454.123782635,-0.108000000,0.070000000,0.026000000,0.005000000,0.002000000,-0.001000000
1696854454.126249,5137705.000000000,1696854454.125730991,-0.108000000,0.070000000,0.027000000,0.005000000,0.002000000,-0.001000000
1696854454.128266,5137706.000000000,1696854454.127728701,-0.109000000,0.070000000,0.029000000,0.005000000,0.002000000,-0.001000000
1696854454.130206,5137707.000000000,1696854454.129734993,-0.109000000,0.072000000,0.031000000,0.005000000,0.002000000,-0.001000000
1696854454.132164,5137708.000000000,1696854454.131725311,-0.110000000,0.073000000,0.033000000,0.005000000,0.002000000,-0.001000000
1696854454.134293,5137709.000000000,1696854454.133711100,-0.110000000,0.073000000,0.034000000,0.005000000,0.002000000,-0.001000000
1696854454.147172,5137715.000000000,1696854454.145864964,-0.113000000,0.071000000,0.035000000,0.005000000,0.002000000,-0.001000000
1696854454.168690,5137726.000000000,1696854454.167732239,-0.118000000,0.073000000,0.039000000,0.005000000,0.002000000,-0.001000000
1696854454.171653,5137727.000000000,1696854454.169728994,-0.118000000,0.073000000,0.040000000,0.005000000,0.002000000,-0.001000000
1696854454.172004,5137728.000000000,1696854454.171694994,-0.118000000,0.073000000,0.040000000,0.005000000,0.002000000,-0.001000000
1696854454.174009,5137729.000000000,1696854454.173713923,-0.120000000,0.074000000,0.041000000,0.005000000,0.002000000,-0.001000000
1696854454.176058,5137730.000000000,1696854454.175709724,-0.120000000,0.075000000,0.043000000,0.005000000,0.002000000,-0.001000000
1696854454.178064,5137731.000000000,1696854454.177729368,-0.121000000,0.077000000,0.044000000,0.005000000,0.002000000,-0.001000000
1696854454.180027,5137732.000000000,1696854454.179710627,-0.122000000,0.078000000,0.046000000,0.005000000,0.002000000,-0.001000000
1696854454.181969,5137733.000000000,1696854454.181683302,-0.122000000,0.079000000,0.047000000,0.004000000,0.002000000,-0.001000000
1696854454.184019,5137734.000000000,1696854454.183742285,-0.123000000,0.079000000,0.046000000,0.004000000,0.002000000,-0.001000000
1696854454.186227,5137735.000000000,1696854454.185720682,-0.123000000,0.079000000,0.046000000,0.004000000,0.002000000,-0.001000000
1696854454.188362,5137736.000000000,1696854454.187707663,-0.124000000,0.079000000,0.046000000,0.005000000,0.002000000,-0.001000000
1696854454.194638,5137739.000000000,1696854454.193710089,-0.125000000,0.079000000,0.046000000,0.005000000,0.002000000,-0.001000000
1696854454.201739,5137742.000000000,1696854454.199687243,-0.127000000,0.085000000,0.046000000,0.004000000,0.002000000,-0.001000000
1696854454.201989,5137743.000000000,1696854454.201695919,-0.127000000,0.087000000,0.046000000,0.004000000,0.002000000,-0.001000000
1696854454.203985,5137744.000000000,1696854454.203698397,-0.128000000,0.089000000,0.045000000,0.004000000,0.002000000,-0.001000000
1696854454.206308,5137745.000000000,1696854454.205705404,-0.129000000,0.090000000,0.044000000,0.004000000,0.002000000,-0.001000000
1696854454.207971,5137746.000000000,1696854454.207671404,-0.128000000,0.091000000,0.040000000,0.004000000,0.002000000,-0.001000000
1696854454.210028,5137747.000000000,1696854454.209722281,-0.129000000,0.091000000,0.038000000,0.004000000,0.002000000,-0.001000000
1696854454.211990,5137748.000000000,1696854454.211690187,-0.129000000,0.092000000,0.036000000,0.004000000,0.002000000,-0.001000000
1696854454.214064,5137749.000000000,1696854454.213689566,-0.129000000,0.093000000,0.032000000,0.005000000,0.002000000,-0.001000000
1696854454.216178,5137750.000000000,1696854454.215703726,-0.129000000,0.094000000,0.029000000,0.005000000,0.002000000,-0.001000000
1696854454.218723,5137751.000000000,1696854454.218404055,-0.129000000,0.095000000,0.026000000,0.005000000,0.002000000,-0.001000000
1696854454.219994,5137752.000000000,1696854454.219698906,-0.128000000,0.097000000,0.021000000,0.005000000,0.002000000,-0.001000000
1696854454.222010,5137753.000000000,1696854454.221701384,-0.129000000,0.100000000,0.019000000,0.005000000,0.002000000,-0.001000000
1696854454.224059,5137754.000000000,1696854454.223674536,-0.129000000,0.103000000,0.015000000,0.004000000,0.002000000,-0.001000000
1696854454.226207,5137755.000000000,1696854454.225695848,-0.129000000,0.105000000,0.011000000,0.004000000,0.002000000,0.000000000
1696854454.228203,5137756.000000000,1696854454.227693081,-0.128000000,0.107000000,0.005000000,0.004000000,0.002000000,0.000000000
1696854454.230015,5137757.000000000,1696854454.229693890,-0.128000000,0.108000000,0.001000000,0.004000000,0.002000000,0.000000000
1696854454.232062,5137758.000000000,1696854454.231749773,-0.128000000,0.108000000,-0.003000000,0.005000000,0.002000000,0.000000000
1696854454.234039,5137759.000000000,1696854454.233734131,-0.128000000,0.108000000,-0.009000000,0.005000000,0.002000000,0.000000000
1696854454.236371,5137760.000000000,1696854454.235686064,-0.127000000,0.109000000,-0.015000000,0.005000000,0.002000000,0.000000000
1696854454.238176,5137761.000000000,1696854454.237705469,-0.126000000,0.110000000,-0.020000000,0.005000000,0.002000000,0.000000000
1696854454.258173,5137771.000000000,1696854454.257732391,-0.121000000,0.117000000,-0.062000000,0.005000000,0.002000000,0.000000000
1696854454.260081,5137772.000000000,1696854454.259763479,-0.121000000,0.116000000,-0.064000000,0.005000000,0.002000000,0.000000000
1696854454.262007,5137773.000000000,1696854454.261697292,-0.120000000,0.116000000,-0.066000000,0.005000000,0.002000000,0.000000000
1696854454.264002,5137774.000000000,1696854454.263715506,-0.120000000,0.116000000,-0.067000000,0.005000000,0.002000000,0.000000000
1696854454.266264,5137775.000000000,1696854454.265780449,-0.120000000,0.116000000,-0.067000000,0.005000000,0.002000000,0.000000000
1696854454.268864,5137776.000000000,1696854454.267740726,-0.120000000,0.117000000,-0.066000000,0.005000000,0.002000000,0.000000000
1696854454.270196,5137777.000000000,1696854454.269846439,-0.119000000,0.117000000,-0.066000000,0.005000000,0.002000000,0.000000000
1696854454.272033,5137778.000000000,1696854454.271706581,-0.119000000,0.118000000,-0.063000000,0.005000000,0.002000000,0.000000000
1696854454.274050,5137779.000000000,1696854454.273722649,-0.120000000,0.117000000,-0.062000000,0.005000000,0.002000000,0.000000000
1696854454.276283,5137780.000000000,1696854454.275753021,-0.119000000,0.116000000,-0.061000000,0.005000000,0.002000000,0.000000000
1696854454.278038,5137781.000000000,1696854454.277732849,-0.119000000,0.114000000,-0.059000000,0.005000000,0.002000000,0.000000000
1696854454.280003,5137782.000000000,1696854454.279698610,-0.119000000,0.112000000,-0.057000000,0.005000000,0.002000000,0.000000000
1696854454.292983,5137788.000000000,1696854454.291725636,-0.119000000,0.106000000,-0.030000000,0.005000000,0.002000000,0.000000000
1696854454.293998,5137789.000000000,1696854454.293706179,-0.119000000,0.106000000,-0.025000000,0.005000000,0.002000000,0.000000000
1696854454.296057,5137790.000000000,1696854454.295699358,-0.120000000,0.105000000,-0.020000000,0.005000000,0.002000000,0.000000000
1696854454.298018,5137791.000000000,1696854454.297682762,-0.120000000,0.104000000,-0.015000000,0.005000000,0.002000000,0.000000000
1696854454.300120,5137792.000000000,1696854454.299736977,-0.121000000,0.102000000,-0.010000000,0.005000000,0.002000000,0.000000000
1696854454.302053,5137793.000000000,1696854454.301669598,-0.121000000,0.099000000,-0.005000000,0.005000000,0.002000000,0.000000000
1696854454.304139,5137794.000000000,1696854454.303703308,-0.121000000,0.097000000,0.000000000,0.005000000,0.002000000,0.000000000
1696854454.306216,5137795.000000000,1696854454.305697680,-0.121000000,0.095000000,0.003000000,0.005000000,0.002000000,0.000000000
1696854454.309198,5137796.000000000,1696854454.307688713,-0.121000000,0.094000000,0.008000000,0.005000000,0.002000000,-0.001000000
1696854454.309998,5137797.000000000,1696854454.309698582,-0.121000000,0.093000000,0.013000000,0.005000000,0.002000000,-0.001000000
1696854454.311958,5137798.000000000,1696854454.311680079,-0.122000000,0.093000000,0.019000000,0.005000000,0.002000000,-0.001000000
1696854454.313967,5137799.000000000,1696854454.313693047,-0.123000000,0.093000000,0.025000000,0.005000000,0.002000000,-0.001000000
1696854454.316566,5137800.000000000,1696854454.315760612,-0.123000000,0.093000000,0.029000000,0.005000000,0.002000000,-0.001000000
1696854454.318102,5137801.000000000,1696854454.317745447,-0.123000000,0.093000000,0.034000000,0.005000000,0.002000000,-0.001000000
1696854454.320100,5137802.000000000,1696854454.319727898,-0.124000000,0.092000000,0.037000000,0.005000000,0.002000000,-0.001000000
1696854454.322121,5137803.000000000,1696854454.321745634,-0.124000000,0.091000000,0.040000000,0.005000000,0.002000000,-0.001000000
1696854454.335689,5137809.000000000,1696854454.333815575,-0.125000000,0.084000000,0.052000000,0.005000000,0.002000000,-0.002000000
1696854454.336038,5137810.000000000,1696854454.335741997,-0.125000000,0.084000000,0.053000000,0.005000000,0.002000000,-0.002000000
1696854454.338057,5137811.000000000,1696854454.337764502,-0.125000000,0.085000000,0.055000000,0.005000000,0.002000000,-0.002000000
1696854454.340020,5137812.000000000,1696854454.339720964,-0.126000000,0.086000000,0.057000000,0.005000000,0.002000000,-0.002000000
1696854454.342059,5137813.000000000,1696854454.341757774,-0.126000000,0.085000000,0.056000000,0.005000000,0.002000000,-0.002000000
1696854454.344093,5137814.000000000,1696854454.343788147,-0.126000000,0.084000000,0.056000000,0.005000000,0.002000000,-0.002000000
1696854454.349846,5137816.000000000,1696854454.347741842,-0.127000000,0.082000000,0.057000000,0.005000000,0.002000000,-0.002000000
1696854454.350043,5137817.000000000,1696854454.349713564,-0.126000000,0.080000000,0.055000000,0.005000000,0.002000000,-0.002000000
1696854454.366568,5137825.000000000,1696854454.365768433,-0.128000000,0.081000000,0.053000000,0.004000000,0.002000000,-0.002000000
1696854454.385633,5137834.000000000,1696854454.383692503,-0.127000000,0.078000000,0.050000000,0.004000000,0.002000000,-0.002000000
1696854454.401791,5137842.000000000,1696854454.399725914,-0.125000000,0.073000000,0.046000000,0.005000000,0.002000000,-0.001000000
1696854454.403315,5137843.000000000,1696854454.401747704,-0.124000000,0.073000000,0.047000000,0.005000000,0.002000000,-0.001000000
1696854454.404189,5137844.000000000,1696854454.403731823,-0.124000000,0.073000000,0.047000000,0.005000000,0.002000000,-0.001000000
1696854454.406327,5137845.000000000,1696854454.405729055,-0.124000000,0.074000000,0.048000000,0.005000000,0.002000000,-0.001000000
1696854454.408049,5137846.000000000,1696854454.407759905,-0.124000000,0.075000000,0.048000000,0.005000000,0.002000000,-0.001000000
1696854454.410209,5137847.000000000,1696854454.409808636,-0.123000000,0.075000000,0.048000000,0.005000000,0.002000000,-0.001000000
1696854454.412269,5137848.000000000,1696854454.411747217,-0.123000000,0.074000000,0.048000000,0.005000000,0.002000000,-0.001000000
1696854454.414042,5137849.000000000,1696854454.413746357,-0.123000000,0.073000000,0.046000000,0.005000000,0.002000000,-0.001000000
1696854454.416176,5137850.000000000,1696854454.415728331,-0.122000000,0.072000000,0.047000000,0.005000000,0.002000000,-0.001000000
1696854454.418029,5137851.000000000,1696854454.417712212,-0.122000000,0.071000000,0.046000000,0.005000000,0.002000000,-0.001000000
1696854454.420066,5137852.000000000,1696854454.419706345,-0.121000000,0.070000000,0.045000000,0.005000000,0.002000000,-0.001000000
1696854454.422067,5137853.000000000,1696854454.421718359,-0.120000000,0.070000000,0.045000000,0.005000000,0.002000000,-0.001000000
1696854454.423998,5137854.000000000,1696854454.423708916,-0.120000000,0.070000000,0.044000000,0.005000000,0.002000000,-0.001000000
1696854454.426360,5137855.000000000,1696854454.425705433,-0.120000000,0.071000000,0.046000000,0.005000000,0.002000000,-0.001000000
1696854454.428081,5137856.000000000,1696854454.427699089,-0.119000000,0.071000000,0.046000000,0.005000000,0.002000000,-0.001000000
1696854454.444670,5137864.000000000,1696854454.443743706,-0.117000000,0.070000000,0.046000000,0.005000000,0.002000000,-0.001000000
1696854454.449909,5137866.000000000,1696854454.447740078,-0.117000000,0.071000000,0.048000000,0.005000000,0.002000000,-0.001000000
1696854454.450118,5137867.000000000,1696854454.449783087,-0.117000000,0.073000000,0.049000000,0.005000000,0.002000000,-0.001000000
1696854454.452109,5137868.000000000,1696854454.451742649,-0.118000000,0.074000000,0.052000000,0.005000000,0.002000000,-0.001000000
1696854454.454080,5137869.000000000,1696854454.453752041,-0.118000000,0.076000000,0.052000000,0.005000000,0.002000000,-0.001000000
1696854454.456017,5137870.000000000,1696854454.455735445,-0.118000000,0.076000000,0.052000000,0.005000000,0.002000000,-0.001000000
1696854454.458018,5137871.000000000,1696854454.457717180,-0.119000000,0.076000000,0.053000000,0.005000000,0.002000000,-0.001000000
1696854454.460035,5137872.000000000,1696854454.459696531,-0.119000000,0.076000000,0.053000000,0.005000000,0.002000000,-0.001000000
1696854454.462106,5137873.000000000,1696854454.461692333,-0.119000000,0.075000000,0.053000000,0.005000000,0.002000000,-0.001000000
1696854454.464085,5137874.000000000,1696854454.463700771,-0.119000000,0.075000000,0.054000000,0.005000000,0.002000000,-0.001000000
1696854454.466418,5137875.000000000,1696854454.465720892,-0.120000000,0.075000000,0.055000000,0.005000000,0.002000000,-0.002000000
1696854454.468077,5137876.000000000,1696854454.467689753,-0.119000000,0.075000000,0.055000000,0.005000000,0.002000000,-0.002000000
1696854454.481688,5137882.000000000,1696854454.479690552,-0.123000000,0.081000000,0.059000000,0.005000000,0.002000000,-0.002000000
1696854454.482301,5137883.000000000,1696854454.481782198,-0.124000000,0.081000000,0.059000000,0.005000000,0.002000000,-0.002000000
1696854454.484307,5137884.000000000,1696854454.483786345,-0.124000000,0.080000000,0.057000000,0.005000000,0.002000000,-0.002000000
1696854454.486195,5137885.000000000,1696854454.485731125,-0.125000000,0.080000000,0.057000000,0.005000000,0.002000000,-0.002000000
1696854454.487972,5137886.000000000,1696854454.487694025,-0.125000000,0.080000000,0.054000000,0.005000000,0.002000000,-0.002000000
1696854454.489975,5137887.000000000,1696854454.489702702,-0.125000000,0.080000000,0.053000000,0.005000000,0.002000000,-0.002000000
1696854454.492015,5137888.000000000,1696854454.491723537,-0.126000000,0.080000000,0.052000000,0.005000000,0.002000000,-0.002000000
1696854454.494188,5137889.000000000,1696854454.493707418,-0.126000000,0.082000000,0.051000000,0.005000000,0.002000000,-0.001000000
1696854454.495991,5137890.000000000,1696854454.495702982,-0.127000000,0.083000000,0.048000000,0.005000000,0.002000000,-0.001000000
1696854454.498064,5137891.000000000,1696854454.497735977,-0.127000000,0.085000000,0.047000000,0.005000000,0.002000000,-0.001000000
1696854454.500146,5137892.000000000,1696854454.499729872,-0.128000000,0.086000000,0.044000000,0.005000000,0.002000000,-0.001000000
1696854454.502030,5137893.000000000,1696854454.501701355,-0.129000000,0.087000000,0.041000000,0.005000000,0.002000000,-0.001000000
1696854454.504206,5137894.000000000,1696854454.503741264,-0.129000000,0.087000000,0.036000000,0.005000000,0.002000000,-0.001000000
1696854454.507394,5137895.000000000,1696854454.507049799,-0.129000000,0.087000000,0.032000000,0.005000000,0.002000000,-0.001000000
1696854454.509007,5137896.000000000,1696854454.508356810,-0.129000000,0.086000000,0.026000000,0.005000000,0.002000000,-0.001000000
1696854454.518379,5137901.000000000,1696854454.517762423,-0.130000000,0.090000000,0.004000000,0.005000000,0.002000000,0.000000000
1696854454.520165,5137902.000000000,1696854454.519795418,-0.130000000,0.091000000,0.001000000,0.005000000,0.002000000,0.000000000
1696854454.522076,5137903.000000000,1696854454.521770477,-0.130000000,0.093000000,-0.003000000,0.005000000,0.002000000,0.000000000
1696854454.524131,5137904.000000000,1696854454.523752213,-0.130000000,0.094000000,-0.008000000,0.005000000,0.002000000,0.000000000
1696854454.527042,5137905.000000000,1696854454.525761843,-0.131000000,0.095000000,-0.013000000,0.005000000,0.002000000,0.000000000
1696854454.528047,5137906.000000000,1696854454.527762175,-0.130000000,0.095000000,-0.018000000,0.005000000,0.002000000,0.000000000
1696854454.530063,5137907.000000000,1696854454.529772520,-0.130000000,0.095000000,-0.022000000,0.005000000,0.002000000,0.000000000
1696854454.532050,5137908.000000000,1696854454.531759024,-0.130000000,0.094000000,-0.027000000,0.005000000,0.002000000,0.000000000
1696854454.534125,5137909.000000000,1696854454.533753157,-0.130000000,0.094000000,-0.032000000,0.005000000,0.002000000,0.000000000
1696854454.536032,5137910.000000000,1696854454.535751343,-0.129000000,0.094000000,-0.035000000,0.005000000,0.002000000,0.000000000
1696854454.538115,5137911.000000000,1696854454.537769556,-0.129000000,0.095000000,-0.038000000,0.005000000,0.002000000,0.000000000
1696854454.540238,5137912.000000000,1696854454.539752483,-0.129000000,0.096000000,-0.041000000,0.005000000,0.002000000,0.000000000
1696854454.542095,5137913.000000000,1696854454.541793346,-0.129000000,0.098000000,-0.042000000,0.005000000,0.002000000,0.000000000
1696854454.544040,5137914.000000000,1696854454.543749571,-0.129000000,0.099000000,-0.044000000,0.005000000,0.002000000,0.000000000
1696854454.546187,5137915.000000000,1696854454.545774698,-0.129000000,0.100000000,-0.045000000,0.005000000,0.002000000,0.000000000
1696854454.548217,5137916.000000000,1696854454.547744036,-0.129000000,0.100000000,-0.048000000,0.005000000,0.002000000,0.000000000
1696854454.550043,5137917.000000000,1696854454.549750805,-0.129000000,0.100000000,-0.048000000,0.005000000,0.002000000,0.000000000
1696854454.552068,5137918.000000000,1696854454.551756620,-0.129000000,0.099000000,-0.048000000,0.005000000,0.002000000,0.000000000
1696854454.554139,5137919.000000000,1696854454.553773403,-0.128000000,0.098000000,-0.050000000,0.005000000,0.002000000,0.000000000
1696854454.571703,5137927.000000000,1696854454.569770575,-0.127000000,0.098000000,-0.032000000,0.005000000,0.002000000,0.000000000
1696854454.572118,5137928.000000000,1696854454.571774244,-0.127000000,0.096000000,-0.029000000,0.005000000,0.002000000,0.000000000
1696854454.574043,5137929.000000000,1696854454.573759079,-0.127000000,0.095000000,-0.026000000,0.005000000,0.002000000,0.000000000
1696854454.576051,5137930.000000000,1696854454.575751066,-0.126000000,0.093000000,-0.022000000,0.005000000,0.002000000,0.000000000
1696854454.578062,5137931.000000000,1696854454.577774048,-0.126000000,0.092000000,-0.019000000,0.005000000,0.002000000,0.000000000
1696854454.580267,5137932.000000000,1696854454.579796076,-0.126000000,0.090000000,-0.015000000,0.005000000,0.002000000,0.000000000
1696854454.582708,5137933.000000000,1696854454.581769228,-0.126000000,0.089000000,-0.011000000,0.005000000,0.002000000,0.000000000
1696854454.584271,5137934.000000000,1696854454.583781719,-0.126000000,0.089000000,-0.006000000,0.005000000,0.002000000,0.000000000
1696854454.586248,5137935.000000000,1696854454.585809946,-0.126000000,0.089000000,-0.001000000,0.005000000,0.002000000,0.000000000
1696854454.588048,5137936.000000000,1696854454.587744951,-0.126000000,0.090000000,0.002000000,0.005000000,0.002000000,0.000000000
1696854454.590066,5137937.000000000,1696854454.589752913,-0.126000000,0.090000000,0.007000000,0.005000000,0.002000000,0.000000000
1696854454.592074,5137938.000000000,1696854454.591759920,-0.126000000,0.090000000,0.010000000,0.005000000,0.002000000,-0.001000000
1696854454.594087,5137939.000000000,1696854454.593774796,-0.126000000,0.089000000,0.014000000,0.005000000,0.002000000,-0.001000000
1696854454.596108,5137940.000000000,1696854454.595767021,-0.126000000,0.088000000,0.017000000,0.005000000,0.002000000,-0.001000000
1696854454.598079,5137941.000000000,1696854454.597753286,-0.125000000,0.086000000,0.020000000,0.005000000,0.002000000,-0.001000000
1696854454.611638,5137947.000000000,1696854454.609770775,-0.124000000,0.084000000,0.036000000,0.005000000,0.002000000,-0.001000000
1696854454.612105,5137948.000000000,1696854454.611743927,-0.123000000,0.085000000,0.039000000,0.005000000,0.002000000,-0.001000000
1696854454.616246,5137950.000000000,1696854454.615790606,-0.123000000,0.086000000,0.042000000,0.005000000,0.002000000,-0.001000000
1696854454.618078,5137951.000000000,1696854454.617746592,-0.122000000,0.086000000,0.041000000,0.005000000,0.002000000,-0.001000000
1696854454.620111,5137952.000000000,1696854454.619757414,-0.122000000,0.085000000,0.043000000,0.005000000,0.002000000,-0.001000000
1696854454.622162,5137953.000000000,1696854454.621778488,-0.121000000,0.084000000,0.041000000,0.005000000,0.002000000,-0.001000000
1696854454.624057,5137954.000000000,1696854454.623755455,-0.120000000,0.083000000,0.042000000,0.005000000,0.002000000,-0.001000000
1696854454.626280,5137955.000000000,1696854454.625753164,-0.120000000,0.082000000,0.043000000,0.005000000,0.002000000,-0.001000000
1696854454.628077,5137956.000000000,1696854454.627715588,-0.119000000,0.082000000,0.043000000,0.005000000,0.002000000,-0.001000000
1696854454.630198,5137957.000000000,1696854454.629820108,-0.118000000,0.083000000,0.042000000,0.005000000,0.002000000,-0.001000000
1696854454.632134,5137958.000000000,1696854454.631760120,-0.118000000,0.084000000,0.044000000,0.005000000,0.002000000,-0.001000000
1696854454.634121,5137959.000000000,1696854454.633771658,-0.118000000,0.085000000,0.044000000,0.005000000,0.002000000,-0.001000000
1696854454.636479,5137960.000000000,1696854454.635757923,-0.117000000,0.086000000,0.045000000,0.005000000,0.002000000,-0.001000000
1696854454.638070,5137961.000000000,1696854454.637767792,-0.117000000,0.087000000,0.046000000,0.005000000,0.002000000,-0.001000000
1696854454.640072,5137962.000000000,1696854454.639749527,-0.116000000,0.087000000,0.044000000,0.005000000,0.002000000,-0.001000000
1696854454.659938,5137971.000000000,1696854454.657777309,-0.113000000,0.086000000,0.043000000,0.005000000,0.002000000,-0.001000000
1696854454.661429,5137972.000000000,1696854454.659778595,-0.112000000,0.087000000,0.044000000,0.005000000,0.002000000,-0.001000000
1696854454.662128,5137973.000000000,1696854454.661763668,-0.112000000,0.087000000,0.044000000,0.005000000,0.002000000,-0.001000000
1696854454.664091,5137974.000000000,1696854454.663753986,-0.112000000,0.086000000,0.044000000,0.005000000,0.002000000,-0.002000000
1696854454.666535,5137975.000000000,1696854454.665770769,-0.112000000,0.085000000,0.044000000,0.005000000,0.002000000,-0.001000000
1696854454.668247,5137976.000000000,1696854454.667742014,-0.111000000,0.084000000,0.043000000,0.005000000,0.002000000,-0.002000000
1696854454.670827,5137977.000000000,1696854454.669760942,-0.111000000,0.083000000,0.043000000,0.005000000,0.002000000,-0.002000000
1696854454.672257,5137978.000000000,1696854454.671770334,-0.111000000,0.082000000,0.043000000,0.005000000,0.002000000,-0.002000000
1696854454.674366,5137979.000000000,1696854454.673817396,-0.111000000,0.082000000,0.044000000,0.005000000,0.002000000,-0.002000000
1696854454.676543,5137980.000000000,1696854454.675694942,-0.111000000,0.082000000,0.045000000,0.005000000,0.002000000,-0.002000000
1696854454.678247,5137981.000000000,1696854454.677718639,-0.111000000,0.084000000,0.047000000,0.005000000,0.002000000,-0.002000000
1696854454.680290,5137982.000000000,1696854454.679790735,-0.111000000,0.084000000,0.047000000,0.005000000,0.002000000,-0.002000000
1696854454.683213,5137983.000000000,1696854454.681739092,-0.112000000,0.085000000,0.049000000,0.005000000,0.002000000,-0.002000000
1696854454.707193,5137995.000000000,1696854454.705733061,-0.114000000,0.083000000,0.054000000,0.005000000,0.002000000,-0.002000000
1696854454.716334,5137999.000000000,1696854454.713727474,-0.114000000,0.080000000,0.051000000,0.005000000,0.002000000,-0.002000000
1696854454.716769,5138000.000000000,1696854454.715714931,-0.114000000,0.079000000,0.051000000,0.005000000,0.002000000,-0.002000000
1696854454.718077,5138001.000000000,1696854454.717746019,-0.114000000,0.079000000,0.051000000,0.005000000,0.002000000,-0.002000000
1696854454.719987,5138002.000000000,1696854454.719697237,-0.114000000,0.078000000,0.052000000,0.005000000,0.002000000,-0.002000000
1696854454.722067,5138003.000000000,1696854454.721736431,-0.114000000,0.079000000,0.052000000,0.005000000,0.002000000,-0.002000000
1696854454.724151,5138004.000000000,1696854454.723834515,-0.114000000,0.080000000,0.053000000,0.005000000,0.002000000,-0.002000000
1696854454.726071,5138005.000000000,1696854454.725735903,-0.115000000,0.081000000,0.053000000,0.005000000,0.002000000,-0.002000000
1696854454.739322,5138011.000000000,1696854454.737740040,-0.116000000,0.079000000,0.051000000,0.005000000,0.002000000,-0.002000000
1696854454.740192,5138012.000000000,1696854454.739836454,-0.116000000,0.078000000,0.051000000,0.005000000,0.002000000,-0.002000000
1696854454.742048,5138013.000000000,1696854454.741750956,-0.116000000,0.078000000,0.051000000,0.005000000,0.002000000,-0.002000000
1696854454.744022,5138014.000000000,1696854454.743703127,-0.116000000,0.079000000,0.051000000,0.005000000,0.002000000,-0.002000000
1696854454.746080,5138015.000000000,1696854454.745744467,-0.116000000,0.079000000,0.052000000,0.005000000,0.002000000,-0.002000000
1696854454.749562,5138016.000000000,1696854454.747792721,-0.117000000,0.080000000,0.053000000,0.005000000,0.002000000,-0.002000000
1696854454.750160,5138017.000000000,1696854454.749723911,-0.117000000,0.081000000,0.054000000,0.005000000,0.002000000,-0.002000000
1696854454.752110,5138018.000000000,1696854454.751753330,-0.118000000,0.082000000,0.054000000,0.005000000,0.002000000,-0.002000000
1696854454.754180,5138019.000000000,1696854454.753819466,-0.119000000,0.082000000,0.054000000,0.005000000,0.002000000,-0.002000000
1696854454.756145,5138020.000000000,1696854454.755805016,-0.119000000,0.081000000,0.054000000,0.005000000,0.002000000,-0.002000000
1696854454.758095,5138021.000000000,1696854454.757784367,-0.118000000,0.080000000,0.053000000,0.005000000,0.002000000,-0.002000000
1696854454.760250,5138022.000000000,1696854454.759830475,-0.119000000,0.080000000,0.054000000,0.005000000,0.002000000,-0.002000000
1696854454.762310,5138023.000000000,1696854454.761818886,-0.119000000,0.078000000,0.052000000,0.005000000,0.002000000,-0.002000000
1696854454.764260,5138024.000000000,1696854454.763821602,-0.119000000,0.079000000,0.054000000,0.005000000,0.002000000,-0.002000000
1696854454.766984,5138025.000000000,1696854454.766115665,-0.119000000,0.079000000,0.054000000,0.005000000,0.002000000,-0.002000000
1696854454.768227,5138026.000000000,1696854454.767829657,-0.120000000,0.080000000,0.055000000,0.005000000,0.002000000,-0.002000000
1696854454.770147,5138027.000000000,1696854454.769779921,-0.120000000,0.082000000,0.055000000,0.005000000,0.002000000,-0.002000000
1696854454.772188,5138028.000000000,1696854454.771828175,-0.121000000,0.083000000,0.055000000,0.005000000,0.002000000,-0.002000000
1696854454.774225,5138029.000000000,1696854454.773785591,-0.122000000,0.084000000,0.056000000,0.005000000,0.002000000,-0.002000000
1696854454.776165,5138030.000000000,1696854454.775770903,-0.122000000,0.084000000,0.055000000,0.005000000,0.002000000,-0.002000000
1696854454.778675,5138031.000000000,1696854454.778016329,-0.122000000,0.084000000,0.054000000,0.005000000,0.002000000,-0.002000000
1696854454.780619,5138032.000000000,1696854454.779770613,-0.123000000,0.084000000,0.052000000,0.005000000,0.002000000,-0.002000000
1696854454.782369,5138033.000000000,1696854454.781809568,-0.122000000,0.083000000,0.051000000,0.005000000,0.002000000,-0.002000000
1696854454.784203,5138034.000000000,1696854454.783821821,-0.123000000,0.083000000,0.049000000,0.005000000,0.002000000,-0.002000000
1696854454.786259,5138035.000000000,1696854454.785795212,-0.122000000,0.083000000,0.048000000,0.005000000,0.002000000,-0.001000000
1696854454.788902,5138036.000000000,1696854454.787826061,-0.123000000,0.083000000,0.046000000,0.005000000,0.002000000,-0.001000000
1696854454.790171,5138037.000000000,1696854454.789776802,-0.123000000,0.084000000,0.044000000,0.005000000,0.002000000,-0.001000000
1696854454.792144,5138038.000000000,1696854454.791772366,-0.124000000,0.086000000,0.043000000,0.005000000,0.002000000,-0.001000000
1696854454.794170,5138039.000000000,1696854454.793782234,-0.124000000,0.088000000,0.041000000,0.005000000,0.002000000,-0.001000000
1696854454.796192,5138040.000000000,1696854454.795741558,-0.124000000,0.090000000,0.038000000,0.005000000,0.002000000,-0.001000000
1696854454.798227,5138041.000000000,1696854454.797759295,-0.125000000,0.090000000,0.035000000,0.004000000,0.002000000,-0.001000000
1696854454.800280,5138042.000000000,1696854454.799759150,-0.125000000,0.091000000,0.030000000,0.005000000,0.002000000,-0.001000000
1696854454.802200,5138043.000000000,1696854454.801757097,-0.125000000,0.091000000,0.025000000,0.005000000,0.002000000,-0.001000000
1696854454.804928,5138044.000000000,1696854454.803765535,-0.125000000,0.091000000,0.021000000,0.005000000,0.002000000,-0.001000000
1696854454.808832,5138045.000000000,1696854454.805819035,-0.125000000,0.090000000,0.015000000,0.005000000,0.002000000,-0.001000000
1696854454.809506,5138046.000000000,1696854454.808195591,-0.125000000,0.091000000,0.010000000,0.005000000,0.002000000,-0.001000000
1696854454.810266,5138047.000000000,1696854454.809803247,-0.125000000,0.091000000,0.004000000,0.005000000,0.002000000,0.000000000
1696854454.812477,5138048.000000000,1696854454.811782598,-0.125000000,0.093000000,-0.001000000,0.005000000,0.002000000,0.000000000
1696854454.814238,5138049.000000000,1696854454.813782454,-0.125000000,0.094000000,-0.007000000,0.005000000,0.002000000,0.000000000
1696854454.816152,5138050.000000000,1696854454.815775394,-0.125000000,0.096000000,-0.012000000,0.005000000,0.002000000,0.000000000
1696854454.818198,5138051.000000000,1696854454.817776918,-0.125000000,0.098000000,-0.017000000,0.005000000,0.002000000,0.000000000
1696854454.820303,5138052.000000000,1696854454.819777727,-0.125000000,0.099000000,-0.023000000,0.005000000,0.002000000,0.000000000
1696854454.822103,5138053.000000000,1696854454.821799517,-0.125000000,0.100000000,-0.030000000,0.005000000,0.002000000,0.000000000
1696854454.824070,5138054.000000000,1696854454.823772907,-0.125000000,0.100000000,-0.038000000,0.005000000,0.002000000,0.000000000
1696854454.826210,5138055.000000000,1696854454.825804472,-0.125000000,0.100000000,-0.045000000,0.005000000,0.002000000,0.000000000
1696854454.828063,5138056.000000000,1696854454.827775955,-0.124000000,0.100000000,-0.052000000,0.005000000,0.002000000,0.000000000
1696854454.830128,5138057.000000000,1696854454.829769135,-0.124000000,0.099000000,-0.059000000,0.005000000,0.003000000,0.000000000
1696854454.832088,5138058.000000000,1696854454.831765652,-0.123000000,0.099000000,-0.065000000,0.005000000,0.003000000,0.000000000
1696854454.834076,5138059.000000000,1696854454.833770990,-0.123000000,0.100000000,-0.071000000,0.005000000,0.003000000,0.000000000
1696854454.836050,5138060.000000000,1696854454.835764885,-0.123000000,0.101000000,-0.077000000,0.005000000,0.003000000,0.000000000
1696854454.838056,5138061.000000000,1696854454.837763548,-0.122000000,0.102000000,-0.082000000,0.005000000,0.003000000,0.001000000
1696854454.840069,5138062.000000000,1696854454.839769125,-0.122000000,0.103000000,-0.086000000,0.005000000,0.003000000,0.001000000
1696854454.842173,5138063.000000000,1696854454.841789246,-0.122000000,0.104000000,-0.091000000,0.005000000,0.003000000,0.001000000
1696854454.844027,5138064.000000000,1696854454.843744278,-0.121000000,0.104000000,-0.095000000,0.005000000,0.003000000,0.001000000
1696854454.846242,5138065.000000000,1696854454.845867634,-0.121000000,0.104000000,-0.100000000,0.005000000,0.003000000,0.001000000
1696854454.848069,5138066.000000000,1696854454.847762585,-0.120000000,0.103000000,-0.104000000,0.005000000,0.003000000,0.001000000
1696854454.850121,5138067.000000000,1696854454.849822044,-0.119000000,0.102000000,-0.108000000,0.005000000,0.003000000,0.001000000
1696854454.852122,5138068.000000000,1696854454.851794481,-0.119000000,0.100000000,-0.110000000,0.005000000,0.003000000,0.001000000
1696854454.854223,5138069.000000000,1696854454.853789330,-0.118000000,0.099000000,-0.112000000,0.005000000,0.003000000,0.001000000
1696854454.856378,5138070.000000000,1696854454.855804920,-0.118000000,0.099000000,-0.113000000,0.005000000,0.003000000,0.001000000
1696854454.858109,5138071.000000000,1696854454.857792139,-0.117000000,0.099000000,-0.113000000,0.005000000,0.003000000,0.001000000
1696854454.860326,5138072.000000000,1696854454.859773159,-0.117000000,0.099000000,-0.113000000,0.005000000,0.003000000,0.001000000
1696854454.862052,5138073.000000000,1696854454.861755371,-0.116000000,0.100000000,-0.111000000,0.005000000,0.003000000,0.001000000
1696854454.864019,5138074.000000000,1696854454.863738298,-0.116000000,0.099000000,-0.109000000,0.005000000,0.003000000,0.001000000
1696854454.867847,5138075.000000000,1696854454.865771770,-0.116000000,0.099000000,-0.108000000,0.005000000,0.003000000,0.001000000
1696854454.868737,5138076.000000000,1696854454.867742062,-0.116000000,0.098000000,-0.105000000,0.005000000,0.002000000,0.001000000
1696854454.870038,5138077.000000000,1696854454.869759798,-0.116000000,0.097000000,-0.103000000,0.005000000,0.002000000,0.001000000
1696854454.872126,5138078.000000000,1696854454.871818542,-0.115000000,0.095000000,-0.100000000,0.005000000,0.002000000,0.001000000
1696854454.874103,5138079.000000000,1696854454.873770714,-0.115000000,0.093000000,-0.097000000,0.005000000,0.002000000,0.001000000
1696854454.876040,5138080.000000000,1696854454.875730276,-0.115000000,0.091000000,-0.093000000,0.005000000,0.002000000,0.001000000
1696854454.878077,5138081.000000000,1696854454.877731562,-0.114000000,0.090000000,-0.089000000,0.005000000,0.002000000,0.001000000
1696854454.880042,5138082.000000000,1696854454.879721642,-0.114000000,0.089000000,-0.083000000,0.005000000,0.002000000,0.000000000
1696854454.882123,5138083.000000000,1696854454.881737947,-0.114000000,0.088000000,-0.078000000,0.005000000,0.002000000,0.000000000
1696854454.884321,5138084.000000000,1696854454.883737803,-0.114000000,0.089000000,-0.071000000,0.005000000,0.002000000,0.000000000
1696854454.886092,5138085.000000000,1696854454.885725737,-0.115000000,0.089000000,-0.064000000,0.005000000,0.002000000,0.000000000
1696854454.888048,5138086.000000000,1696854454.887717962,-0.115000000,0.088000000,-0.059000000,0.005000000,0.002000000,0.000000000
1696854454.890106,5138087.000000000,1696854454.889717340,-0.116000000,0.088000000,-0.052000000,0.005000000,0.002000000,0.000000000
1696854454.892124,5138088.000000000,1696854454.891735792,-0.116000000,0.086000000,-0.048000000,0.005000000,0.002000000,0.000000000
1696854454.894106,5138089.000000000,1696854454.893772125,-0.116000000,0.085000000,-0.042000000,0.005000000,0.002000000,0.000000000
1696854454.896137,5138090.000000000,1696854454.895731449,-0.116000000,0.082000000,-0.038000000,0.005000000,0.002000000,0.000000000
1696854454.898134,5138091.000000000,1696854454.897724390,-0.116000000,0.080000000,-0.031000000,0.005000000,0.002000000,0.000000000
1696854454.900501,5138092.000000000,1696854454.899764776,-0.116000000,0.079000000,-0.026000000,0.005000000,0.002000000,0.000000000
1696854454.902104,5138093.000000000,1696854454.901740074,-0.116000000,0.079000000,-0.020000000,0.005000000,0.002000000,0.000000000
1696854454.904145,5138094.000000000,1696854454.903729439,-0.116000000,0.078000000,-0.015000000,0.005000000,0.002000000,0.000000000
1696854454.906216,5138095.000000000,1696854454.905727148,-0.117000000,0.078000000,-0.009000000,0.005000000,0.002000000,0.000000000
1696854454.908193,5138096.000000000,1696854454.907720566,-0.117000000,0.079000000,-0.004000000,0.005000000,0.002000000,0.000000000
1696854454.910183,5138097.000000000,1696854454.909724951,-0.117000000,0.079000000,0.001000000,0.004000000,0.002000000,-0.001000000
1696854454.912146,5138098.000000000,1696854454.911744833,-0.118000000,0.079000000,0.004000000,0.004000000,0.002000000,-0.001000000
1696854454.914148,5138099.000000000,1696854454.913718224,-0.118000000,0.078000000,0.007000000,0.004000000,0.002000000,-0.001000000
1696854454.916533,5138100.000000000,1696854454.915767193,-0.118000000,0.076000000,0.011000000,0.005000000,0.002000000,-0.001000000
1696854454.918236,5138101.000000000,1696854454.917765856,-0.118000000,0.075000000,0.013000000,0.005000000,0.002000000,-0.001000000
1696854454.920057,5138102.000000000,1696854454.919716358,-0.118000000,0.074000000,0.015000000,0.005000000,0.002000000,-0.001000000
1696854454.922161,5138103.000000000,1696854454.921755075,-0.118000000,0.072000000,0.017000000,0.005000000,0.002000000,-0.001000000
1696854454.924064,5138104.000000000,1696854454.923730135,-0.118000000,0.071000000,0.020000000,0.005000000,0.002000000,-0.001000000
1696854454.926137,5138105.000000000,1696854454.925741673,-0.118000000,0.071000000,0.021000000,0.005000000,0.002000000,-0.001000000
1696854454.928039,5138106.000000000,1696854454.927724600,-0.118000000,0.072000000,0.024000000,0.005000000,0.002000000,-0.001000000
1696854454.930052,5138107.000000000,1696854454.929722548,-0.118000000,0.072000000,0.025000000,0.005000000,0.002000000,-0.001000000
1696854454.932197,5138108.000000000,1696854454.931781530,-0.118000000,0.072000000,0.027000000,0.005000000,0.002000000,-0.001000000
1696854454.934342,5138109.000000000,1696854454.933773994,-0.118000000,0.073000000,0.028000000,0.005000000,0.002000000,-0.001000000
1696854454.936054,5138110.000000000,1696854454.935721159,-0.118000000,0.072000000,0.027000000,0.005000000,0.002000000,-0.001000000
1696854454.938117,5138111.000000000,1696854454.937753677,-0.117000000,0.070000000,0.027000000,0.005000000,0.002000000,-0.001000000
1696854454.940389,5138112.000000000,1696854454.939824581,-0.117000000,0.069000000,0.027000000,0.005000000,0.002000000,-0.001000000
1696854454.942194,5138113.000000000,1696854454.941806316,-0.117000000,0.068000000,0.027000000,0.005000000,0.002000000,-0.001000000
1696854454.944200,5138114.000000000,1696854454.943778038,-0.116000000,0.066000000,0.027000000,0.005000000,0.002000000,-0.001000000
1696854454.946776,5138115.000000000,1696854454.945807219,-0.116000000,0.066000000,0.027000000,0.005000000,0.002000000,-0.001000000
1696854454.948599,5138116.000000000,1696854454.947804451,-0.115000000,0.065000000,0.026000000,0.005000000,0.002000000,-0.001000000
1696854454.950130,5138117.000000000,1696854454.949775219,-0.115000000,0.065000000,0.026000000,0.005000000,0.002000000,-0.001000000
1696854454.952174,5138118.000000000,1696854454.951795101,-0.115000000,0.066000000,0.027000000,0.005000000,0.002000000,-0.001000000
1696854454.954235,5138119.000000000,1696854454.953759670,-0.115000000,0.067000000,0.027000000,0.005000000,0.002000000,-0.001000000
1696854454.956407,5138120.000000000,1696854454.955779791,-0.115000000,0.067000000,0.027000000,0.005000000,0.002000000,-0.001000000
1696854454.958131,5138121.000000000,1696854454.957724810,-0.115000000,0.067000000,0.027000000,0.005000000,0.002000000,-0.001000000
1696854454.960186,5138122.000000000,1696854454.959784031,-0.114000000,0.067000000,0.026000000,0.005000000,0.002000000,-0.001000000
1696854454.962152,5138123.000000000,1696854454.961748838,-0.115000000,0.066000000,0.026000000,0.005000000,0.002000000,-0.001000000
1696854454.964205,5138124.000000000,1696854454.963725805,-0.114000000,0.064000000,0.025000000,0.005000000,0.002000000,-0.001000000
1696854454.967057,5138125.000000000,1696854454.965813398,-0.114000000,0.063000000,0.025000000,0.005000000,0.002000000,-0.001000000
1696854454.968182,5138126.000000000,1696854454.967779398,-0.114000000,0.063000000,0.025000000,0.005000000,0.002000000,-0.001000000
1696854454.970202,5138127.000000000,1696854454.969788313,-0.114000000,0.063000000,0.026000000,0.005000000,0.002000000,-0.001000000
1696854454.972190,5138128.000000000,1696854454.971724987,-0.114000000,0.063000000,0.027000000,0.005000000,0.002000000,-0.001000000
1696854454.974193,5138129.000000000,1696854454.973755598,-0.114000000,0.064000000,0.029000000,0.005000000,0.002000000,-0.001000000
1696854454.976119,5138130.000000000,1696854454.975726843,-0.114000000,0.065000000,0.029000000,0.005000000,0.002000000,-0.001000000
1696854454.978166,5138131.000000000,1696854454.977755070,-0.115000000,0.067000000,0.031000000,0.005000000,0.002000000,-0.001000000
