__time,/kms40_driver/wrench/header/seq,/kms40_driver/wrench/header/stamp,/kms40_driver/wrench/wrench/force/x,/kms40_driver/wrench/wrench/force/y,/kms40_driver/wrench/wrench/force/z,/kms40_driver/wrench/wrench/torque/x,/kms40_driver/wrench/wrench/torque/y,/kms40_driver/wrench/wrench/torque/z
1696851896.246018,3874848.000000000,1696851896.246591091,-0.032000000,0.006000000,-0.081000000,0.001000000,0.000000000,0.001000000
1696851896.247107,3874849.000000000,1696851896.248541594,-0.032000000,0.004000000,-0.079000000,0.001000000,0.000000000,0.001000000
1696851896.249066,3874850.000000000,1696851896.250607967,-0.032000000,0.002000000,-0.076000000,0.001000000,0.000000000,0.001000000
1696851896.250890,3874851.000000000,1696851896.252592325,-0.032000000,0.000000000,-0.073000000,0.001000000,0.000000000,0.001000000
1696851896.252799,3874852.000000000,1696851896.254597902,-0.033000000,-0.001000000,-0.070000000,0.001000000,0.000000000,0.001000000
1696851896.254833,3874853.000000000,1696851896.256548166,-0.033000000,-0.002000000,-0.065000000,0.001000000,0.000000000,0.001000000
1696851896.256797,3874854.000000000,1696851896.258571625,-0.034000000,-0.002000000,-0.059000000,0.001000000,0.000000000,0.001000000
1696851896.259174,3874855.000000000,1696851896.260574818,-0.035000000,-0.002000000,-0.053000000,0.001000000,0.000000000,0.001000000
1696851896.260766,3874856.000000000,1696851896.262551069,-0.035000000,-0.002000000,-0.048000000,0.001000000,0.000000000,0.001000000
1696851896.262810,3874857.000000000,1696851896.264548779,-0.036000000,-0.003000000,-0.041000000,0.001000000,0.000000000,0.000000000
1696851896.264814,3874858.000000000,1696851896.266573906,-0.037000000,-0.004000000,-0.036000000,0.001000000,0.000000000,0.000000000
1696851896.267525,3874859.000000000,1696851896.268553495,-0.038000000,-0.006000000,-0.030000000,0.001000000,0.000000000,0.000000000
1696851896.268860,3874860.000000000,1696851896.270568371,-0.039000000,-0.008000000,-0.024000000,0.001000000,0.000000000,0.000000000
1696851896.270817,3874861.000000000,1696851896.272577286,-0.039000000,-0.011000000,-0.019000000,0.001000000,0.000000000,0.000000000
1696851896.272873,3874862.000000000,1696851896.274577379,-0.040000000,-0.013000000,-0.013000000,0.001000000,0.000000000,0.000000000
1696851896.274944,3874863.000000000,1696851896.276612520,-0.041000000,-0.015000000,-0.007000000,0.001000000,0.000000000,0.000000000
1696851896.276870,3874864.000000000,1696851896.278575659,-0.041000000,-0.016000000,-0.001000000,0.001000000,0.000000000,0.000000000
1696851896.278841,3874865.000000000,1696851896.280565977,-0.042000000,-0.017000000,0.003000000,0.001000000,0.000000000,0.000000000
1696851896.281132,3874866.000000000,1696851896.282655001,-0.043000000,-0.017000000,0.011000000,0.001000000,0.000000000,0.000000000
1696851896.282937,3874867.000000000,1696851896.284560442,-0.044000000,-0.017000000,0.017000000,0.001000000,0.000000000,0.000000000
1696851896.284903,3874868.000000000,1696851896.286597729,-0.045000000,-0.017000000,0.023000000,0.001000000,0.000000000,0.000000000
1696851896.286981,3874869.000000000,1696851896.288630009,-0.046000000,-0.017000000,0.028000000,0.001000000,0.000000000,0.000000000
1696851896.288882,3874870.000000000,1696851896.290554047,-0.047000000,-0.018000000,0.033000000,0.001000000,0.000000000,0.000000000
1696851896.291119,3874871.000000000,1696851896.292591333,-0.048000000,-0.020000000,0.037000000,0.001000000,0.000000000,0.000000000
1696851896.292847,3874872.000000000,1696851896.294553041,-0.048000000,-0.022000000,0.041000000,0.001000000,0.000000000,0.000000000
1696851896.294843,3874873.000000000,1696851896.296559811,-0.049000000,-0.024000000,0.044000000,0.001000000,0.000000000,0.000000000
1696851896.296883,3874874.000000000,1696851896.298605680,-0.049000000,-0.025000000,0.047000000,0.001000000,0.000000000,0.000000000
1696851896.299236,3874875.000000000,1696851896.300618410,-0.050000000,-0.026000000,0.050000000,0.001000000,0.000000000,-0.001000000
1696851896.300914,3874876.000000000,1696851896.302553415,-0.050000000,-0.026000000,0.053000000,0.001000000,0.000000000,-0.001000000
1696851896.302873,3874877.000000000,1696851896.304580927,-0.050000000,-0.026000000,0.057000000,0.001000000,0.000000000,-0.001000000
1696851896.304964,3874878.000000000,1696851896.306557894,-0.051000000,-0.025000000,0.060000000,0.001000000,0.000000000,-0.001000000
1696851896.306832,3874879.000000000,1696851896.308581829,-0.052000000,-0.024000000,0.061000000,0.001000000,0.000000000,-0.001000000
1696851896.308804,3874880.000000000,1696851896.310554266,-0.052000000,-0.023000000,0.063000000,0.001000000,0.000000000,-0.001000000
1696851896.310805,3874881.000000000,1696851896.312556744,-0.053000000,-0.023000000,0.066000000,0.001000000,0.000000000,-0.001000000
1696851896.312798,3874882.000000000,1696851896.314549685,-0.053000000,-0.024000000,0.065000000,0.001000000,0.000000000,-0.001000000
1696851896.315480,3874883.000000000,1696851896.316757917,-0.053000000,-0.025000000,0.065000000,0.001000000,0.000000000,-0.001000000
1696851896.316826,3874884.000000000,1696851896.318545818,-0.053000000,-0.026000000,0.065000000,0.001000000,0.000000000,-0.001000000
1696851896.318897,3874885.000000000,1696851896.320591927,-0.053000000,-0.027000000,0.065000000,0.001000000,0.000000000,-0.001000000
1696851896.320772,3874886.000000000,1696851896.322564602,-0.053000000,-0.027000000,0.064000000,0.001000000,0.000000000,-0.001000000
1696851896.323195,3874887.000000000,1696851896.324589968,-0.053000000,-0.027000000,0.064000000,0.001000000,0.000000000,-0.001000000
1696851896.324877,3874888.000000000,1696851896.326576948,-0.052000000,-0.026000000,0.063000000,0.001000000,0.000000000,-0.001000000
1696851896.326819,3874889.000000000,1696851896.328593254,-0.052000000,-0.024000000,0.063000000,0.001000000,0.000000000,-0.001000000
1696851896.328805,3874890.000000000,1696851896.330549002,-0.052000000,-0.023000000,0.063000000,0.001000000,0.000000000,-0.001000000
1696851896.331463,3874891.000000000,1696851896.332682610,-0.053000000,-0.022000000,0.063000000,0.001000000,0.000000000,-0.001000000
1696851896.332962,3874892.000000000,1696851896.334546089,-0.052000000,-0.021000000,0.062000000,0.001000000,0.000000000,-0.001000000
1696851896.334813,3874893.000000000,1696851896.336556435,-0.052000000,-0.021000000,0.061000000,0.001000000,0.000000000,-0.001000000
1696851896.337209,3874894.000000000,1696851896.338543415,-0.052000000,-0.022000000,0.058000000,0.001000000,0.000000000,-0.001000000
1696851896.339365,3874895.000000000,1696851896.340702295,-0.051000000,-0.022000000,0.057000000,0.001000000,0.000000000,-0.001000000
1696851896.340929,3874896.000000000,1696851896.342689037,-0.051000000,-0.023000000,0.055000000,0.001000000,0.000000000,-0.001000000
1696851896.342749,3874897.000000000,1696851896.344561815,-0.050000000,-0.023000000,0.054000000,0.001000000,0.000000000,-0.001000000
1696851896.344836,3874898.000000000,1696851896.346587658,-0.049000000,-0.023000000,0.052000000,0.001000000,0.000000000,0.000000000
1696851896.346770,3874899.000000000,1696851896.348554611,-0.049000000,-0.022000000,0.052000000,0.001000000,0.000000000,0.000000000
1696851896.348855,3874900.000000000,1696851896.350620270,-0.049000000,-0.021000000,0.051000000,0.001000000,0.000000000,0.000000000
1696851896.350780,3874901.000000000,1696851896.352550507,-0.048000000,-0.020000000,0.050000000,0.001000000,0.000000000,0.000000000
1696851896.352829,3874902.000000000,1696851896.354580164,-0.048000000,-0.018000000,0.050000000,0.001000000,0.000000000,0.000000000
1696851896.354983,3874903.000000000,1696851896.356552601,-0.048000000,-0.017000000,0.049000000,0.001000000,0.000000000,0.000000000
1696851896.356854,3874904.000000000,1696851896.358578205,-0.047000000,-0.017000000,0.049000000,0.001000000,0.000000000,0.000000000
1696851896.358998,3874905.000000000,1696851896.360638380,-0.046000000,-0.017000000,0.047000000,0.001000000,0.000000000,0.000000000
1696851896.360817,3874906.000000000,1696851896.362544298,-0.046000000,-0.018000000,0.046000000,0.001000000,0.000000000,0.000000000
1696851896.362966,3874907.000000000,1696851896.364583969,-0.045000000,-0.019000000,0.043000000,0.001000000,0.000000000,0.000000000
1696851896.364818,3874908.000000000,1696851896.366559744,-0.044000000,-0.019000000,0.043000000,0.001000000,0.000000000,0.000000000
1696851896.366830,3874909.000000000,1696851896.368579865,-0.043000000,-0.020000000,0.043000000,0.001000000,0.000000000,0.000000000
1696851896.368831,3874910.000000000,1696851896.370598793,-0.043000000,-0.019000000,0.042000000,0.001000000,0.000000000,0.000000000
1696851896.370829,3874911.000000000,1696851896.372574091,-0.042000000,-0.018000000,0.042000000,0.001000000,0.000000000,0.000000000
1696851896.372810,3874912.000000000,1696851896.374581337,-0.041000000,-0.017000000,0.043000000,0.001000000,0.000000000,0.000000000
1696851896.374853,3874913.000000000,1696851896.376588106,-0.041000000,-0.015000000,0.044000000,0.001000000,0.000000000,0.000000000
1696851896.377046,3874914.000000000,1696851896.378571033,-0.041000000,-0.014000000,0.044000000,0.001000000,0.000000000,0.000000000
1696851896.378824,3874915.000000000,1696851896.380574465,-0.040000000,-0.014000000,0.044000000,0.001000000,0.000000000,0.000000000
1696851896.380862,3874916.000000000,1696851896.382608175,-0.039000000,-0.014000000,0.043000000,0.001000000,0.000000000,0.000000000
1696851896.382938,3874917.000000000,1696851896.384584665,-0.039000000,-0.014000000,0.043000000,0.001000000,0.000000000,0.000000000
1696851896.384810,3874918.000000000,1696851896.386586666,-0.038000000,-0.015000000,0.042000000,0.001000000,0.000000000,0.000000000
1696851896.387313,3874919.000000000,1696851896.388590097,-0.037000000,-0.016000000,0.042000000,0.001000000,0.000000000,0.000000000
1696851896.389046,3874920.000000000,1696851896.390730858,-0.037000000,-0.016000000,0.042000000,0.001000000,0.000000000,0.000000000
1696851896.390887,3874921.000000000,1696851896.392578363,-0.036000000,-0.016000000,0.042000000,0.001000000,0.000000000,0.000000000
1696851896.392767,3874922.000000000,1696851896.394557714,-0.036000000,-0.015000000,0.043000000,0.001000000,0.000000000,0.000000000
1696851896.394849,3874923.000000000,1696851896.396576166,-0.036000000,-0.015000000,0.043000000,0.001000000,0.000000000,0.000000000
1696851896.396733,3874924.000000000,1696851896.398553848,-0.035000000,-0.013000000,0.044000000,0.001000000,0.000000000,0.000000000
1696851896.398841,3874925.000000000,1696851896.400598288,-0.035000000,-0.012000000,0.045000000,0.001000000,0.000000000,0.000000000
1696851896.400827,3874926.000000000,1696851896.402567387,-0.035000000,-0.011000000,0.046000000,0.001000000,0.000000000,0.000000000
1696851896.402802,3874927.000000000,1696851896.404563427,-0.034000000,-0.011000000,0.045000000,0.001000000,0.000000000,0.000000000
1696851896.404757,3874928.000000000,1696851896.406553268,-0.034000000,-0.012000000,0.045000000,0.001000000,0.000000000,0.000000000
1696851896.406848,3874929.000000000,1696851896.408607006,-0.034000000,-0.012000000,0.045000000,0.001000000,0.000000000,-0.001000000
1696851896.409014,3874930.000000000,1696851896.410571814,-0.033000000,-0.013000000,0.044000000,0.001000000,0.000000000,-0.001000000
1696851896.410918,3874931.000000000,1696851896.412686110,-0.033000000,-0.014000000,0.044000000,0.001000000,0.000000000,-0.001000000
1696851896.412810,3874932.000000000,1696851896.414577723,-0.032000000,-0.014000000,0.044000000,0.001000000,0.000000000,-0.001000000
1696851896.414788,3874933.000000000,1696851896.416551828,-0.032000000,-0.014000000,0.045000000,0.001000000,0.000000000,-0.001000000
1696851896.416759,3874934.000000000,1696851896.418553114,-0.032000000,-0.012000000,0.045000000,0.001000000,0.000000000,-0.001000000
1696851896.418811,3874935.000000000,1696851896.420552254,-0.032000000,-0.011000000,0.046000000,0.001000000,0.000000000,-0.001000000
1696851896.420767,3874936.000000000,1696851896.422553301,-0.032000000,-0.010000000,0.046000000,0.001000000,0.000000000,-0.001000000
1696851896.422817,3874937.000000000,1696851896.424557686,-0.032000000,-0.009000000,0.047000000,0.001000000,0.000000000,-0.001000000
1696851896.424805,3874938.000000000,1696851896.426563025,-0.032000000,-0.009000000,0.046000000,0.001000000,0.000000000,-0.001000000
1696851896.426862,3874939.000000000,1696851896.428565979,-0.032000000,-0.009000000,0.046000000,0.001000000,0.000000000,-0.001000000
1696851896.428742,3874940.000000000,1696851896.430590391,-0.032000000,-0.010000000,0.046000000,0.001000000,0.000000000,-0.001000000
1696851896.431281,3874941.000000000,1696851896.432562113,-0.032000000,-0.011000000,0.045000000,0.001000000,0.000000000,-0.001000000
1696851896.432798,3874942.000000000,1696851896.434564352,-0.031000000,-0.011000000,0.043000000,0.001000000,0.000000000,-0.001000000
1696851896.434813,3874943.000000000,1696851896.436556816,-0.031000000,-0.012000000,0.043000000,0.001000000,0.000000000,-0.001000000
1696851896.436819,3874944.000000000,1696851896.438563108,-0.031000000,-0.012000000,0.044000000,0.001000000,0.000000000,-0.001000000
1696851896.438838,3874945.000000000,1696851896.440562248,-0.031000000,-0.011000000,0.044000000,0.001000000,0.000000000,-0.001000000
1696851896.440829,3874946.000000000,1696851896.442570210,-0.031000000,-0.010000000,0.044000000,0.001000000,0.000000000,-0.001000000
1696851896.442825,3874947.000000000,1696851896.444577694,-0.031000000,-0.009000000,0.045000000,0.001000000,0.000000000,-0.001000000
1696851896.445148,3874948.000000000,1696851896.446562290,-0.031000000,-0.008000000,0.045000000,0.001000000,0.000000000,-0.001000000
1696851896.446839,3874949.000000000,1696851896.448557138,-0.031000000,-0.007000000,0.044000000,0.001000000,0.000000000,-0.001000000
1696851896.448833,3874950.000000000,1696851896.450568199,-0.031000000,-0.007000000,0.044000000,0.001000000,0.000000000,-0.001000000
1696851896.451174,3874951.000000000,1696851896.452792645,-0.030000000,-0.008000000,0.042000000,0.001000000,0.000000000,-0.001000000
1696851896.452822,3874952.000000000,1696851896.454580069,-0.031000000,-0.009000000,0.041000000,0.001000000,0.000000000,-0.001000000
1696851896.454836,3874953.000000000,1696851896.456579685,-0.030000000,-0.010000000,0.039000000,0.001000000,0.000000000,-0.001000000
1696851896.456807,3874954.000000000,1696851896.458578587,-0.030000000,-0.010000000,0.038000000,0.001000000,0.000000000,-0.001000000
1696851896.458966,3874955.000000000,1696851896.460623503,-0.030000000,-0.010000000,0.036000000,0.001000000,0.000000000,-0.001000000
1696851896.460824,3874956.000000000,1696851896.462629318,-0.030000000,-0.009000000,0.036000000,0.001000000,0.000000000,-0.001000000
1696851896.462854,3874957.000000000,1696851896.464592457,-0.030000000,-0.008000000,0.035000000,0.001000000,0.000000000,-0.001000000
1696851896.465080,3874958.000000000,1696851896.466564655,-0.030000000,-0.007000000,0.034000000,0.001000000,0.000000000,-0.001000000
1696851896.466782,3874959.000000000,1696851896.468551636,-0.030000000,-0.005000000,0.032000000,0.001000000,0.000000000,0.000000000
1696851896.468880,3874960.000000000,1696851896.470570803,-0.030000000,-0.004000000,0.031000000,0.001000000,0.000000000,0.000000000
1696851896.470748,3874961.000000000,1696851896.472583532,-0.030000000,-0.004000000,0.028000000,0.001000000,0.000000000,0.000000000
1696851896.472832,3874962.000000000,1696851896.474602699,-0.030000000,-0.004000000,0.025000000,0.001000000,0.000000000,0.000000000
1696851896.475922,3874963.000000000,1696851896.477649927,-0.030000000,-0.004000000,0.022000000,0.001000000,0.000000000,0.000000000
1696851896.476739,3874964.000000000,1696851896.478560925,-0.030000000,-0.005000000,0.018000000,0.001000000,0.000000000,0.000000000
1696851896.478770,3874965.000000000,1696851896.480555296,-0.030000000,-0.006000000,0.014000000,0.001000000,0.000000000,0.000000000
1696851896.481132,3874966.000000000,1696851896.482576847,-0.030000000,-0.006000000,0.011000000,0.001000000,0.000000000,0.000000000
1696851896.482767,3874967.000000000,1696851896.484559536,-0.030000000,-0.005000000,0.009000000,0.001000000,0.000000000,0.000000000
1696851896.485235,3874968.000000000,1696851896.486563444,-0.030000000,-0.004000000,0.005000000,0.001000000,0.000000000,0.000000000
1696851896.486850,3874969.000000000,1696851896.488557100,-0.031000000,-0.003000000,0.003000000,0.001000000,0.000000000,0.000000000
1696851896.488875,3874970.000000000,1696851896.490571260,-0.031000000,-0.002000000,0.000000000,0.001000000,0.000000000,0.000000000
1696851896.491109,3874971.000000000,1696851896.492666483,-0.032000000,0.000000000,-0.002000000,0.001000000,0.000000000,0.000000000
1696851896.492788,3874972.000000000,1696851896.494564772,-0.032000000,0.000000000,-0.006000000,0.001000000,0.000000000,0.000000000
1696851896.495068,3874973.000000000,1696851896.496591330,-0.033000000,0.000000000,-0.010000000,0.001000000,0.000000000,0.000000000
1696851896.496780,3874974.000000000,1696851896.498570681,-0.033000000,0.000000000,-0.014000000,0.001000000,0.000000000,0.000000000
1696851896.498805,3874975.000000000,1696851896.500584364,-0.033000000,-0.001000000,-0.018000000,0.001000000,0.000000000,0.000000000
1696851896.500891,3874976.000000000,1696851896.502577782,-0.034000000,-0.002000000,-0.021000000,0.001000000,0.000000000,0.000000000
1696851896.502796,3874977.000000000,1696851896.504573107,-0.034000000,-0.003000000,-0.025000000,0.001000000,0.000000000,0.000000000
1696851896.504790,3874978.000000000,1696851896.506570339,-0.034000000,-0.003000000,-0.028000000,0.001000000,0.000000000,0.000000000
1696851896.506796,3874979.000000000,1696851896.508577585,-0.034000000,-0.003000000,-0.031000000,0.001000000,0.000000000,0.000000000
1696851896.508784,3874980.000000000,1696851896.510570526,-0.035000000,-0.002000000,-0.032000000,0.001000000,0.000000000,0.000000000
1696851896.510837,3874981.000000000,1696851896.512572527,-0.036000000,-0.001000000,-0.033000000,0.001000000,0.000000000,0.000000000
1696851896.512810,3874982.000000000,1696851896.514565945,-0.037000000,0.000000000,-0.034000000,0.001000000,0.000000000,0.000000000
1696851896.515766,3874983.000000000,1696851896.516568899,-0.037000000,0.000000000,-0.035000000,0.001000000,0.000000000,0.001000000
1696851896.517072,3874984.000000000,1696851896.518589020,-0.038000000,-0.001000000,-0.036000000,0.001000000,0.000000000,0.001000000
1696851896.518829,3874985.000000000,1696851896.520557642,-0.039000000,-0.002000000,-0.037000000,0.001000000,0.000000000,0.001000000
1696851896.520751,3874986.000000000,1696851896.522600412,-0.039000000,-0.003000000,-0.038000000,0.001000000,0.000000000,0.001000000
1696851896.523144,3874987.000000000,1696851896.524596214,-0.039000000,-0.005000000,-0.039000000,0.001000000,0.000000000,0.001000000
1696851896.524751,3874988.000000000,1696851896.526591063,-0.039000000,-0.007000000,-0.039000000,0.001000000,0.000000000,0.001000000
1696851896.526962,3874989.000000000,1696851896.528570652,-0.040000000,-0.008000000,-0.037000000,0.001000000,0.000000000,0.001000000
1696851896.528795,3874990.000000000,1696851896.530570269,-0.040000000,-0.009000000,-0.036000000,0.001000000,0.000000000,0.001000000
1696851896.531059,3874991.000000000,1696851896.532587290,-0.040000000,-0.008000000,-0.034000000,0.001000000,0.000000000,0.001000000
1696851896.534424,3874992.000000000,1696851896.534562588,-0.041000000,-0.008000000,-0.031000000,0.001000000,0.000000000,0.000000000
1696851896.534937,3874993.000000000,1696851896.536581516,-0.041000000,-0.008000000,-0.029000000,0.001000000,0.000000000,0.000000000
1696851896.536806,3874994.000000000,1696851896.538569689,-0.041000000,-0.008000000,-0.025000000,0.001000000,0.000000000,0.000000000
1696851896.538901,3874995.000000000,1696851896.540651560,-0.041000000,-0.009000000,-0.023000000,0.001000000,0.000000000,0.000000000
1696851896.540895,3874996.000000000,1696851896.542590141,-0.041000000,-0.010000000,-0.020000000,0.001000000,0.000000000,0.000000000
1696851896.542889,3874997.000000000,1696851896.544588804,-0.041000000,-0.011000000,-0.018000000,0.001000000,0.000000000,0.000000000
1696851896.544929,3874998.000000000,1696851896.546623707,-0.041000000,-0.013000000,-0.014000000,0.001000000,0.000000000,0.000000000
1696851896.547076,3874999.000000000,1696851896.548588753,-0.041000000,-0.015000000,-0.011000000,0.001000000,0.000000000,0.000000000
1696851896.548846,3875000.000000000,1696851896.550570011,-0.040000000,-0.016000000,-0.008000000,0.001000000,0.000000000,0.000000000
1696851896.550813,3875001.000000000,1696851896.552570343,-0.040000000,-0.017000000,-0.004000000,0.001000000,0.000000000,0.000000000
1696851896.552792,3875002.000000000,1696851896.554580450,-0.040000000,-0.017000000,0.000000000,0.001000000,0.000000000,0.000000000
1696851896.555241,3875003.000000000,1696851896.556569338,-0.040000000,-0.017000000,0.004000000,0.001000000,0.000000000,0.000000000
1696851896.556777,3875004.000000000,1696851896.558573246,-0.039000000,-0.016000000,0.009000000,0.001000000,0.000000000,0.000000000
1696851896.558835,3875005.000000000,1696851896.560586214,-0.039000000,-0.015000000,0.012000000,0.001000000,0.000000000,0.000000000
1696851896.560777,3875006.000000000,1696851896.562598228,-0.039000000,-0.015000000,0.016000000,0.001000000,0.000000000,0.000000000
1696851896.562792,3875007.000000000,1696851896.564570189,-0.039000000,-0.015000000,0.020000000,0.001000000,0.000000000,0.000000000
1696851896.564898,3875008.000000000,1696851896.566570282,-0.038000000,-0.016000000,0.024000000,0.001000000,0.000000000,0.000000000
1696851896.567045,3875009.000000000,1696851896.568564177,-0.038000000,-0.017000000,0.025000000,0.001000000,0.000000000,0.000000000
1696851896.568912,3875010.000000000,1696851896.570589781,-0.037000000,-0.018000000,0.027000000,0.001000000,0.000000000,0.000000000
1696851896.570854,3875011.000000000,1696851896.572622299,-0.037000000,-0.019000000,0.030000000,0.001000000,0.000000000,0.000000000
1696851896.572809,3875012.000000000,1696851896.574573994,-0.036000000,-0.019000000,0.032000000,0.001000000,0.000000000,0.000000000
1696851896.576245,3875013.000000000,1696851896.576622009,-0.035000000,-0.019000000,0.035000000,0.001000000,0.000000000,0.000000000
1696851896.576929,3875014.000000000,1696851896.578565359,-0.034000000,-0.017000000,0.037000000,0.001000000,0.000000000,0.000000000
1696851896.578932,3875015.000000000,1696851896.580591202,-0.035000000,-0.016000000,0.040000000,0.001000000,0.000000000,0.000000000
1696851896.580988,3875016.000000000,1696851896.582571745,-0.034000000,-0.014000000,0.042000000,0.001000000,0.000000000,0.000000000
1696851896.583431,3875017.000000000,1696851896.584596634,-0.034000000,-0.013000000,0.043000000,0.001000000,0.000000000,0.000000000
1696851896.584924,3875018.000000000,1696851896.586609602,-0.034000000,-0.013000000,0.045000000,0.001000000,0.000000000,0.000000000
1696851896.587219,3875019.000000000,1696851896.588587284,-0.034000000,-0.012000000,0.046000000,0.001000000,0.000000000,-0.001000000
1696851896.588872,3875020.000000000,1696851896.590600252,-0.033000000,-0.013000000,0.046000000,0.001000000,0.000000000,-0.001000000
1696851896.590986,3875021.000000000,1696851896.592577696,-0.033000000,-0.014000000,0.045000000,0.001000000,0.000000000,-0.001000000
1696851896.592791,3875022.000000000,1696851896.594564676,-0.033000000,-0.014000000,0.045000000,0.001000000,0.000000000,-0.001000000
1696851896.595027,3875023.000000000,1696851896.596600294,-0.032000000,-0.014000000,0.046000000,0.001000000,0.000000000,-0.001000000
1696851896.596838,3875024.000000000,1696851896.598572731,-0.032000000,-0.013000000,0.046000000,0.001000000,0.000000000,-0.001000000
1696851896.598939,3875025.000000000,1696851896.600574493,-0.032000000,-0.012000000,0.046000000,0.001000000,0.000000000,-0.001000000
1696851896.600878,3875026.000000000,1696851896.602571964,-0.032000000,-0.010000000,0.047000000,0.001000000,0.000000000,-0.001000000
1696851896.603837,3875027.000000000,1696851896.604624987,-0.032000000,-0.009000000,0.048000000,0.001000000,0.000000000,-0.001000000
1696851896.604930,3875028.000000000,1696851896.606598377,-0.032000000,-0.008000000,0.048000000,0.001000000,0.000000000,-0.001000000
1696851896.606962,3875029.000000000,1696851896.608597040,-0.033000000,-0.007000000,0.049000000,0.001000000,0.000000000,-0.001000000
1696851896.608845,3875030.000000000,1696851896.610569954,-0.033000000,-0.006000000,0.049000000,0.001000000,0.000000000,-0.001000000
1696851896.610885,3875031.000000000,1696851896.612576723,-0.033000000,-0.007000000,0.047000000,0.001000000,0.000000000,-0.001000000
1696851896.612863,3875032.000000000,1696851896.614594698,-0.033000000,-0.008000000,0.048000000,0.001000000,0.000000000,-0.001000000
1696851896.615324,3875033.000000000,1696851896.616894245,-0.033000000,-0.009000000,0.047000000,0.001000000,0.000000000,-0.001000000
1696851896.617928,3875034.000000000,1696851896.618572712,-0.033000000,-0.010000000,0.047000000,0.001000000,0.000000000,-0.001000000
1696851896.619721,3875035.000000000,1696851896.620587111,-0.034000000,-0.010000000,0.047000000,0.001000000,0.000000000,-0.001000000
1696851896.620771,3875036.000000000,1696851896.622590065,-0.034000000,-0.010000000,0.047000000,0.001000000,0.000000000,-0.001000000
1696851896.622813,3875037.000000000,1696851896.624579906,-0.035000000,-0.009000000,0.049000000,0.001000000,0.000000000,-0.001000000
1696851896.624816,3875038.000000000,1696851896.626610994,-0.035000000,-0.008000000,0.050000000,0.001000000,0.000000000,-0.001000000
1696851896.627241,3875039.000000000,1696851896.628602982,-0.036000000,-0.007000000,0.052000000,0.001000000,0.000000000,-0.001000000
1696851896.628747,3875040.000000000,1696851896.630578995,-0.036000000,-0.007000000,0.052000000,0.001000000,0.000000000,-0.001000000
1696851896.630888,3875041.000000000,1696851896.632616520,-0.037000000,-0.008000000,0.053000000,0.001000000,0.000000000,-0.001000000
1696851896.632792,3875042.000000000,1696851896.634564161,-0.037000000,-0.009000000,0.053000000,0.001000000,0.000000000,-0.001000000
1696851896.634784,3875043.000000000,1696851896.636552334,-0.037000000,-0.010000000,0.053000000,0.001000000,0.000000000,-0.001000000
1696851896.636768,3875044.000000000,1696851896.638576984,-0.038000000,-0.012000000,0.053000000,0.001000000,0.000000000,-0.001000000
1696851896.638872,3875045.000000000,1696851896.640565395,-0.038000000,-0.014000000,0.054000000,0.001000000,0.000000000,-0.001000000
1696851896.640846,3875046.000000000,1696851896.642581940,-0.038000000,-0.015000000,0.054000000,0.001000000,0.000000000,-0.001000000
1696851896.642905,3875047.000000000,1696851896.644578934,-0.038000000,-0.015000000,0.055000000,0.001000000,0.000000000,-0.001000000
1696851896.644930,3875048.000000000,1696851896.646676064,-0.038000000,-0.015000000,0.056000000,0.001000000,0.000000000,-0.001000000
1696851896.647077,3875049.000000000,1696851896.648561239,-0.039000000,-0.015000000,0.058000000,0.001000000,0.000000000,-0.001000000
1696851896.648849,3875050.000000000,1696851896.650597095,-0.039000000,-0.014000000,0.059000000,0.001000000,0.000000000,-0.001000000
1696851896.651235,3875051.000000000,1696851896.652581692,-0.039000000,-0.014000000,0.060000000,0.001000000,0.000000000,-0.001000000
1696851896.652918,3875052.000000000,1696851896.654687643,-0.040000000,-0.015000000,0.062000000,0.001000000,0.000000000,-0.001000000
1696851896.654803,3875053.000000000,1696851896.656568050,-0.040000000,-0.016000000,0.062000000,0.001000000,0.000000000,-0.001000000
1696851896.656837,3875054.000000000,1696851896.658568621,-0.040000000,-0.018000000,0.062000000,0.001000000,0.000000000,-0.001000000
1696851896.659215,3875055.000000000,1696851896.660615444,-0.040000000,-0.020000000,0.062000000,0.001000000,0.000000000,-0.001000000
1696851896.661035,3875056.000000000,1696851896.662583113,-0.040000000,-0.022000000,0.061000000,0.001000000,0.000000000,-0.001000000
1696851896.663268,3875057.000000000,1696851896.664615631,-0.040000000,-0.023000000,0.061000000,0.001000000,0.000000000,-0.001000000
1696851896.665589,3875058.000000000,1696851896.666623116,-0.039000000,-0.024000000,0.062000000,0.001000000,0.000000000,-0.001000000
1696851896.666929,3875059.000000000,1696851896.668611526,-0.039000000,-0.023000000,0.062000000,0.002000000,0.000000000,-0.001000000
1696851896.668871,3875060.000000000,1696851896.670574665,-0.039000000,-0.023000000,0.062000000,0.002000000,0.000000000,-0.001000000
1696851896.670881,3875061.000000000,1696851896.672606945,-0.039000000,-0.023000000,0.064000000,0.001000000,0.000000000,-0.001000000
1696851896.672849,3875062.000000000,1696851896.674563408,-0.039000000,-0.022000000,0.064000000,0.001000000,0.000000000,-0.001000000
1696851896.675156,3875063.000000000,1696851896.676594019,-0.039000000,-0.022000000,0.064000000,0.001000000,0.000000000,-0.001000000
1696851896.676806,3875064.000000000,1696851896.678602934,-0.038000000,-0.022000000,0.064000000,0.001000000,0.000000000,-0.001000000
1696851896.678823,3875065.000000000,1696851896.680582285,-0.038000000,-0.023000000,0.063000000,0.001000000,0.000000000,-0.001000000
1696851896.680925,3875066.000000000,1696851896.682605982,-0.037000000,-0.025000000,0.062000000,0.002000000,0.000000000,-0.001000000
1696851896.682788,3875067.000000000,1696851896.684595346,-0.036000000,-0.026000000,0.061000000,0.002000000,0.000000000,-0.001000000
1696851896.684813,3875068.000000000,1696851896.686603069,-0.036000000,-0.027000000,0.059000000,0.002000000,0.000000000,-0.001000000
1696851896.686798,3875069.000000000,1696851896.688571930,-0.036000000,-0.027000000,0.059000000,0.002000000,0.000000000,-0.001000000
1696851896.688920,3875070.000000000,1696851896.690604448,-0.035000000,-0.026000000,0.059000000,0.002000000,0.000000000,-0.001000000
1696851896.690796,3875071.000000000,1696851896.692584753,-0.034000000,-0.025000000,0.059000000,0.002000000,0.000000000,-0.001000000
1696851896.692805,3875072.000000000,1696851896.694612026,-0.034000000,-0.024000000,0.058000000,0.001000000,0.000000000,-0.001000000
1696851896.694800,3875073.000000000,1696851896.696565866,-0.034000000,-0.023000000,0.058000000,0.001000000,0.000000000,-0.001000000
1696851896.696784,3875074.000000000,1696851896.698585272,-0.034000000,-0.021000000,0.059000000,0.001000000,0.000000000,-0.001000000
1696851896.699042,3875075.000000000,1696851896.700567484,-0.033000000,-0.021000000,0.057000000,0.001000000,0.000000000,-0.001000000
1696851896.700738,3875076.000000000,1696851896.702576160,-0.033000000,-0.021000000,0.057000000,0.001000000,0.000000000,-0.001000000
1696851896.702781,3875077.000000000,1696851896.704591036,-0.033000000,-0.021000000,0.054000000,0.001000000,0.000000000,-0.001000000
1696851896.704765,3875078.000000000,1696851896.706561804,-0.032000000,-0.022000000,0.053000000,0.001000000,0.000000000,-0.001000000
1696851896.706795,3875079.000000000,1696851896.708619118,-0.032000000,-0.022000000,0.052000000,0.001000000,0.000000000,-0.001000000
1696851896.708752,3875080.000000000,1696851896.710580826,-0.031000000,-0.022000000,0.049000000,0.001000000,0.000000000,-0.001000000
1696851896.710769,3875081.000000000,1696851896.712592363,-0.031000000,-0.021000000,0.050000000,0.001000000,0.000000000,-0.001000000
1696851896.712779,3875082.000000000,1696851896.714560509,-0.031000000,-0.020000000,0.050000000,0.001000000,0.000000000,-0.001000000
1696851896.715014,3875083.000000000,1696851896.716630697,-0.031000000,-0.019000000,0.050000000,0.001000000,0.000000000,-0.001000000
1696851896.716769,3875084.000000000,1696851896.718566656,-0.031000000,-0.017000000,0.049000000,0.001000000,0.000000000,-0.001000000
1696851896.720598,3875085.000000000,1696851896.720573187,-0.031000000,-0.015000000,0.049000000,0.001000000,0.000000000,-0.001000000
1696851896.720994,3875086.000000000,1696851896.722564459,-0.031000000,-0.015000000,0.046000000,0.001000000,0.000000000,0.000000000
1696851896.723128,3875087.000000000,1696851896.724599123,-0.031000000,-0.014000000,0.047000000,0.001000000,0.000000000,0.000000000
1696851896.725538,3875088.000000000,1696851896.726588726,-0.031000000,-0.015000000,0.045000000,0.001000000,0.000000000,0.000000000
1696851896.726821,3875089.000000000,1696851896.728571892,-0.031000000,-0.015000000,0.044000000,0.001000000,0.000000000,0.000000000
1696851896.728797,3875090.000000000,1696851896.730574131,-0.031000000,-0.016000000,0.042000000,0.001000000,0.000000000,0.000000000
1696851896.730980,3875091.000000000,1696851896.732622862,-0.031000000,-0.016000000,0.041000000,0.001000000,0.000000000,0.000000000
1696851896.733059,3875092.000000000,1696851896.734791756,-0.031000000,-0.015000000,0.040000000,0.001000000,0.000000000,0.000000000
1696851896.734766,3875093.000000000,1696851896.736570597,-0.031000000,-0.014000000,0.039000000,0.001000000,0.000000000,0.000000000
1696851896.736836,3875094.000000000,1696851896.738610268,-0.031000000,-0.013000000,0.038000000,0.001000000,0.000000000,0.000000000
1696851896.739336,3875095.000000000,1696851896.740566254,-0.032000000,-0.011000000,0.039000000,0.001000000,0.000000000,0.000000000
1696851896.740771,3875096.000000000,1696851896.742595673,-0.032000000,-0.010000000,0.038000000,0.001000000,0.000000000,0.000000000
1696851896.742753,3875097.000000000,1696851896.744567633,-0.033000000,-0.009000000,0.037000000,0.001000000,0.000000000,0.000000000
1696851896.744875,3875098.000000000,1696851896.746614933,-0.033000000,-0.009000000,0.035000000,0.001000000,0.000000000,0.000000000
1696851896.747395,3875099.000000000,1696851896.748620510,-0.033000000,-0.009000000,0.034000000,0.001000000,0.000000000,0.000000000
1696851896.748727,3875100.000000000,1696851896.750567675,-0.033000000,-0.010000000,0.031000000,0.001000000,0.000000000,0.000000000
1696851896.750731,3875101.000000000,1696851896.752578020,-0.034000000,-0.011000000,0.028000000,0.001000000,0.000000000,0.000000000
1696851896.752774,3875102.000000000,1696851896.754590034,-0.034000000,-0.011000000,0.026000000,0.001000000,0.000000000,0.000000000
1696851896.755137,3875103.000000000,1696851896.756589413,-0.034000000,-0.012000000,0.024000000,0.001000000,0.000000000,0.000000000
1696851896.756917,3875104.000000000,1696851896.758567333,-0.033000000,-0.011000000,0.021000000,0.001000000,0.000000000,0.000000000
1696851896.758892,3875105.000000000,1696851896.760623455,-0.034000000,-0.010000000,0.019000000,0.001000000,0.000000000,0.000000000
1696851896.760748,3875106.000000000,1696851896.762591839,-0.034000000,-0.009000000,0.017000000,0.001000000,0.000000000,0.000000000
1696851896.762738,3875107.000000000,1696851896.764557600,-0.034000000,-0.007000000,0.015000000,0.001000000,0.000000000,0.000000000
1696851896.765613,3875108.000000000,1696851896.766701937,-0.035000000,-0.006000000,0.013000000,0.001000000,0.000000000,0.000000000
1696851896.767575,3875109.000000000,1696851896.769177914,-0.034000000,-0.006000000,0.007000000,0.001000000,0.000000000,0.000000000
1696851896.769387,3875110.000000000,1696851896.771138191,-0.035000000,-0.006000000,0.006000000,0.001000000,0.000000000,0.000000000
1696851896.771105,3875111.000000000,1696851896.772740841,-0.035000000,-0.007000000,0.000000000,0.001000000,0.000000000,0.000000000
1696851896.772802,3875112.000000000,1696851896.774590969,-0.035000000,-0.007000000,-0.003000000,0.001000000,0.000000000,0.000000000
1696851896.774813,3875113.000000000,1696851896.776618958,-0.034000000,-0.008000000,-0.008000000,0.001000000,0.000000000,0.000000000
1696851896.776807,3875114.000000000,1696851896.778585196,-0.034000000,-0.008000000,-0.012000000,0.001000000,0.000000000,0.000000000
1696851896.778790,3875115.000000000,1696851896.780594349,-0.034000000,-0.008000000,-0.015000000,0.001000000,0.000000000,0.000000000
1696851896.780817,3875116.000000000,1696851896.782622814,-0.033000000,-0.007000000,-0.020000000,0.001000000,0.000000000,0.000000000
1696851896.783156,3875117.000000000,1696851896.784572601,-0.033000000,-0.005000000,-0.022000000,0.001000000,0.000000000,0.000000000
1696851896.784790,3875118.000000000,1696851896.786583662,-0.033000000,-0.004000000,-0.026000000,0.001000000,0.000000000,0.000000000
1696851896.787067,3875119.000000000,1696851896.788575411,-0.033000000,-0.002000000,-0.029000000,0.001000000,0.000000000,0.000000000
1696851896.788799,3875120.000000000,1696851896.790606499,-0.033000000,-0.001000000,-0.033000000,0.001000000,0.000000000,0.001000000
1696851896.790771,3875121.000000000,1696851896.792573690,-0.033000000,-0.001000000,-0.037000000,0.001000000,0.000000000,0.001000000
1696851896.792780,3875122.000000000,1696851896.794586897,-0.032000000,-0.001000000,-0.041000000,0.001000000,0.000000000,0.001000000
1696851896.795063,3875123.000000000,1696851896.796643734,-0.032000000,-0.002000000,-0.046000000,0.001000000,0.000000000,0.001000000
1696851896.796885,3875124.000000000,1696851896.798579216,-0.031000000,-0.002000000,-0.048000000,0.001000000,0.000000000,0.001000000
1696851896.798868,3875125.000000000,1696851896.800580263,-0.031000000,-0.002000000,-0.053000000,0.002000000,0.000000000,0.001000000
1696851896.800908,3875126.000000000,1696851896.802585363,-0.031000000,-0.002000000,-0.055000000,0.002000000,0.000000000,0.001000000
1696851896.803173,3875127.000000000,1696851896.804662943,-0.030000000,-0.002000000,-0.058000000,0.002000000,0.000000000,0.001000000
1696851896.804827,3875128.000000000,1696851896.806636810,-0.029000000,0.000000000,-0.060000000,0.002000000,0.000000000,0.001000000
1696851896.807304,3875129.000000000,1696851896.808651209,-0.030000000,0.000000000,-0.060000000,0.002000000,0.000000000,0.001000000
1696851896.808971,3875130.000000000,1696851896.810586452,-0.029000000,0.002000000,-0.062000000,0.001000000,0.000000000,0.001000000
1696851896.810765,3875131.000000000,1696851896.812603712,-0.029000000,0.003000000,-0.062000000,0.001000000,0.000000000,0.001000000
1696851896.812747,3875132.000000000,1696851896.814594984,-0.029000000,0.003000000,-0.062000000,0.001000000,0.000000000,0.001000000
1696851896.814929,3875133.000000000,1696851896.816724300,-0.029000000,0.003000000,-0.063000000,0.001000000,0.000000000,0.001000000
1696851896.816734,3875134.000000000,1696851896.818577766,-0.029000000,0.003000000,-0.064000000,0.001000000,0.000000000,0.001000000
1696851896.819199,3875135.000000000,1696851896.820605040,-0.029000000,0.002000000,-0.064000000,0.002000000,0.000000000,0.001000000
1696851896.820732,3875136.000000000,1696851896.822568893,-0.028000000,0.001000000,-0.064000000,0.002000000,0.000000000,0.001000000
1696851896.822855,3875137.000000000,1696851896.824621677,-0.028000000,0.000000000,-0.063000000,0.002000000,0.000000000,0.001000000
1696851896.824827,3875138.000000000,1696851896.826630354,-0.028000000,0.001000000,-0.062000000,0.002000000,0.000000000,0.001000000
1696851896.828467,3875139.000000000,1696851896.828675508,-0.028000000,0.002000000,-0.059000000,0.001000000,0.000000000,0.001000000
1696851896.828985,3875140.000000000,1696851896.830582619,-0.028000000,0.003000000,-0.056000000,0.001000000,0.000000000,0.001000000
1696851896.830873,3875141.000000000,1696851896.832622528,-0.028000000,0.004000000,-0.052000000,0.001000000,0.000000000,0.001000000
1696851896.832821,3875142.000000000,1696851896.834585667,-0.029000000,0.005000000,-0.049000000,0.001000000,0.000000000,0.001000000
1696851896.834827,3875143.000000000,1696851896.836597443,-0.029000000,0.005000000,-0.046000000,0.001000000,0.000000000,0.001000000
1696851896.836806,3875144.000000000,1696851896.838596582,-0.030000000,0.005000000,-0.042000000,0.001000000,0.000000000,0.001000000
1696851896.838815,3875145.000000000,1696851896.840582848,-0.030000000,0.004000000,-0.038000000,0.001000000,0.000000000,0.001000000
1696851896.840802,3875146.000000000,1696851896.842582703,-0.030000000,0.003000000,-0.036000000,0.001000000,0.000000000,0.000000000
1696851896.843711,3875147.000000000,1696851896.844627380,-0.031000000,0.002000000,-0.034000000,0.001000000,0.000000000,0.000000000
1696851896.844894,3875148.000000000,1696851896.846686602,-0.031000000,0.001000000,-0.029000000,0.001000000,0.000000000,0.000000000
1696851896.846926,3875149.000000000,1696851896.848635912,-0.031000000,0.000000000,-0.026000000,0.001000000,0.000000000,0.000000000
1696851896.848805,3875150.000000000,1696851896.850603580,-0.032000000,0.000000000,-0.021000000,0.001000000,0.000000000,0.000000000
1696851896.851919,3875151.000000000,1696851896.852630615,-0.033000000,0.001000000,-0.016000000,0.001000000,0.000000000,0.000000000
1696851896.852885,3875152.000000000,1696851896.854715347,-0.033000000,0.002000000,-0.011000000,0.001000000,0.000000000,0.000000000
1696851896.854772,3875153.000000000,1696851896.856583595,-0.034000000,0.003000000,-0.006000000,0.001000000,0.000000000,0.000000000
1696851896.856857,3875154.000000000,1696851896.858602047,-0.035000000,0.003000000,-0.003000000,0.001000000,0.000000000,0.000000000
1696851896.858932,3875155.000000000,1696851896.860630989,-0.035000000,0.002000000,0.000000000,0.001000000,0.000000000,0.000000000
1696851896.860786,3875156.000000000,1696851896.862607479,-0.036000000,0.001000000,0.003000000,0.001000000,0.000000000,0.000000000
1696851896.862785,3875157.000000000,1696851896.864581823,-0.037000000,0.000000000,0.006000000,0.001000000,0.000000000,0.000000000
1696851896.865325,3875158.000000000,1696851896.866645575,-0.037000000,-0.001000000,0.009000000,0.001000000,0.000000000,0.000000000
1696851896.866777,3875159.000000000,1696851896.868598461,-0.037000000,-0.002000000,0.011000000,0.001000000,0.000000000,0.000000000
1696851896.868794,3875160.000000000,1696851896.870622635,-0.037000000,-0.003000000,0.013000000,0.001000000,0.000000000,0.000000000
1696851896.870751,3875161.000000000,1696851896.872584343,-0.038000000,-0.003000000,0.016000000,0.001000000,0.000000000,0.000000000
1696851896.872837,3875162.000000000,1696851896.874638796,-0.038000000,-0.003000000,0.020000000,0.001000000,0.000000000,0.000000000
1696851896.874832,3875163.000000000,1696851896.876599312,-0.038000000,-0.002000000,0.022000000,0.001000000,0.000000000,0.000000000
1696851896.876807,3875164.000000000,1696851896.878599405,-0.039000000,-0.002000000,0.025000000,0.001000000,0.000000000,0.000000000
1696851896.878805,3875165.000000000,1696851896.880594254,-0.039000000,-0.001000000,0.027000000,0.001000000,0.000000000,0.000000000
1696851896.880763,3875166.000000000,1696851896.882586479,-0.039000000,-0.002000000,0.028000000,0.001000000,0.000000000,0.000000000
1696851896.883105,3875167.000000000,1696851896.884574652,-0.039000000,-0.003000000,0.028000000,0.001000000,0.000000000,0.000000000
1696851896.884793,3875168.000000000,1696851896.886582851,-0.039000000,-0.004000000,0.028000000,0.001000000,0.000000000,0.000000000
1696851896.886777,3875169.000000000,1696851896.888588428,-0.039000000,-0.006000000,0.029000000,0.001000000,0.000000000,0.000000000
1696851896.888777,3875170.000000000,1696851896.890583038,-0.039000000,-0.008000000,0.028000000,0.001000000,0.000000000,0.000000000
1696851896.890832,3875171.000000000,1696851896.892604351,-0.038000000,-0.009000000,0.027000000,0.001000000,0.000000000,0.000000000
1696851896.892836,3875172.000000000,1696851896.894596815,-0.037000000,-0.010000000,0.026000000,0.001000000,0.000000000,0.000000000
1696851896.894795,3875173.000000000,1696851896.896595001,-0.037000000,-0.010000000,0.028000000,0.001000000,0.000000000,0.000000000
1696851896.896769,3875174.000000000,1696851896.898585081,-0.036000000,-0.010000000,0.027000000,0.001000000,0.000000000,0.000000000
1696851896.898800,3875175.000000000,1696851896.900616169,-0.036000000,-0.010000000,0.027000000,0.001000000,0.000000000,0.000000000
1696851896.900840,3875176.000000000,1696851896.902651787,-0.036000000,-0.009000000,0.028000000,0.001000000,0.000000000,0.000000000
1696851896.902787,3875177.000000000,1696851896.904589653,-0.036000000,-0.009000000,0.027000000,0.001000000,0.000000000,0.000000000
1696851896.904783,3875178.000000000,1696851896.906586647,-0.035000000,-0.011000000,0.026000000,0.001000000,0.000000000,0.000000000
1696851896.907104,3875179.000000000,1696851896.908599854,-0.034000000,-0.012000000,0.023000000,0.001000000,0.000000000,0.000000000
1696851896.908776,3875180.000000000,1696851896.910586357,-0.034000000,-0.014000000,0.023000000,0.001000000,0.000000000,0.000000000
1696851896.910780,3875181.000000000,1696851896.912586689,-0.033000000,-0.016000000,0.020000000,0.001000000,0.000000000,0.000000000
1696851896.912810,3875182.000000000,1696851896.914624929,-0.032000000,-0.018000000,0.019000000,0.001000000,0.000000000,0.000000000
1696851896.915281,3875183.000000000,1696851896.916759014,-0.031000000,-0.019000000,0.017000000,0.001000000,0.000000000,0.000000000
1696851896.916810,3875184.000000000,1696851896.918585777,-0.031000000,-0.019000000,0.017000000,0.001000000,0.000000000,0.000000000
1696851896.918787,3875185.000000000,1696851896.920588493,-0.030000000,-0.019000000,0.016000000,0.001000000,0.000000000,0.000000000
1696851896.920846,3875186.000000000,1696851896.922588110,-0.030000000,-0.018000000,0.016000000,0.001000000,0.000000000,0.000000000
1696851896.923316,3875187.000000000,1696851896.924578667,-0.030000000,-0.018000000,0.016000000,0.001000000,0.000000000,0.000000000
1696851896.925344,3875188.000000000,1696851896.926619291,-0.030000000,-0.018000000,0.015000000,0.001000000,0.000000000,0.000000000
1696851896.926782,3875189.000000000,1696851896.928588867,-0.029000000,-0.019000000,0.014000000,0.001000000,0.000000000,0.000000000
1696851896.928806,3875190.000000000,1696851896.930595636,-0.030000000,-0.020000000,0.013000000,0.001000000,0.000000000,0.000000000
1696851896.930824,3875191.000000000,1696851896.932598591,-0.029000000,-0.021000000,0.012000000,0.001000000,0.000000000,0.000000000
1696851896.932778,3875192.000000000,1696851896.934599638,-0.029000000,-0.023000000,0.011000000,0.002000000,0.000000000,0.000000000
1696851896.934854,3875193.000000000,1696851896.936645985,-0.029000000,-0.024000000,0.010000000,0.002000000,0.000000000,0.000000000
1696851896.936810,3875194.000000000,1696851896.938585520,-0.029000000,-0.026000000,0.009000000,0.002000000,0.000000000,0.000000000
1696851896.938847,3875195.000000000,1696851896.940576553,-0.029000000,-0.026000000,0.008000000,0.002000000,0.000000000,0.000000000
1696851896.940815,3875196.000000000,1696851896.942608595,-0.029000000,-0.026000000,0.008000000,0.002000000,0.000000000,0.000000000
1696851896.942819,3875197.000000000,1696851896.944603682,-0.029000000,-0.025000000,0.008000000,0.002000000,0.000000000,0.000000000
1696851896.944821,3875198.000000000,1696851896.946585655,-0.030000000,-0.024000000,0.009000000,0.002000000,0.000000000,0.000000000
1696851896.947033,3875199.000000000,1696851896.948654175,-0.030000000,-0.023000000,0.009000000,0.002000000,0.000000000,0.000000000
1696851896.949504,3875200.000000000,1696851896.950582266,-0.031000000,-0.023000000,0.010000000,0.002000000,0.000000000,0.000000000
1696851896.950790,3875201.000000000,1696851896.952606201,-0.032000000,-0.023000000,0.009000000,0.002000000,0.000000000,0.000000000
1696851896.952828,3875202.000000000,1696851896.954601765,-0.032000000,-0.024000000,0.009000000,0.002000000,0.000000000,0.000000000
1696851896.955237,3875203.000000000,1696851896.956601143,-0.032000000,-0.025000000,0.008000000,0.002000000,0.000000000,0.000000000
1696851896.956888,3875204.000000000,1696851896.958633661,-0.032000000,-0.026000000,0.008000000,0.002000000,0.000000000,0.000000000
1696851896.958843,3875205.000000000,1696851896.960601568,-0.033000000,-0.027000000,0.008000000,0.002000000,0.000000000,0.000000000
1696851896.960836,3875206.000000000,1696851896.962590456,-0.033000000,-0.027000000,0.008000000,0.002000000,0.000000000,0.000000000
1696851896.963427,3875207.000000000,1696851896.964684963,-0.033000000,-0.026000000,0.009000000,0.002000000,0.000000000,0.000000000
1696851896.964932,3875208.000000000,1696851896.966645479,-0.034000000,-0.025000000,0.010000000,0.002000000,0.000000000,0.000000000
1696851896.966796,3875209.000000000,1696851896.968606949,-0.034000000,-0.023000000,0.011000000,0.001000000,0.000000000,0.000000000
1696851896.968815,3875210.000000000,1696851896.970613241,-0.035000000,-0.021000000,0.014000000,0.001000000,0.000000000,0.000000000
1696851896.970853,3875211.000000000,1696851896.972587347,-0.036000000,-0.020000000,0.014000000,0.001000000,0.000000000,0.000000000
1696851896.972886,3875212.000000000,1696851896.974604130,-0.036000000,-0.019000000,0.015000000,0.001000000,0.000000000,0.000000000
1696851896.974910,3875213.000000000,1696851896.976604223,-0.037000000,-0.019000000,0.016000000,0.001000000,0.000000000,0.000000000
1696851896.976934,3875214.000000000,1696851896.978640556,-0.037000000,-0.019000000,0.015000000,0.001000000,0.000000000,0.000000000
1696851896.978871,3875215.000000000,1696851896.980629444,-0.037000000,-0.020000000,0.016000000,0.001000000,0.000000000,0.000000000
1696851896.980946,3875216.000000000,1696851896.982618093,-0.037000000,-0.020000000,0.016000000,0.001000000,0.000000000,0.000000000
1696851896.983944,3875217.000000000,1696851896.984597921,-0.037000000,-0.019000000,0.016000000,0.001000000,0.000000000,0.000000000
1696851896.984838,3875218.000000000,1696851896.986573458,-0.037000000,-0.018000000,0.018000000,0.001000000,0.000000000,0.000000000
1696851896.986907,3875219.000000000,1696851896.988590956,-0.037000000,-0.017000000,0.018000000,0.001000000,0.000000000,0.000000000
1696851896.988759,3875220.000000000,1696851896.990588188,-0.037000000,-0.015000000,0.021000000,0.001000000,0.000000000,0.000000000
1696851896.990817,3875221.000000000,1696851896.992588282,-0.037000000,-0.013000000,0.022000000,0.001000000,0.000000000,0.000000000
1696851896.992809,3875222.000000000,1696851896.994574308,-0.037000000,-0.011000000,0.023000000,0.001000000,0.000000000,0.000000000
1696851896.995084,3875223.000000000,1696851896.996679068,-0.037000000,-0.010000000,0.023000000,0.001000000,0.000000000,0.000000000
1696851896.996836,3875224.000000000,1696851896.998583555,-0.037000000,-0.009000000,0.024000000,0.001000000,0.000000000,0.000000000
1696851896.999126,3875225.000000000,1696851897.000637531,-0.037000000,-0.009000000,0.024000000,0.001000000,0.000000000,0.000000000
1696851897.000905,3875226.000000000,1696851897.002627373,-0.036000000,-0.010000000,0.025000000,0.001000000,0.000000000,0.000000000
1696851897.003529,3875227.000000000,1696851897.004654408,-0.036000000,-0.010000000,0.025000000,0.001000000,0.000000000,0.000000000
1696851897.004897,3875228.000000000,1696851897.006602764,-0.035000000,-0.010000000,0.025000000,0.001000000,0.000000000,0.000000000
1696851897.006779,3875229.000000000,1696851897.008595467,-0.034000000,-0.009000000,0.025000000,0.001000000,0.000000000,0.000000000
1696851897.008795,3875230.000000000,1696851897.010611534,-0.034000000,-0.008000000,0.026000000,0.001000000,0.000000000,0.000000000
1696851897.010776,3875231.000000000,1696851897.012601137,-0.033000000,-0.006000000,0.028000000,0.001000000,0.000000000,0.000000000
1696851897.012782,3875232.000000000,1696851897.014597416,-0.033000000,-0.004000000,0.029000000,0.001000000,0.000000000,0.000000000
1696851897.014976,3875233.000000000,1696851897.016728878,-0.032000000,-0.003000000,0.030000000,0.001000000,0.000000000,0.000000000
1696851897.016802,3875234.000000000,1696851897.018566132,-0.032000000,-0.002000000,0.030000000,0.001000000,0.000000000,0.000000000
1696851897.018784,3875235.000000000,1696851897.020576477,-0.032000000,-0.001000000,0.031000000,0.001000000,0.000000000,0.000000000
1696851897.020783,3875236.000000000,1696851897.022589922,-0.031000000,-0.002000000,0.031000000,0.001000000,0.000000000,0.000000000
1696851897.023190,3875237.000000000,1696851897.024651527,-0.030000000,-0.003000000,0.032000000,0.001000000,0.000000000,0.000000000
1696851897.024861,3875238.000000000,1696851897.026594877,-0.030000000,-0.004000000,0.032000000,0.001000000,0.000000000,0.000000000
1696851897.027903,3875239.000000000,1696851897.028609753,-0.029000000,-0.004000000,0.031000000,0.001000000,0.000000000,0.000000000
1696851897.028848,3875240.000000000,1696851897.030586481,-0.028000000,-0.005000000,0.030000000,0.001000000,0.000000000,0.000000000
1696851897.030943,3875241.000000000,1696851897.032587051,-0.028000000,-0.005000000,0.031000000,0.001000000,0.000000000,0.000000000
1696851897.032900,3875242.000000000,1696851897.034613132,-0.027000000,-0.004000000,0.031000000,0.001000000,0.000000000,0.000000000
1696851897.035124,3875243.000000000,1696851897.036719322,-0.026000000,-0.003000000,0.031000000,0.001000000,0.000000000,0.000000000
1696851897.036839,3875244.000000000,1696851897.038592339,-0.026000000,-0.002000000,0.032000000,0.001000000,0.000000000,0.000000000
1696851897.038867,3875245.000000000,1696851897.040577888,-0.026000000,-0.002000000,0.032000000,0.001000000,0.000000000,0.000000000
1696851897.040873,3875246.000000000,1696851897.042584181,-0.026000000,-0.002000000,0.032000000,0.001000000,0.000000000,0.000000000
1696851897.043688,3875247.000000000,1696851897.044682741,-0.025000000,-0.002000000,0.030000000,0.001000000,0.000000000,0.000000000
1696851897.044913,3875248.000000000,1696851897.046661615,-0.025000000,-0.003000000,0.029000000,0.001000000,0.000000000,0.000000000
1696851897.047497,3875249.000000000,1696851897.048649788,-0.024000000,-0.005000000,0.027000000,0.001000000,0.000000000,0.000000000
1696851897.049066,3875250.000000000,1696851897.050598621,-0.024000000,-0.006000000,0.026000000,0.001000000,0.000000000,0.000000000
1696851897.050843,3875251.000000000,1696851897.052614450,-0.024000000,-0.007000000,0.023000000,0.001000000,0.000000000,0.000000000
1696851897.052823,3875252.000000000,1696851897.054601908,-0.023000000,-0.007000000,0.021000000,0.001000000,0.000000000,0.000000000
1696851897.054846,3875253.000000000,1696851897.056606054,-0.023000000,-0.006000000,0.020000000,0.001000000,0.000000000,0.000000000
1696851897.056888,3875254.000000000,1696851897.058595181,-0.023000000,-0.005000000,0.019000000,0.001000000,0.000000000,0.000000000
1696851897.059254,3875255.000000000,1696851897.060800552,-0.023000000,-0.003000000,0.017000000,0.001000000,0.000000000,0.000000000
1696851897.060840,3875256.000000000,1696851897.062628031,-0.024000000,-0.002000000,0.016000000,0.001000000,0.000000000,0.000000000
1696851897.063741,3875257.000000000,1696851897.064664841,-0.024000000,-0.001000000,0.014000000,0.001000000,0.000000000,0.000000000
1696851897.064862,3875258.000000000,1696851897.066575527,-0.024000000,-0.001000000,0.011000000,0.001000000,0.000000000,0.000000000
1696851897.067234,3875259.000000000,1696851897.068628073,-0.024000000,-0.001000000,0.008000000,0.001000000,0.000000000,0.000000000
1696851897.068832,3875260.000000000,1696851897.070577860,-0.025000000,-0.002000000,0.005000000,0.002000000,0.000000000,0.000000000
1696851897.070868,3875261.000000000,1696851897.072591305,-0.025000000,-0.003000000,0.002000000,0.002000000,0.000000000,0.000000000
1696851897.072812,3875262.000000000,1696851897.074580908,-0.025000000,-0.003000000,0.000000000,0.002000000,0.000000000,0.000000000
1696851897.074878,3875263.000000000,1696851897.076604605,-0.025000000,-0.002000000,-0.002000000,0.002000000,0.000000000,0.000000000
1696851897.076870,3875264.000000000,1696851897.078655958,-0.025000000,-0.001000000,-0.005000000,0.002000000,0.000000000,0.000000000
1696851897.078786,3875265.000000000,1696851897.080589294,-0.026000000,0.000000000,-0.006000000,0.002000000,0.000000000,0.000000000
1696851897.081105,3875266.000000000,1696851897.082595348,-0.026000000,0.002000000,-0.008000000,0.002000000,0.000000000,0.000000000
1696851897.082923,3875267.000000000,1696851897.084626675,-0.027000000,0.004000000,-0.008000000,0.002000000,0.000000000,0.000000000
1696851897.084996,3875268.000000000,1696851897.086611986,-0.028000000,0.006000000,-0.010000000,0.002000000,0.000000000,0.000000000
1696851897.086906,3875269.000000000,1696851897.088618279,-0.028000000,0.007000000,-0.013000000,0.002000000,0.000000000,0.000000000
1696851897.088822,3875270.000000000,1696851897.090632677,-0.029000000,0.008000000,-0.014000000,0.002000000,0.000000000,0.000000000
1696851897.090801,3875271.000000000,1696851897.092578411,-0.029000000,0.008000000,-0.016000000,0.002000000,0.000000000,0.000000000
1696851897.092800,3875272.000000000,1696851897.094594717,-0.030000000,0.008000000,-0.018000000,0.002000000,0.000000000,0.000000000
1696851897.094804,3875273.000000000,1696851897.096591711,-0.030000000,0.008000000,-0.018000000,0.002000000,0.000000000,0.000000000
1696851897.096804,3875274.000000000,1696851897.098579407,-0.030000000,0.008000000,-0.020000000,0.002000000,0.000000000,0.000000000
1696851897.100230,3875275.000000000,1696851897.100649357,-0.030000000,0.010000000,-0.019000000,0.002000000,0.000000000,0.000000000
1696851897.100993,3875276.000000000,1696851897.102624416,-0.030000000,0.012000000,-0.019000000,0.001000000,0.000000000,0.000000000
1696851897.103272,3875277.000000000,1696851897.104585171,-0.030000000,0.014000000,-0.019000000,0.001000000,0.000000000,0.000000000
1696851897.104903,3875278.000000000,1696851897.106590271,-0.031000000,0.016000000,-0.017000000,0.001000000,0.000000000,0.000000000
1696851897.107235,3875279.000000000,1696851897.108632088,-0.032000000,0.018000000,-0.015000000,0.001000000,0.000000000,0.000000000
1696851897.108881,3875280.000000000,1696851897.110605001,-0.032000000,0.019000000,-0.014000000,0.001000000,0.000000000,0.000000000
1696851897.110963,3875281.000000000,1696851897.112651348,-0.032000000,0.020000000,-0.013000000,0.001000000,0.000000000,0.000000000
1696851897.112920,3875282.000000000,1696851897.114596367,-0.032000000,0.019000000,-0.013000000,0.001000000,0.000000000,0.000000000
1696851897.114917,3875283.000000000,1696851897.116639137,-0.032000000,0.018000000,-0.010000000,0.001000000,0.000000000,0.000000000
1696851897.116887,3875284.000000000,1696851897.118634939,-0.032000000,0.018000000,-0.009000000,0.001000000,0.000000000,0.000000000
1696851897.118887,3875285.000000000,1696851897.120602846,-0.031000000,0.017000000,-0.008000000,0.001000000,0.000000000,0.000000000
1696851897.120850,3875286.000000000,1696851897.122590780,-0.031000000,0.017000000,-0.005000000,0.001000000,0.000000000,0.000000000
1696851897.122952,3875287.000000000,1696851897.124618053,-0.031000000,0.018000000,-0.002000000,0.001000000,0.000000000,0.000000000
1696851897.124904,3875288.000000000,1696851897.126592875,-0.030000000,0.018000000,0.000000000,0.001000000,0.000000000,0.000000000
1696851897.126909,3875289.000000000,1696851897.128595114,-0.030000000,0.020000000,0.004000000,0.001000000,0.000000000,0.000000000
1696851897.130049,3875290.000000000,1696851897.130601645,-0.030000000,0.020000000,0.007000000,0.001000000,0.000000000,0.000000000
1696851897.131134,3875291.000000000,1696851897.132646084,-0.030000000,0.020000000,0.010000000,0.001000000,0.000000000,0.000000000
1696851897.132991,3875292.000000000,1696851897.134666920,-0.029000000,0.020000000,0.013000000,0.001000000,0.000000000,0.000000000
1696851897.135000,3875293.000000000,1696851897.136614799,-0.028000000,0.019000000,0.015000000,0.001000000,0.000000000,0.000000000
1696851897.136850,3875294.000000000,1696851897.138622999,-0.028000000,0.017000000,0.018000000,0.001000000,0.000000000,0.000000000
1696851897.138942,3875295.000000000,1696851897.140613079,-0.027000000,0.014000000,0.019000000,0.001000000,0.000000000,0.000000000
1696851897.140857,3875296.000000000,1696851897.142599821,-0.026000000,0.012000000,0.022000000,0.001000000,0.000000000,0.000000000
1696851897.143613,3875297.000000000,1696851897.144593477,-0.025000000,0.011000000,0.023000000,0.001000000,0.000000000,0.000000000
1696851897.145206,3875298.000000000,1696851897.146597147,-0.025000000,0.010000000,0.027000000,0.001000000,0.000000000,0.000000000
1696851897.146811,3875299.000000000,1696851897.148600578,-0.024000000,0.010000000,0.029000000,0.001000000,0.000000000,0.000000000
1696851897.148939,3875300.000000000,1696851897.150653839,-0.024000000,0.009000000,0.032000000,0.001000000,0.000000000,0.000000000
1696851897.150891,3875301.000000000,1696851897.152599573,-0.023000000,0.009000000,0.034000000,0.001000000,0.000000000,0.000000000
