__time,/hsrb/joint_states/arm_flex_joint/effort,/hsrb/joint_states/arm_flex_joint/position,/hsrb/joint_states/arm_flex_joint/velocity,/hsrb/joint_states/arm_lift_joint/effort,/hsrb/joint_states/arm_lift_joint/position,/hsrb/joint_states/arm_lift_joint/velocity,/hsrb/joint_states/arm_roll_joint/effort,/hsrb/joint_states/arm_roll_joint/position,/hsrb/joint_states/arm_roll_joint/velocity,/hsrb/joint_states/base_l_drive_wheel_joint/effort,/hsrb/joint_states/base_l_drive_wheel_joint/position,/hsrb/joint_states/base_l_drive_wheel_joint/velocity,/hsrb/joint_states/base_r_drive_wheel_joint/effort,/hsrb/joint_states/base_r_drive_wheel_joint/position,/hsrb/joint_states/base_r_drive_wheel_joint/velocity,/hsrb/joint_states/base_roll_joint/effort,/hsrb/joint_states/base_roll_joint/position,/hsrb/joint_states/base_roll_joint/velocity,/hsrb/joint_states/hand_l_spring_proximal_joint/effort,/hsrb/joint_states/hand_l_spring_proximal_joint/position,/hsrb/joint_states/hand_l_spring_proximal_joint/velocity,/hsrb/joint_states/hand_motor_joint/effort,/hsrb/joint_states/hand_motor_joint/position,/hsrb/joint_states/hand_motor_joint/velocity,/hsrb/joint_states/hand_r_spring_proximal_joint/effort,/hsrb/joint_states/hand_r_spring_proximal_joint/position,/hsrb/joint_states/hand_r_spring_proximal_joint/velocity,/hsrb/joint_states/head_pan_joint/effort,/hsrb/joint_states/head_pan_joint/position,/hsrb/joint_states/head_pan_joint/velocity,/hsrb/joint_states/head_tilt_joint/effort,/hsrb/joint_states/head_tilt_joint/position,/hsrb/joint_states/head_tilt_joint/velocity,/hsrb/joint_states/header/seq,/hsrb/joint_states/header/stamp,/hsrb/joint_states/wrist_flex_joint/effort,/hsrb/joint_states/wrist_flex_joint/position,/hsrb/joint_states/wrist_flex_joint/velocity,/hsrb/joint_states/wrist_roll_joint/effort,/hsrb/joint_states/wrist_roll_joint/position,/hsrb/joint_states/wrist_roll_joint/velocity,/hsrb/pressure_sensor/data,/hsrb/wrist_wrench/compensated/header/seq,/hsrb/wrist_wrench/compensated/header/stamp,/hsrb/wrist_wrench/compensated/wrench/force/x,/hsrb/wrist_wrench/compensated/wrench/force/y,/hsrb/wrist_wrench/compensated/wrench/force/z,/hsrb/wrist_wrench/compensated/wrench/torque/x,/hsrb/wrist_wrench/compensated/wrench/torque/y,/hsrb/wrist_wrench/compensated/wrench/torque/z
1692021581.752491,,,,,,,,,,,,,,,,,,,,,,,,,,,,,,,,,,,,,,,,,,,125195.000000,1692021581.748518,0.000000,0.000000,0.000000,0.000000,0.000000,0.000000
1692021581.768264,,,,,,,,,,,,,,,,,,,,,,,,,,,,,,,,,,,,,,,,,,,125196.000000,1692021581.759617,0.000000,0.000000,0.000000,0.000000,0.000000,0.000000
1692021581.770463,2.992782,-0.256132,0.001153,46.277126,0.166479,0.000008,-0.088320,0.053772,0.000046,-0.008091,214.532576,-0.000653,0.032364,242.338016,0.002216,3.565920,6.555195,-0.004879,-1.858000,-0.038818,0.008999,0.023746,1.220818,0.000590,-1.611000,0.004182,0.001000,0.023920,0.000000,-0.000138,-1.327429,0.000002,-0.000038,63257.000000,1692021581.755713,0.783314,-1.315242,-0.000048,-0.346971,-0.013650,0.000048,,,,,,,,,
1692021581.786470,,,,,,,,,,,,,,,,,,,,,,,,,,,,,,,,,,,,,,,,,,,125197.000000,1692021581.768557,0.000000,0.000000,0.000000,0.000000,0.000000,0.000000
1692021581.787874,2.248631,-0.255748,-0.000054,45.695024,0.166479,0.000271,-0.193200,0.053772,0.000046,-0.010788,214.532576,-0.000653,0.024273,242.337984,-0.002573,3.676320,6.555205,-0.002293,-1.860000,-0.040409,0.008000,0.016376,1.221408,0.000590,-1.611000,0.003592,0.001000,0.003680,0.000000,-0.000138,-1.511429,0.000002,-0.000038,63258.000000,1692021581.775709,0.835886,-1.315242,-0.000048,-0.368000,-0.013269,0.000048,,,,,,,,,
1692021581.792310,,,,,,,,,,,,,,,,,,,,,,,,,,,,,,,,,,,,,,,,,,,125199.000000,1692021581.788621,0.000000,0.000000,0.000000,0.000000,0.000000,0.000000
1692021581.807299,,,,,,,,,,,,,,,,,,,,,,,,,,,,,,,,,,,,,,,,,,0.000000,,,,,,,,
1692021581.809864,,,,,,,,,,,,,,,,,,,,,,,,,,,,,,,,,,,,,,,,,,,125200.000000,1692021581.800454,0.000000,0.000000,0.000000,0.000000,0.000000,0.000000
1692021581.810569,1.714783,-0.255748,-0.000018,45.986075,0.166478,-0.000051,-0.209760,0.053772,0.000046,-0.010788,214.532576,-0.000653,-0.008091,242.337984,-0.002751,3.278880,6.555216,-0.002209,-1.863000,-0.043409,-0.007000,0.020063,1.221408,0.002954,-1.620000,-0.002409,0.001000,0.058880,0.000000,-0.000138,-1.334000,0.000002,-0.000038,63259.000000,1692021581.795710,0.835886,-1.315242,-0.000048,-0.299657,-0.013650,0.000048,,,,,,,,,
1692021581.821053,,,,,,,,,,,,,,,,,,,,,,,,,,,,,,,,,,,,,,,,,,,125201.000000,1692021581.808508,0.000000,0.000000,0.000000,0.000000,0.000000,0.000000
1692021581.845998,,,,,,,,,,,,,,,,,,,,,,,,,,,,,,,,,,,,,,,,,,,125202.000000,1692021581.818480,0.000000,0.000000,0.000000,0.000000,0.000000,0.000000
1692021581.847030,1.925087,-0.255748,-0.000872,45.695024,0.166478,-0.000008,-0.303600,0.053772,0.000046,-0.005394,214.532576,-0.000653,0.002697,242.338016,0.001266,3.797760,6.555216,0.004335,-1.868000,-0.046409,-0.016000,0.021700,1.221408,0.002954,-1.618000,-0.000409,-0.017000,0.003680,0.000000,-0.000138,-1.373429,0.000002,-0.000038,63260.000000,1692021581.825707,0.767543,-1.315242,-0.000048,-0.410057,-0.013650,0.000048,,,,,,,,,
1692021581.850559,,,,,,,,,,,,,,,,,,,,,,,,,,,,,,,,,,,,,,,,,,,125203.000000,1692021581.828550,0.000000,0.000000,0.000000,0.000000,0.000000,0.000000
1692021581.850568,,,,,,,,,,,,,,,,,,,,,,,,,,,,,,,,,,,,,,,,,,,125204.000000,1692021581.838568,0.000000,0.000000,0.000000,0.000000,0.000000,0.000000
1692021581.852613,,,,,,,,,,,,,,,,,,,,,,,,,,,,,,,,,,,,,,,,,,,125205.000000,1692021581.848532,0.000000,0.000000,0.000000,0.000000,0.000000,0.000000
1692021581.854818,1.682429,-0.256132,-0.000018,45.986075,0.166478,-0.000008,-0.253920,0.053772,0.000046,-0.010788,214.532576,-0.000653,0.026970,242.338016,0.001682,3.510720,6.555195,-0.007068,-1.866000,-0.043409,-0.018999,0.021700,1.221408,0.002954,-1.615000,0.003592,-0.007000,-0.007360,0.000000,-0.000138,-1.419429,0.000002,-0.000038,63261.000000,1692021581.845716,0.835886,-1.315242,-0.000048,-0.289143,-0.013650,0.000048,,,,,,,,,
1692021581.865686,,,,,,,,,,,,,,,,,,,,,,,,,,,,,,,,,,,,,,,,,,,125206.000000,1692021581.858683,0.000000,0.000000,0.000000,0.000000,0.000000,0.000000
1692021581.872952,,,,,,,,,,,,,,,,,,,,,,,,,,,,,,,,,,,,,,,,,,,125207.000000,1692021581.868373,0.000000,0.000000,0.000000,0.000000,0.000000,0.000000
1692021581.877642,2.054505,-0.256132,0.000381,45.986075,0.166478,-0.000008,-0.231840,0.053772,0.000046,-0.008091,214.532576,-0.000653,0.032364,242.338016,0.001900,3.499680,6.555205,-0.000094,-1.866000,-0.042228,-0.008000,0.021288,1.220227,0.000000,-1.611000,0.005772,0.007000,0.036800,0.000000,-0.000138,-1.373429,0.000002,-0.000038,63262.000000,1692021581.865706,0.778057,-1.315242,-0.000048,-0.336457,-0.013650,0.000048,,,,,,,,,
1692021581.888247,,,,,,,,,,,,,,,,,,,,,,,,,,,,,,,,,,,,,,,,,,,125208.000000,1692021581.878842,0.000000,0.000000,0.000000,0.000000,0.000000,0.000000
1692021581.901855,,,,,,,,,,,,,,,,,,,,,,,,,,,,,,,,,,,,,,,,,,,125209.000000,1692021581.888458,0.000000,0.000000,0.000000,0.000000,0.000000,0.000000
1692021581.901890,1.617720,-0.255748,-0.000060,46.277126,0.166478,-0.000008,-0.231840,0.053772,0.000046,-0.005394,214.532576,-0.000653,0.032364,242.338016,0.001781,3.665280,6.555205,-0.003958,-1.866000,-0.043227,-0.003000,0.021288,1.220227,-0.002363,-1.606000,0.007773,0.010999,-0.016560,0.000000,-0.000138,-1.281429,0.000002,-0.000038,63263.000000,1692021581.885716,0.920000,-1.315242,-0.000048,-0.310171,-0.013650,0.000048,,,,,,,,,
1692021581.916183,1.504480,-0.255748,-0.000060,46.277126,0.166478,-0.000008,-0.287040,0.053767,-0.000046,-0.008091,214.532576,-0.000653,0.008091,242.338016,0.001187,3.599040,6.555216,0.003225,-1.866000,-0.043227,-0.007000,0.021288,1.220227,-0.002363,-1.606000,0.007773,0.014999,0.025760,0.000000,-0.000138,-1.412857,0.000002,-0.000038,63264.000000,1692021581.895710,0.888457,-1.315242,-0.000048,-0.304914,-0.013269,0.000048,,,,,,,,,
1692021581.916206,,,,,,,,,,,,,,,,,,,,,,,,,,,,,,,,,,,,,,,,,,,125210.000000,1692021581.899526,0.000000,0.000000,0.000000,0.000000,0.000000,0.000000
1692021581.916214,,,,,,,,,,,,,,,,,,,,,,,,,,,,,,,,,,,,,,,,,,0.000000,,,,,,,,
1692021581.924562,,,,,,,,,,,,,,,,,,,,,,,,,,,,,,,,,,,,,,,,,,,125211.000000,1692021581.908539,0.000000,0.000000,0.000000,0.000000,0.000000,0.000000
1692021581.924576,,,,,,,,,,,,,,,,,,,,,,,,,,,,,,,,,,,,,,,,,,,125212.000000,1692021581.918550,0.000000,0.000000,0.000000,0.000000,0.000000,0.000000
1692021581.938132,,,,,,,,,,,,,,,,,,,,,,,,,,,,,,,,,,,,,,,,,,,125213.000000,1692021581.928625,0.000000,0.000000,0.000000,0.000000,0.000000,0.000000
1692021581.938833,0.679443,-0.255748,0.001054,46.568177,0.166478,-0.000008,-0.281520,0.053767,-0.000046,-0.008091,214.532576,-0.000653,0.029667,242.337984,-0.002731,3.565920,6.555216,0.004722,-1.868000,-0.045819,0.003000,0.020471,1.220818,-0.002363,-1.605000,0.008181,0.018999,0.009200,0.000000,-0.000138,-1.334000,0.000002,-0.000038,63265.000000,1692021581.925708,0.972571,-1.315242,-0.000048,-0.404800,-0.013650,0.000048,,,,,,,,,
1692021581.944808,,,,,,,,,,,,,,,,,,,,,,,,,,,,,,,,,,,,,,,,,,,125214.000000,1692021581.938377,0.000000,0.000000,0.000000,0.000000,0.000000,0.000000
1692021581.946447,1.002987,-0.255748,-0.000187,46.277126,0.166479,0.000039,-0.270480,0.053767,-0.000046,-0.008091,214.532576,-0.000653,0.026970,242.338016,0.001781,3.201600,6.555205,-0.002356,-1.866000,-0.044228,-0.017000,0.024975,1.220227,0.000590,-1.601000,0.009773,0.018999,0.018400,0.000000,-0.000138,-1.248571,0.000002,-0.000038,63266.000000,1692021581.935720,0.846400,-1.315242,-0.000048,-0.252343,-0.013650,0.000048,,,,,,,,,
1692021581.955029,,,,,,,,,,,,,,,,,,,,,,,,,,,,,,,,,,,,,,,,,,,125215.000000,1692021581.948940,0.000000,0.000000,0.000000,0.000000,0.000000,0.000000
1692021581.969114,,,,,,,,,,,,,,,,,,,,,,,,,,,,,,,,,,,,,,,,,,,125216.000000,1692021581.958774,0.000000,0.000000,0.000000,0.000000,0.000000,0.000000
1692021581.970348,2.313340,-0.256132,-0.000018,46.859228,0.166479,0.000365,-0.121440,0.053767,-0.000046,-0.008091,214.532576,-0.000653,-0.002697,242.337984,-0.002870,3.599040,6.555216,0.001466,-1.860000,-0.040455,-0.012000,0.014739,1.218454,-0.010636,-1.598000,0.010545,0.017000,-0.012880,0.000000,-0.000138,-1.248571,0.000002,-0.000038,63267.000000,1692021581.955713,0.914743,-1.315242,-0.000048,-0.215543,-0.013269,0.000048,,,,,,,,,
1692021581.980043,,,,,,,,,,,,,,,,,,,,,,,,,,,,,,,,,,,,,,,,,,,125217.000000,1692021581.968474,0.000000,0.000000,0.000000,0.000000,0.000000,0.000000
1692021581.988105,0.938278,-0.255748,-0.000018,46.277126,0.166479,0.000008,-0.187680,0.053767,-0.000046,-0.008091,214.532576,-0.000653,0.000000,242.338016,0.001148,3.543840,6.555216,0.000324,-1.860000,-0.040455,-0.002000,0.021700,1.218454,-0.010636,-1.595000,0.012545,0.026000,0.009200,0.000000,-0.000138,-1.353714,0.000002,-0.000038,63268.000000,1692021581.975714,0.941029,-1.315242,-0.000048,-0.257600,-0.013650,0.000048,,,,,,,,,
1692021581.989599,,,,,,,,,,,,,,,,,,,,,,,,,,,,,,,,,,,,,,,,,,,125218.000000,1692021581.978964,0.000000,0.000000,0.000000,0.000000,0.000000,0.000000
1692021581.997240,,,,,,,,,,,,,,,,,,,,,,,,,,,,,,,,,,,,,,,,,,,125219.000000,1692021581.988462,0.000000,0.000000,0.000000,0.000000,0.000000,0.000000
1692021582.007403,2.555998,-0.256132,0.001038,45.695024,0.166479,0.000289,-0.143520,0.053767,-0.000046,-0.008091,214.532576,-0.000653,0.005394,242.338016,0.001029,3.588000,6.555216,0.001151,-1.848000,-0.032045,0.003000,0.022109,1.219045,-0.007681,-1.593000,0.011954,0.024000,0.018400,0.000000,-0.000138,-1.307714,0.000002,-0.000038,63269.000000,1692021581.995715,0.856914,-1.315242,-0.000048,-0.320686,-0.013650,0.000048,,,,,,,,,
1692021582.013635,,,,,,,,,,,,,,,,,,,,,,,,,,,,,,,,,,,,,,,,,,,125220.000000,1692021582.000360,0.000000,0.000000,0.000000,0.000000,0.000000,0.000000
1692021582.020544,,,,,,,,,,,,,,,,,,,,,,,,,,,,,,,,,,,,,,,,,,,125221.000000,1692021582.008463,0.000000,0.000000,0.000000,0.000000,0.000000,0.000000
1692021582.020558,,,,,,,,,,,,,,,,,,,,,,,,,,,,,,,,,,,,,,,,,,0.000000,,,,,,,,
1692021582.023823,1.779492,-0.256132,0.000082,44.821870,0.166478,-0.000387,-0.309120,0.053767,-0.000046,-0.008091,214.532576,-0.000653,-0.008091,242.338016,0.001246,3.687360,6.555205,0.000827,-1.848000,-0.032636,0.039999,0.016376,1.219636,-0.007681,-1.593000,0.010364,0.026000,0.031280,0.000000,-0.000138,-1.340571,0.000002,-0.000038,63270.000000,1692021582.015710,0.851657,-1.315242,-0.000048,-0.331200,-0.013650,0.000048,,,,,,,,,
1692021582.025671,,,,,,,,,,,,,,,,,,,,,,,,,,,,,,,,,,,,,,,,,,,125222.000000,1692021582.018946,0.000000,0.000000,0.000000,0.000000,0.000000,0.000000
1692021582.035331,,,,,,,,,,,,,,,,,,,,,,,,,,,,,,,,,,,,,,,,,,,125223.000000,1692021582.028689,0.000000,0.000000,0.000000,0.000000,0.000000,0.000000
1692021582.043281,,,,,,,,,,,,,,,,,,,,,,,,,,,,,,,,,,,,,,,,,,,125224.000000,1692021582.038477,0.000000,0.000000,0.000000,0.000000,0.000000,0.000000
1692021582.043295,2.733947,-0.256132,0.000026,45.695024,0.166478,-0.000008,-0.060720,0.053767,-0.000046,-0.008091,214.532576,-0.000653,0.026970,242.337984,-0.002573,3.190560,6.555205,-0.007696,-1.850000,-0.035636,0.032000,0.021288,1.219636,-0.004727,-1.595000,0.009363,0.018999,-0.003680,0.000000,-0.000138,-1.393143,0.000002,-0.000038,63271.000000,1692021582.035711,0.830629,-1.315242,-0.000048,-0.262857,-0.013650,0.000048,,,,,,,,,
1692021582.053475,,,,,,,,,,,,,,,,,,,,,,,,,,,,,,,,,,,,,,,,,,,125225.000000,1692021582.048588,0.000000,0.000000,0.000000,0.000000,0.000000,0.000000
1692021582.065793,,,,,,,,,,,,,,,,,,,,,,,,,,,,,,,,,,,,,,,,,,,125226.000000,1692021582.058689,0.000000,0.000000,0.000000,0.000000,0.000000,0.000000
1692021582.079175,,,,,,,,,,,,,,,,,,,,,,,,,,,,,,,,,,,,,,,,,,,125227.000000,1692021582.069264,0.000000,0.000000,0.000000,0.000000,0.000000,0.000000
1692021582.089025,3.186909,-0.256132,0.000028,46.277126,0.166478,-0.000008,-0.176640,0.053767,-0.000046,-0.008091,214.532576,-0.000653,0.010788,242.338016,0.001563,3.621120,6.555205,-0.000094,-1.853000,-0.038818,0.009999,0.017197,1.220818,-0.001772,-1.597000,0.008181,0.008999,0.046000,0.000000,-0.000138,-1.458857,0.000002,-0.000038,63272.000000,1692021582.065716,0.883200,-1.315242,-0.000048,-0.331200,-0.013650,0.000048,,,,,,,,,
1692021582.092713,,,,,,,,,,,,,,,,,,,,,,,,,,,,,,,,,,,,,,,,,,,125228.000000,1692021582.078679,0.000000,0.000000,0.000000,0.000000,0.000000,0.000000
1692021582.096921,,,,,,,,,,,,,,,,,,,,,,,,,,,,,,,,,,,,,,,,,,,125229.000000,1692021582.088443,0.000000,0.000000,0.000000,0.000000,0.000000,0.000000
1692021582.102378,2.394226,-0.256132,0.000208,45.403973,0.166478,-0.000008,-0.093840,0.053767,-0.000046,-0.005394,214.532576,-0.000653,0.005394,242.338016,0.001207,3.665280,6.555216,0.002199,-1.848000,-0.035819,0.009999,0.022929,1.220818,0.001181,-1.597000,0.008181,0.008999,0.007360,0.000000,-0.000138,-1.353714,0.000002,-0.000038,63273.000000,1692021582.075716,0.877943,-1.315242,-0.000048,-0.273371,-0.013269,0.000048,,,,,,,,,
1692021582.104498,,,,,,,,,,,,,,,,,,,,,,,,,,,,,,,,,,,,,,,,,,,125230.000000,1692021582.098693,0.000000,0.000000,0.000000,0.000000,0.000000,0.000000
1692021582.109214,3.704579,-0.256132,0.000428,46.277126,0.166478,-0.000008,-0.027600,0.053767,-0.000046,-0.005394,214.532576,-0.000653,0.029667,242.338016,0.002315,3.698400,6.555205,-0.001507,-1.856000,-0.041227,0.003000,0.025795,1.220227,0.001181,-1.597000,0.008772,0.008999,0.058880,0.000000,-0.000138,-1.432571,0.000002,-0.000038,63274.000000,1692021582.095710,0.772800,-1.315242,-0.000048,-0.289143,-0.013269,0.000048,,,,,,,,,
1692021582.110872,,,,,,,,,,,,,,,,,,,,,,,,,,,,,,,,,,,,,,,,,,,125231.000000,1692021582.108491,0.000000,0.000000,0.000000,0.000000,0.000000,0.000000
1692021582.125766,,,,,,,,,,,,,,,,,,,,,,,,,,,,,,,,,,,,,,,,,,,125232.000000,1692021582.118571,0.000000,0.000000,0.000000,0.000000,0.000000,0.000000
1692021582.128634,,,,,,,,,,,,,,,,,,,,,,,,,,,,,,,,,,,,,,,,,,0.000000,,,,,,,,
1692021582.137905,,,,,,,,,,,,,,,,,,,,,,,,,,,,,,,,,,,,,,,,,,,125233.000000,1692021582.128593,0.000000,0.000000,0.000000,0.000000,0.000000,0.000000
1692021582.138780,2.733947,-0.255748,-0.000412,46.568177,0.166478,-0.000008,-0.099360,0.053767,-0.000046,-0.008091,214.532576,-0.000653,0.013485,242.338016,0.002216,3.532800,6.555205,-0.006335,-1.855000,-0.039408,-0.014999,0.015968,1.221408,-0.001772,-1.600000,0.006592,0.004000,0.049680,0.000000,-0.000138,-1.327429,0.000002,-0.000038,63275.000000,1692021582.125709,0.909486,-1.315242,-0.000048,-0.389029,-0.013650,0.000048,,,,,,,,,
1692021582.146320,2.200100,-0.255748,-0.001470,46.859228,0.166478,-0.000008,-0.038640,0.053767,-0.000046,-0.005394,214.532576,-0.000653,0.032364,242.338016,0.002414,3.687360,6.555205,0.002544,-1.858000,-0.042408,0.009999,0.023746,1.221408,0.004136,-1.603000,0.003592,0.004000,0.023920,0.000000,-0.000138,-1.320857,0.000002,-0.000038,63276.000000,1692021582.135711,0.920000,-1.315242,-0.000048,-0.278629,-0.013269,0.000048,,,,,,,,,
1692021582.146340,,,,,,,,,,,,,,,,,,,,,,,,,,,,,,,,,,,,,,,,,,,125234.000000,1692021582.138979,0.000000,0.000000,0.000000,0.000000,0.000000,0.000000
1692021582.154037,,,,,,,,,,,,,,,,,,,,,,,,,,,,,,,,,,,,,,,,,,,125235.000000,1692021582.148507,0.000000,0.000000,0.000000,0.000000,0.000000,0.000000
1692021582.164965,,,,,,,,,,,,,,,,,,,,,,,,,,,,,,,,,,,,,,,,,,,125236.000000,1692021582.158447,0.000000,0.000000,0.000000,0.000000,0.000000,0.000000
1692021582.180268,,,,,,,,,,,,,,,,,,,,,,,,,,,,,,,,,,,,,,,,,,,125237.000000,1692021582.168687,0.000000,0.000000,0.000000,0.000000,0.000000,0.000000
1692021582.180285,2.410403,-0.255748,-0.000018,46.859228,0.166478,-0.000008,-0.176640,0.053767,-0.000046,-0.008091,214.532576,-0.000653,-0.005394,242.338016,0.001603,3.389280,6.555195,-0.000094,-1.858000,-0.041227,-0.004000,0.020471,1.220227,-0.001772,-1.603000,0.003772,-0.009999,0.020240,0.000000,-0.000138,-1.261714,0.000006,0.000038,63277.000000,1692021582.165785,0.904229,-1.315242,-0.000048,-0.278629,-0.013269,0.000048,,,,,,,,,
1692021582.193070,1.730961,-0.255748,0.000169,47.441330,0.166478,-0.000008,-0.060720,0.053767,-0.000046,-0.005394,214.532576,-0.000653,-0.013485,242.338016,0.001919,3.466560,6.555195,-0.008241,-1.858000,-0.041227,-0.004000,0.021288,1.220227,-0.001772,-1.605000,0.002773,-0.014000,0.025760,0.000000,-0.000138,-1.393143,0.000006,0.000038,63278.000000,1692021582.175711,0.946286,-1.315242,-0.000048,-0.236571,-0.013650,0.000048,,,,,,,,,
1692021582.193148,,,,,,,,,,,,,,,,,,,,,,,,,,,,,,,,,,,,,,,,,,,125238.000000,1692021582.179917,0.000000,0.000000,0.000000,0.000000,0.000000,0.000000
1692021582.203091,,,,,,,,,,,,,,,,,,,,,,,,,,,,,,,,,,,,,,,,,,,125239.000000,1692021582.188572,0.000000,0.000000,0.000000,0.000000,0.000000,0.000000
1692021582.204923,1.132404,-0.255748,-0.000163,47.441330,0.166478,-0.000008,-0.110400,0.053767,-0.000046,-0.008091,214.532576,-0.000653,-0.013485,242.338016,0.001840,3.488640,6.555205,-0.002953,-1.863000,-0.045228,-0.008000,0.022517,1.220227,-0.001772,-1.603000,0.003772,-0.013000,0.040480,0.000000,-0.000138,-1.281429,0.000006,0.000038,63279.000000,1692021582.195711,0.893714,-1.315242,-0.000048,-0.257600,-0.013650,0.000048,,,,,,,,,
1692021582.213629,,,,,,,,,,,,,,,,,,,,,,,,,,,,,,,,,,,,,,,,,,,125240.000000,1692021582.198566,0.000000,0.000000,0.000000,0.000000,0.000000,0.000000
1692021582.222153,,,,,,,,,,,,,,,,,,,,,,,,,,,,,,,,,,,,,,,,,,,125241.000000,1692021582.208538,0.000000,0.000000,0.000000,0.000000,0.000000,0.000000
1692021582.223268,,,,,,,,,,,,,,,,,,,,,,,,,,,,,,,,,,,,,,,,,,,125242.000000,1692021582.218449,0.000000,0.000000,0.000000,0.000000,0.000000,0.000000
1692021582.236386,,,,,,,,,,,,,,,,,,,,,,,,,,,,,,,,,,,,,,,,,,,125243.000000,1692021582.228801,0.000000,0.000000,0.000000,0.000000,0.000000,0.000000
1692021582.238751,2.167745,-0.255748,-0.000018,47.441330,0.166478,-0.000008,-0.044160,0.053767,-0.000046,-0.008091,214.532576,-0.000653,0.029667,242.338016,0.001524,3.521760,6.555205,-0.001801,-1.861000,-0.042045,-0.008999,0.020063,1.219045,-0.007090,-1.603000,0.005955,-0.003000,0.018400,0.000000,-0.000138,-1.353714,0.000006,0.000038,63280.000000,1692021582.225707,0.930514,-1.315242,-0.000048,-0.310171,-0.013650,0.000048,,,,,,,,,
1692021582.241323,,,,,,,,,,,,,,,,,,,,,,,,,,,,,,,,,,,,,,,,,,0.000000,,,,,,,,
1692021582.245163,,,,,,,,,,,,,,,,,,,,,,,,,,,,,,,,,,,,,,,,,,,125244.000000,1692021582.238692,0.000000,0.000000,0.000000,0.000000,0.000000,0.000000
1692021582.248049,1.472125,-0.255748,-0.000018,48.023433,0.166478,-0.000008,-0.132480,0.053767,-0.000046,-0.008091,214.532576,-0.000653,0.026970,242.337984,-0.002474,3.720480,6.555205,0.002419,-1.861000,-0.042045,-0.008999,0.016376,1.219045,-0.007090,-1.603000,0.005955,-0.007000,0.031280,0.000000,-0.000138,-1.445714,0.000006,0.000038,63281.000000,1692021582.235710,0.856914,-1.315242,-0.000048,-0.257600,-0.013269,0.000048,,,,,,,,,
1692021582.254948,,,,,,,,,,,,,,,,,,,,,,,,,,,,,,,,,,,,,,,,,,,125245.000000,1692021582.248470,0.000000,0.000000,0.000000,0.000000,0.000000,0.000000
1692021582.272554,,,,,,,,,,,,,,,,,,,,,,,,,,,,,,,,,,,,,,,,,,,125246.000000,1692021582.258546,0.000000,0.000000,0.000000,0.000000,0.000000,0.000000
1692021582.273618,2.555998,-0.255748,-0.000426,47.150279,0.166479,0.000423,-0.115920,0.053767,-0.000046,-0.008091,214.532576,-0.000653,-0.010788,242.338016,0.001860,3.632160,6.555195,-0.002911,-1.860000,-0.042045,-0.008999,0.021288,1.219045,-0.004136,-1.600000,0.007954,0.003000,0.092000,0.000000,-0.000138,-1.399714,0.000006,0.000038,63282.000000,1692021582.255713,0.830629,-1.315242,-0.000048,-0.294400,-0.013269,0.000048,,,,,,,,,
1692021582.281486,,,,,,,,,,,,,,,,,,,,,,,,,,,,,,,,,,,,,,,,,,,125247.000000,1692021582.268526,0.000000,0.000000,0.000000,0.000000,0.000000,0.000000
1692021582.287519,,,,,,,,,,,,,,,,,,,,,,,,,,,,,,,,,,,,,,,,,,,125248.000000,1692021582.278512,0.000000,0.000000,0.000000,0.000000,0.000000,0.000000
1692021582.297784,3.542807,-0.256132,0.000086,46.277126,0.166479,0.000279,-0.149040,0.053767,-0.000046,-0.005394,214.532576,-0.000653,0.005394,242.338016,0.001108,3.588000,6.555195,-0.004419,-1.868000,-0.047045,-0.017999,0.023746,1.219045,-0.006499,-1.598000,0.010955,0.003000,0.020240,0.000000,-0.000138,-1.412857,0.000006,0.000038,63283.000000,1692021582.285710,0.967314,-1.315242,-0.000048,-0.210286,-0.013650,0.000048,,,,,,,,,
1692021582.297808,,,,,,,,,,,,,,,,,,,,,,,,,,,,,,,,,,,,,,,,,,,125249.000000,1692021582.288482,0.000000,0.000000,0.000000,0.000000,0.000000,0.000000
1692021582.307730,,,,,,,,,,,,,,,,,,,,,,,,,,,,,,,,,,,,,,,,,,,125250.000000,1692021582.298491,0.000000,0.000000,0.000000,0.000000,0.000000,0.000000
1692021582.316658,2.620707,-0.255748,-0.000064,45.112921,0.166478,-0.000297,0.000000,0.053767,-0.000046,-0.008091,214.532576,-0.000653,0.002697,242.338016,0.002117,3.786720,6.555195,-0.005194,-1.855000,-0.037045,-0.026000,0.022929,1.219045,-0.006499,-1.595000,0.010955,0.017000,0.040480,0.000000,-0.000138,-1.458857,0.000006,0.000038,63284.000000,1692021582.305720,0.925257,-1.315242,-0.000048,-0.289143,-0.013650,0.000048,,,,,,,,,
1692021582.317108,,,,,,,,,,,,,,,,,,,,,,,,,,,,,,,,,,,,,,,,,,,125251.000000,1692021582.309490,0.000000,0.000000,0.000000,0.000000,0.000000,0.000000
1692021582.328761,2.054505,-0.255748,-0.000034,46.568177,0.166479,0.000402,-0.143520,0.053767,-0.000046,-0.008091,214.532576,-0.000653,0.000000,242.338016,0.001286,3.808800,6.555205,0.001633,-1.856000,-0.038046,0.019999,0.022929,1.219045,-0.006499,-1.597000,0.009954,0.017000,0.020240,0.000000,-0.000138,-1.426000,0.000006,0.000038,63285.000000,1692021582.315710,0.972571,-1.315242,-0.000048,-0.278629,-0.013650,0.000048,,,,,,,,,
1692021582.328859,,,,,,,,,,,,,,,,,,,,,,,,,,,,,,,,,,,,,,,,,,,125252.000000,1692021582.320097,0.000000,0.000000,0.000000,0.000000,0.000000,0.000000
1692021582.348232,,,,,,,,,,,,,,,,,,,,,,,,,,,,,,,,,,,,,,,,,,,125253.000000,1692021582.328546,0.000000,0.000000,0.000000,0.000000,0.000000,0.000000
1692021582.353092,1.164759,-0.255748,-0.000018,45.986075,0.166479,0.000008,-0.022080,0.053767,-0.000046,-0.008091,214.532576,-0.000653,0.000000,242.337984,-0.003780,3.764640,6.555195,-0.001696,-1.855000,-0.037636,0.014000,0.018834,1.219636,-0.003545,-1.597000,0.009363,0.012000,0.031280,0.000000,-0.000138,-1.432571,0.000006,0.000038,63286.000000,1692021582.335712,0.977829,-1.315242,-0.000048,-0.257600,-0.013650,0.000048,,,,,,,,,
1692021582.353130,,,,,,,,,,,,,,,,,,,,,,,,,,,,,,,,,,,,,,,,,,0.000000,,,,,,,,
1692021582.353530,,,,,,,,,,,,,,,,,,,,,,,,,,,,,,,,,,,,,,,,,,,125254.000000,1692021582.338569,0.000000,0.000000,0.000000,0.000000,0.000000,0.000000
1692021582.353540,,,,,,,,,,,,,,,,,,,,,,,,,,,,,,,,,,,,,,,,,,,125255.000000,1692021582.348537,0.000000,0.000000,0.000000,0.000000,0.000000,0.000000
1692021582.366206,,,,,,,,,,,,,,,,,,,,,,,,,,,,,,,,,,,,,,,,,,,125256.000000,1692021582.358562,0.000000,0.000000,0.000000,0.000000,0.000000,0.000000
1692021582.374420,2.733947,-0.256132,0.000038,44.821870,0.166479,0.000008,-0.154560,0.053772,0.000046,-0.002697,214.532576,-0.000653,0.005394,242.338016,0.001484,3.709440,6.555205,0.002241,-1.855000,-0.039228,0.013000,0.022929,1.220227,-0.000590,-1.597000,0.008772,0.012000,-0.007360,0.000000,-0.000138,-1.439143,0.000006,0.000038,63287.000000,1692021582.355714,0.914743,-1.315242,-0.000048,-0.257600,-0.013650,0.000048,,,,,,,,,
1692021582.381912,,,,,,,,,,,,,,,,,,,,,,,,,,,,,,,,,,,,,,,,,,,125257.000000,1692021582.371280,0.000000,0.000000,0.000000,0.000000,0.000000,0.000000
1692021582.398268,,,,,,,,,,,,,,,,,,,,,,,,,,,,,,,,,,,,,,,,,,,125258.000000,1692021582.378656,0.000000,0.000000,0.000000,0.000000,0.000000,0.000000
1692021582.403973,1.488303,-0.255748,-0.000054,44.821870,0.166479,0.000008,-0.060720,0.053772,0.000046,-0.008091,214.532576,-0.000653,0.013485,242.337984,-0.003463,3.455520,6.555195,-0.000094,-1.848000,-0.034637,0.030999,0.021700,1.219636,-0.002954,-1.592000,0.011363,0.016000,0.007360,0.000000,-0.000138,-1.360286,0.000002,-0.000103,63288.000000,1692021582.385705,0.883200,-1.315242,-0.000048,-0.315429,-0.013650,0.000048,,,,,,,,,
1692021582.408300,,,,,,,,,,,,,,,,,,,,,,,,,,,,,,,,,,,,,,,,,,,125259.000000,1692021582.388791,0.000000,0.000000,0.000000,0.000000,0.000000,0.000000
1692021582.410047,,,,,,,,,,,,,,,,,,,,,,,,,,,,,,,,,,,,,,,,,,,125260.000000,1692021582.399248,0.000000,0.000000,0.000000,0.000000,0.000000,0.000000
1692021582.415218,2.491289,-0.256132,0.001310,43.948717,0.166478,-0.000245,0.093840,0.053772,0.000046,-0.008091,214.532576,-0.000653,0.029667,242.338016,0.001840,3.565920,6.555195,-0.000094,-1.847000,-0.035228,0.024000,0.018422,1.220227,-0.002954,-1.588000,0.012773,0.014999,0.044160,0.000000,-0.000138,-1.320857,0.000002,-0.000038,63289.000000,1692021582.405708,0.998857,-1.315242,-0.000048,-0.299657,-0.013650,0.000048,,,,,,,,,
1692021582.417429,,,,,,,,,,,,,,,,,,,,,,,,,,,,,,,,,,,,,,,,,,,125261.000000,1692021582.408542,0.000000,0.000000,0.000000,0.000000,0.000000,0.000000
1692021582.429545,,,,,,,,,,,,,,,,,,,,,,,,,,,,,,,,,,,,,,,,,,,125262.000000,1692021582.418543,0.000000,0.000000,0.000000,0.000000,0.000000,0.000000
1692021582.438833,1.747138,-0.256132,0.000345,44.239768,0.166478,-0.000008,-0.038640,0.053772,0.000046,-0.008091,214.532576,-0.000653,0.016182,242.337984,-0.002968,3.488640,6.555205,0.000188,-1.853000,-0.040819,0.020999,0.022109,1.220818,0.002363,-1.590000,0.009182,0.028000,0.012880,0.000000,-0.000138,-1.327429,0.000002,-0.000038,63290.000000,1692021582.425706,0.877943,-1.315242,-0.000048,-0.278629,-0.013650,0.000048,,,,,,,,,
1692021582.441101,,,,,,,,,,,,,,,,,,,,,,,,,,,,,,,,,,,,,,,,,,,125263.000000,1692021582.428484,0.000000,0.000000,0.000000,0.000000,0.000000,0.000000
1692021582.454354,,,,,,,,,,,,,,,,,,,,,,,,,,,,,,,,,,,,,,,,,,,125264.000000,1692021582.441479,0.000000,0.000000,0.000000,0.000000,0.000000,0.000000
1692021582.454376,,,,,,,,,,,,,,,,,,,,,,,,,,,,,,,,,,,,,,,,,,0.000000,,,,,,,,
1692021582.456893,1.504480,-0.255748,-0.000018,44.239768,0.166478,-0.000008,-0.082800,0.053772,0.000046,-0.008091,214.532576,-0.000653,0.002697,242.337984,-0.003364,3.499680,6.555205,0.000942,-1.861000,-0.047228,0.000000,0.024154,1.220227,0.002363,-1.590000,0.008772,0.007000,0.012880,0.000000,-0.000138,-1.439143,0.000002,-0.000038,63291.000000,1692021582.445723,0.930514,-1.315242,-0.000048,-0.488914,-0.013269,0.000048,,,,,,,,,
1692021582.464520,,,,,,,,,,,,,,,,,,,,,,,,,,,,,,,,,,,,,,,,,,,125266.000000,1692021582.458521,0.000000,0.000000,0.000000,0.000000,0.000000,0.000000
1692021582.477389,,,,,,,,,,,,,,,,,,,,,,,,,,,,,,,,,,,,,,,,,,,125267.000000,1692021582.469292,0.000000,0.000000,0.000000,0.000000,0.000000,0.000000
1692021582.480771,2.167745,-0.255748,-0.000064,45.403973,0.166478,-0.000008,-0.044160,0.053772,0.000046,-0.008091,214.532576,-0.000653,0.002697,242.337984,-0.003463,3.444480,6.555195,-0.000094,-1.860000,-0.044046,-0.037000,0.022929,1.219045,-0.002954,-1.593000,0.006954,0.007000,0.029440,0.000000,-0.000138,-1.334000,0.000002,-0.000038,63292.000000,1692021582.465712,0.998857,-1.315242,-0.000048,-0.294400,-0.013650,0.000048,,,,,,,,,
1692021582.494172,,,,,,,,,,,,,,,,,,,,,,,,,,,,,,,,,,,,,,,,,,,125268.000000,1692021582.478786,0.000000,0.000000,0.000000,0.000000,0.000000,0.000000
1692021582.496716,1.100050,-0.255748,-0.001324,44.821870,0.166478,-0.000008,-0.104880,0.053772,0.000046,-0.010788,214.532576,-0.000653,0.010788,242.338016,0.001524,3.665280,6.555205,0.002450,-1.863000,-0.045045,-0.020999,0.016785,1.219045,-0.005318,-1.595000,0.006954,-0.008000,0.042320,0.000000,-0.000138,-1.432571,0.000002,-0.000038,63293.000000,1692021582.475710,0.904229,-1.315242,-0.000048,-0.247086,-0.013650,0.000048,,,,,,,,,
1692021582.502572,,,,,,,,,,,,,,,,,,,,,,,,,,,,,,,,,,,,,,,,,,,125270.000000,1692021582.498436,0.000000,0.000000,0.000000,0.000000,0.000000,0.000000
1692021582.517858,,,,,,,,,,,,,,,,,,,,,,,,,,,,,,,,,,,,,,,,,,,125271.000000,1692021582.508456,0.000000,0.000000,0.000000,0.000000,0.000000,0.000000
1692021582.517915,2.750124,-0.256132,0.000042,45.695024,0.166478,-0.000008,-0.115920,0.053772,0.000046,-0.008091,214.532576,-0.000653,0.021576,242.337984,-0.001900,3.687360,6.555205,0.001099,-1.863000,-0.043637,-0.008000,0.019242,1.219636,-0.005318,-1.597000,0.006363,-0.008000,0.012880,0.000000,-0.000138,-1.399714,0.000002,-0.000038,63294.000000,1692021582.505708,0.914743,-1.315242,-0.000048,-0.336457,-0.013650,0.000048,,,,,,,,,
1692021582.529811,3.138377,-0.256132,0.000042,45.695024,0.166478,-0.000008,-0.060720,0.053772,0.000046,-0.005394,214.532576,-0.000653,-0.005394,242.337984,-0.002988,3.797760,6.555205,0.002230,-1.863000,-0.043818,-0.012000,0.015968,1.220818,-0.002363,-1.598000,0.005181,-0.008000,0.047840,0.000000,-0.000138,-1.380000,0.000002,-0.000038,63295.000000,1692021582.515715,0.867429,-1.315242,-0.000048,-0.294400,-0.013650,0.000048,,,,,,,,,
1692021582.529830,,,,,,,,,,,,,,,,,,,,,,,,,,,,,,,,,,,,,,,,,,,125272.000000,1692021582.518606,0.000000,0.000000,0.000000,0.000000,0.000000,0.000000
1692021582.542005,,,,,,,,,,,,,,,,,,,,,,,,,,,,,,,,,,,,,,,,,,,125273.000000,1692021582.528534,0.000000,0.000000,0.000000,0.000000,0.000000,0.000000
1692021582.551859,,,,,,,,,,,,,,,,,,,,,,,,,,,,,,,,,,,,,,,,,,,125274.000000,1692021582.538995,0.000000,0.000000,0.000000,0.000000,0.000000,0.000000
1692021582.551888,1.051518,-0.255748,-0.001470,45.695024,0.166478,-0.000008,-0.149040,0.053772,0.000046,-0.010788,214.532576,-0.000653,0.008091,242.338016,0.001286,3.665280,6.555205,-0.000942,-1.866000,-0.044408,-0.010999,0.019242,1.221408,0.003545,-1.595000,0.008592,-0.008000,0.009200,0.000000,-0.000138,-1.320857,0.000002,-0.000038,63296.000000,1692021582.535710,0.993600,-1.315242,-0.000048,-0.331200,-0.013650,0.000048,,,,,,,,,
1692021582.557788,,,,,,,,,,,,,,,,,,,,,,,,,,,,,,,,,,,,,,,,,,,125275.000000,1692021582.548790,0.000000,0.000000,0.000000,0.000000,0.000000,0.000000
1692021582.564163,,,,,,,,,,,,,,,,,,,,,,,,,,,,,,,,,,,,,,,,,,0.000000,,,,,,,,
1692021582.569394,,,,,,,,,,,,,,,,,,,,,,,,,,,,,,,,,,,,,,,,,,,125276.000000,1692021582.559537,0.000000,0.000000,0.000000,0.000000,0.000000,0.000000
1692021582.579062,3.089846,-0.256132,0.000159,45.695024,0.166478,-0.000008,-0.237360,0.053772,0.000046,-0.008091,214.532576,-0.000653,0.035061,242.338016,0.002058,3.554880,6.555205,-0.006565,-1.860000,-0.040636,0.004000,0.025383,1.219636,0.002954,-1.595000,0.008364,0.012000,0.051520,0.000000,-0.000138,-1.380000,0.000002,-0.000038,63297.000000,1692021582.565709,0.898971,-1.315242,-0.000048,-0.247086,-0.013650,0.000048,,,,,,,,,
1692021582.582476,,,,,,,,,,,,,,,,,,,,,,,,,,,,,,,,,,,,,,,,,,,125277.000000,1692021582.568972,0.000000,0.000000,0.000000,0.000000,0.000000,0.000000
1692021582.588114,1.876556,-0.255748,0.000018,45.695024,0.166478,-0.000008,-0.104880,0.053772,0.000046,-0.008091,214.532576,-0.000653,0.029667,242.338016,0.001781,3.576960,6.555216,0.001277,-1.860000,-0.040636,0.004000,0.019242,1.219636,-0.002954,-1.597000,0.007363,0.002000,0.046000,0.000000,-0.000138,-1.366857,0.000002,-0.000038,63298.000000,1692021582.575715,0.914743,-1.315242,-0.000048,-0.294400,-0.013269,0.000048,,,,,,,,,
1692021582.593765,,,,,,,,,,,,,,,,,,,,,,,,,,,,,,,,,,,,,,,,,,,125278.000000,1692021582.580186,0.000000,0.000000,0.000000,0.000000,0.000000,0.000000
1692021582.604213,,,,,,,,,,,,,,,,,,,,,,,,,,,,,,,,,,,,,,,,,,,125279.000000,1692021582.588610,0.000000,0.000000,0.000000,0.000000,0.000000,0.000000
1692021582.606148,2.944251,-0.256132,0.000187,45.986075,0.166478,-0.000008,-0.055200,0.053772,0.000046,-0.008091,214.532576,-0.000653,-0.018879,242.338016,0.002771,3.643200,6.555205,-0.000094,-1.863000,-0.042819,-0.001000,0.021288,1.220818,0.000000,-1.593000,0.009182,-0.007000,0.027600,0.000000,-0.000138,-1.360286,0.000002,-0.000038,63299.000000,1692021582.595711,0.935771,-1.315242,-0.000048,-0.352229,-0.013650,0.000048,,,,,,,,,
1692021582.614118,,,,,,,,,,,,,,,,,,,,,,,,,,,,,,,,,,,,,,,,,,,125280.000000,1692021582.598613,0.000000,0.000000,0.000000,0.000000,0.000000,0.000000
1692021582.620398,,,,,,,,,,,,,,,,,,,,,,,,,,,,,,,,,,,,,,,,,,,125281.000000,1692021582.608726,0.000000,0.000000,0.000000,0.000000,0.000000,0.000000
1692021582.625747,2.701593,-0.256132,0.000208,46.277126,0.166478,-0.000008,-0.099360,0.053772,0.000046,-0.005394,214.532576,-0.000653,0.008091,242.338016,0.000989,3.720480,6.555216,0.002419,-1.855000,-0.037408,0.008999,0.023337,1.221408,0.004727,-1.595000,0.008592,0.013000,-0.009200,0.000000,-0.000138,-1.393143,0.000002,-0.000038,63300.000000,1692021582.615711,0.914743,-1.315242,-0.000048,-0.278629,-0.013650,0.000048,,,,,,,,,
1692021582.633190,,,,,,,,,,,,,,,,,,,,,,,,,,,,,,,,,,,,,,,,,,,125282.000000,1692021582.618788,0.000000,0.000000,0.000000,0.000000,0.000000,0.000000
1692021582.634152,,,,,,,,,,,,,,,,,,,,,,,,,,,,,,,,,,,,,,,,,,,125283.000000,1692021582.628937,0.000000,0.000000,0.000000,0.000000,0.000000,0.000000
1692021582.643966,,,,,,,,,,,,,,,,,,,,,,,,,,,,,,,,,,,,,,,,,,,125284.000000,1692021582.638491,0.000000,0.000000,0.000000,0.000000,0.000000,0.000000
1692021582.647976,2.976605,-0.255748,-0.000169,46.568177,0.166478,-0.000008,-0.143520,0.053772,0.000046,-0.008091,214.532576,-0.000653,0.010788,242.337984,-0.003305,3.819840,6.555205,0.002764,-1.853000,-0.036227,0.027000,0.021288,1.220227,-0.001181,-1.593000,0.009773,0.013000,0.066240,0.000000,-0.000138,-1.334000,0.000002,-0.000038,63301.000000,1692021582.635711,0.893714,-1.315242,-0.000048,-0.315429,-0.013269,0.000048,,,,,,,,,
1692021582.659428,,,,,,,,,,,,,,,,,,,,,,,,,,,,,,,,,,,,,,,,,,,125285.000000,1692021582.648486,0.000000,0.000000,0.000000,0.000000,0.000000,0.000000
1692021582.670796,1.763315,-0.255748,-0.000363,46.568177,0.166478,-0.000008,-0.071760,0.053772,0.000046,-0.008091,214.532576,-0.000653,0.008091,242.337984,-0.003166,3.875040,6.555205,0.001403,-1.853000,-0.038227,0.019999,0.019242,1.220227,-0.001181,-1.590000,0.010772,0.008000,0.007360,0.000000,-0.000138,-1.445714,0.000002,-0.000038,63302.000000,1692021582.655711,0.920000,-1.315242,-0.000048,-0.362743,-0.013269,0.000048,,,,,,,,,
1692021582.674495,,,,,,,,,,,,,,,,,,,,,,,,,,,,,,,,,,,,,,,,,,,125286.000000,1692021582.658575,0.000000,0.000000,0.000000,0.000000,0.000000,0.000000
1692021582.674515,,,,,,,,,,,,,,,,,,,,,,,,,,,,,,,,,,,,,,,,,,0.000000,,,,,,,,
1692021582.689791,,,,,,,,,,,,,,,,,,,,,,,,,,,,,,,,,,,,,,,,,,,125287.000000,1692021582.668935,0.000000,0.000000,0.000000,0.000000,0.000000,0.000000
1692021582.698174,1.423594,-0.255748,0.000163,46.859228,0.166479,0.000008,-0.077280,0.053772,0.000046,-0.005394,214.532576,-0.000653,0.005394,242.338016,0.001919,3.588000,6.555205,-0.000094,-1.847000,-0.034228,0.014999,0.022929,1.220227,-0.001181,-1.590000,0.010772,0.017000,0.031280,0.000000,-0.000138,-1.458857,0.000002,-0.000038,63303.000000,1692021582.675715,0.956800,-1.315242,-0.000048,-0.415314,-0.013269,0.000048,,,,,,,,,
1692021582.698213,,,,,,,,,,,,,,,,,,,,,,,,,,,,,,,,,,,,,,,,,,,125289.000000,1692021582.688789,0.000000,0.000000,0.000000,0.000000,0.000000,0.000000
1692021582.704006,,,,,,,,,,,,,,,,,,,,,,,,,,,,,,,,,,,,,,,,,,,125290.000000,1692021582.698441,0.000000,0.000000,0.000000,0.000000,0.000000,0.000000
1692021582.715639,,,,,,,,,,,,,,,,,,,,,,,,,,,,,,,,,,,,,,,,,,,125291.000000,1692021582.708487,0.000000,0.000000,0.000000,0.000000,0.000000,0.000000
1692021582.715664,2.798656,-0.255748,-0.000187,46.277126,0.166479,0.000008,-0.093840,0.053772,0.000046,-0.008091,214.532576,-0.000653,0.008091,242.337984,-0.003839,3.830880,6.555216,0.008670,-1.853000,-0.040228,0.012000,0.023337,1.220227,-0.001181,-1.590000,0.009773,0.012000,0.047840,0.000000,-0.000138,-1.373429,0.000002,-0.000038,63304.000000,1692021582.705710,0.862171,-1.315242,-0.000048,-0.304914,-0.013650,0.000048,,,,,,,,,
1692021582.728607,,,,,,,,,,,,,,,,,,,,,,,,,,,,,,,,,,,,,,,,,,,125292.000000,1692021582.718442,0.000000,0.000000,0.000000,0.000000,0.000000,0.000000
1692021582.741094,3.041314,-0.256132,0.000169,45.403973,0.166479,0.000008,-0.336720,0.053772,0.000046,-0.010788,214.532576,-0.000653,0.021576,242.337984,-0.003562,3.775680,6.555216,0.005351,-1.856000,-0.041818,0.002000,0.019651,1.220818,-0.001181,-1.592000,0.009182,0.012000,0.033120,0.000000,-0.000138,-1.412857,0.000002,-0.000038,63305.000000,1692021582.725710,0.851657,-1.315242,-0.000048,-0.368000,-0.013650,0.000048,,,,,,,,,
1692021582.742241,,,,,,,,,,,,,,,,,,,,,,,,,,,,,,,,,,,,,,,,,,,125293.000000,1692021582.728747,0.000000,0.000000,0.000000,0.000000,0.000000,0.000000
1692021582.746315,,,,,,,,,,,,,,,,,,,,,,,,,,,,,,,,,,,,,,,,,,,125294.000000,1692021582.738791,0.000000,0.000000,0.000000,0.000000,0.000000,0.000000
1692021582.760865,3.720757,-0.256132,0.000236,45.695024,0.166478,-0.000535,-0.187680,0.053772,0.000046,-0.008091,214.532576,-0.000653,0.018879,242.337984,-0.002573,3.510720,6.555216,0.000691,-1.858000,-0.041818,-0.021999,0.020880,1.220818,0.001772,-1.595000,0.006181,0.002000,0.042320,0.000000,-0.000138,-1.281429,0.000002,-0.000038,63306.000000,1692021582.745707,0.993600,-1.315242,-0.000048,-0.362743,-0.013269,0.000048,,,,,,,,,
1692021582.760891,,,,,,,,,,,,,,,,,,,,,,,,,,,,,,,,,,,,,,,,,,,125295.000000,1692021582.748650,0.000000,0.000000,0.000000,0.000000,0.000000,0.000000
1692021582.767728,,,,,,,,,,,,,,,,,,,,,,,,,,,,,,,,,,,,,,,,,,,125296.000000,1692021582.758788,0.000000,0.000000,0.000000,0.000000,0.000000,0.000000
1692021582.767748,3.316327,-0.256132,0.000074,46.277126,0.166478,-0.000010,-0.160080,0.053772,0.000046,-0.008091,214.532576,-0.000653,0.002697,242.337984,-0.002117,3.554880,6.555205,-0.000251,-1.856000,-0.041818,-0.001000,0.021288,1.220818,0.001772,-1.593000,0.007182,-0.003000,0.014720,0.000000,-0.000138,-1.465429,0.000002,-0.000038,63307.000000,1692021582.755719,0.977829,-1.315242,-0.000048,-0.315429,-0.013650,0.000048,,,,,,,,,
1692021582.783875,,,,,,,,,,,,,,,,,,,,,,,,,,,,,,,,,,,,,,,,,,,125297.000000,1692021582.768448,0.000000,0.000000,0.000000,0.000000,0.000000,0.000000
1692021582.783898,,,,,,,,,,,,,,,,,,,,,,,,,,,,,,,,,,,,,,,,,,0.000000,,,,,,,,
1692021582.792097,,,,,,,,,,,,,,,,,,,,,,,,,,,,,,,,,,,,,,,,,,,125298.000000,1692021582.778606,0.000000,0.000000,0.000000,0.000000,0.000000,0.000000
1692021582.799320,3.219263,-0.256132,-0.000018,46.277126,0.166478,-0.000008,-0.160080,0.053772,0.000046,-0.008091,214.532576,-0.000653,0.021576,242.337984,-0.003048,3.698400,6.555216,0.008199,-1.858000,-0.042408,0.004000,0.021288,1.221408,0.004136,-1.601000,0.001592,-0.021999,0.034960,0.000000,-0.000138,-1.406286,0.000002,-0.000038,63308.000000,1692021582.785706,0.983086,-1.315242,-0.000048,-0.394286,-0.013269,0.000048,,,,,,,,,
1692021582.808945,,,,,,,,,,,,,,,,,,,,,,,,,,,,,,,,,,,,,,,,,,,125299.000000,1692021582.788491,0.000000,0.000000,0.000000,0.000000,0.000000,0.000000
1692021582.809578,,,,,,,,,,,,,,,,,,,,,,,,,,,,,,,,,,,,,,,,,,,125300.000000,1692021582.798600,0.000000,0.000000,0.000000,0.000000,0.000000,0.000000
1692021582.810303,2.944251,-0.256132,0.000414,46.568177,0.166478,-0.000008,-0.171120,0.053772,0.000046,-0.008091,214.532576,-0.000653,0.016182,242.337984,-0.002909,3.543840,6.555216,0.001361,-1.858000,-0.042408,-0.001000,0.020471,1.221408,0.004136,-1.601000,0.002591,-0.020999,-0.022080,0.000000,-0.000138,-1.347143,0.000002,-0.000038,63309.000000,1692021582.795714,0.962057,-1.315242,-0.000048,-0.262857,-0.013650,0.000048,,,,,,,,,
1692021582.817662,,,,,,,,,,,,,,,,,,,,,,,,,,,,,,,,,,,,,,,,,,,125301.000000,1692021582.808525,0.000000,0.000000,0.000000,0.000000,0.000000,0.000000
1692021582.827276,,,,,,,,,,,,,,,,,,,,,,,,,,,,,,,,,,,,,,,,,,,125302.000000,1692021582.818541,0.000000,0.000000,0.000000,0.000000,0.000000,0.000000
1692021582.836965,2.879542,-0.255748,0.000361,47.441330,0.166479,0.000094,-0.226320,0.053772,0.000046,-0.008091,214.532576,-0.000653,0.008091,242.337984,-0.003008,3.477600,6.555205,-0.000125,-1.861000,-0.043227,-0.004999,0.022517,1.220227,0.001181,-1.598000,0.006772,-0.014999,0.020240,0.000000,-0.000138,-1.353714,0.000002,-0.000038,63310.000000,1692021582.825709,0.972571,-1.315242,-0.000048,-0.247086,-0.013650,0.000048,,,,,,,,,
1692021582.839394,,,,,,,,,,,,,,,,,,,,,,,,,,,,,,,,,,,,,,,,,,,125303.000000,1692021582.828792,0.000000,0.000000,0.000000,0.000000,0.000000,0.000000
1692021582.845177,,,,,,,,,,,,,,,,,,,,,,,,,,,,,,,,,,,,,,,,,,,125304.000000,1692021582.838737,0.000000,0.000000,0.000000,0.000000,0.000000,0.000000
1692021582.858010,,,,,,,,,,,,,,,,,,,,,,,,,,,,,,,,,,,,,,,,,,,125305.000000,1692021582.848454,0.000000,0.000000,0.000000,0.000000,0.000000,0.000000
1692021582.858044,3.203086,-0.256132,0.000652,46.277126,0.166479,0.000008,-0.149040,0.053772,0.000046,-0.008091,214.532576,-0.000653,0.002697,242.338016,0.002018,3.610080,6.555216,0.003979,-1.861000,-0.042819,-0.004000,0.016785,1.220818,-0.001772,-1.600000,0.005181,0.000000,0.011040,0.000000,-0.000138,-1.288000,0.000002,-0.000038,63311.000000,1692021582.845708,0.993600,-1.315242,-0.000048,-0.331200,-0.013650,0.000048,,,,,,,,,
1692021582.873955,,,,,,,,,,,,,,,,,,,,,,,,,,,,,,,,,,,,,,,,,,,125306.000000,1692021582.858454,0.000000,0.000000,0.000000,0.000000,0.000000,0.000000
1692021582.887987,3.898706,-0.256132,0.000286,45.403973,0.166479,0.000008,-0.204240,0.053772,0.000046,-0.005394,214.532576,-0.000653,0.032364,242.338016,0.002533,3.610080,6.555216,0.008283,-1.861000,-0.042819,-0.004000,0.022109,1.220818,0.001181,-1.600000,0.005181,-0.004999,-0.007360,0.000000,-0.000138,-1.373429,0.000002,-0.000038,63312.000000,1692021582.865713,0.977829,-1.315242,-0.000048,-0.278629,-0.013650,0.000048,,,,,,,,,
1692021582.890607,,,,,,,,,,,,,,,,,,,,,,,,,,,,,,,,,,,,,,,,,,,125307.000000,1692021582.868562,0.000000,0.000000,0.000000,0.000000,0.000000,0.000000
1692021582.895717,,,,,,,,,,,,,,,,,,,,,,,,,,,,,,,,,,,,,,,,,,,125308.000000,1692021582.879987,0.000000,0.000000,0.000000,0.000000,0.000000,0.000000
1692021582.895735,,,,,,,,,,,,,,,,,,,,,,,,,,,,,,,,,,,,,,,,,,0.000000,,,,,,,,
1692021582.901181,3.316327,-0.256132,0.000519,45.695024,0.166479,0.000008,-0.248400,0.053772,0.000046,-0.005394,214.532576,-0.000653,0.000000,242.338016,0.001484,3.764640,6.555216,0.005958,-1.863000,-0.043409,-0.004000,0.017605,1.221408,0.001181,-1.601000,0.004591,-0.004999,0.042320,0.000000,-0.000138,-1.426000,0.000002,-0.000038,63313.000000,1692021582.875710,0.962057,-1.315242,-0.000048,-0.346971,-0.013650,0.000048,,,,,,,,,
1692021582.902102,,,,,,,,,,,,,,,,,,,,,,,,,,,,,,,,,,,,,,,,,,,125309.000000,1692021582.888551,0.000000,0.000000,0.000000,0.000000,0.000000,0.000000
1692021582.909255,,,,,,,,,,,,,,,,,,,,,,,,,,,,,,,,,,,,,,,,,,,125310.000000,1692021582.898777,0.000000,0.000000,0.000000,0.000000,0.000000,0.000000
1692021582.915268,4.222250,-0.256132,0.000201,44.530819,0.166478,-0.000044,-0.237360,0.053772,0.000046,-0.008091,214.532576,-0.000653,0.008091,242.338016,0.000910,3.941280,6.555205,0.002450,-1.868000,-0.047408,-0.008000,0.022929,1.221408,0.003545,-1.600000,0.007591,-0.004999,0.020240,0.000000,-0.000138,-1.366857,0.000002,-0.000038,63314.000000,1692021582.905710,0.946286,-1.315242,-0.000048,-0.257600,-0.013650,0.000048,,,,,,,,,
1692021582.918338,,,,,,,,,,,,,,,,,,,,,,,,,,,,,,,,,,,,,,,,,,,125311.000000,1692021582.908426,0.000000,0.000000,0.000000,0.000000,0.000000,0.000000
1692021582.927310,,,,,,,,,,,,,,,,,,,,,,,,,,,,,,,,,,,,,,,,,,,125312.000000,1692021582.918448,0.000000,0.000000,0.000000,0.000000,0.000000,0.000000
1692021582.931385,2.588352,-0.256132,0.001229,44.530819,0.166478,-0.000008,-0.204240,0.053772,0.000046,-0.005394,214.532576,-0.000653,0.000000,242.338016,0.002256,3.864000,6.555205,0.004502,-1.866000,-0.045409,-0.021999,0.022929,1.221408,0.003545,-1.598000,0.009591,0.009999,0.033120,0.000000,-0.000138,-1.432571,0.000002,-0.000038,63315.000000,1692021582.915713,1.072457,-1.315242,-0.000048,-0.304914,-0.013650,0.000048,,,,,,,,,
1692021582.935544,,,,,,,,,,,,,,,,,,,,,,,,,,,,,,,,,,,,,,,,,,,125313.000000,1692021582.928496,0.000000,0.000000,0.000000,0.000000,0.000000,0.000000
1692021582.947939,,,,,,,,,,,,,,,,,,,,,,,,,,,,,,,,,,,,,,,,,,,125314.000000,1692021582.938521,0.000000,0.000000,0.000000,0.000000,0.000000,0.000000
1692021582.948969,1.666252,-0.255748,0.000018,45.403973,0.166478,-0.000008,-0.143520,0.053772,0.000046,-0.008091,214.532576,-0.000653,0.040455,242.338016,0.002474,3.488640,6.555195,-0.006670,-1.866000,-0.044000,-0.006000,0.018014,1.221999,0.003545,-1.601000,0.005000,0.008999,0.018400,0.000000,-0.000138,-1.320857,0.000002,-0.000038,63316.000000,1692021582.935714,0.914743,-1.315242,-0.000048,-0.341714,-0.013650,0.000048,,,,,,,,,
1692021582.958730,,,,,,,,,,,,,,,,,,,,,,,,,,,,,,,,,,,,,,,,,,,125315.000000,1692021582.948567,0.000000,0.000000,0.000000,0.000000,0.000000,0.000000
1692021582.977938,,,,,,,,,,,,,,,,,,,,,,,,,,,,,,,,,,,,,,,,,,,125316.000000,1692021582.959217,0.000000,0.000000,0.000000,0.000000,0.000000,0.000000
1692021582.984837,,,,,,,,,,,,,,,,,,,,,,,,,,,,,,,,,,,,,,,,,,,125317.000000,1692021582.968774,0.000000,0.000000,0.000000,0.000000,0.000000,0.000000
1692021582.984878,2.831010,-0.255748,-0.001046,45.403973,0.166478,-0.000008,-0.121440,0.053767,-0.000046,-0.008091,214.532576,-0.002414,0.010788,242.338016,0.001365,3.565920,6.555216,0.000230,-1.863000,-0.041818,0.004000,0.021288,1.220818,0.000000,-1.597000,0.009182,0.014000,0.020240,0.000000,-0.000138,-1.393143,0.000002,-0.000038,63317.000000,1692021582.965708,1.040914,-1.315242,-0.000048,-0.394286,-0.013650,0.000048,,,,,,,,,
1692021582.995412,,,,,,,,,,,,,,,,,,,,,,,,,,,,,,,,,,,,,,,,,,,125318.000000,1692021582.978389,0.000000,0.000000,0.000000,0.000000,0.000000,0.000000
1692021583.000633,,,,,,,,,,,,,,,,,,,,,,,,,,,,,,,,,,,,,,,,,,,125319.000000,1692021582.988481,0.000000,0.000000,0.000000,0.000000,0.000000,0.000000
1692021583.000642,,,,,,,,,,,,,,,,,,,,,,,,,,,,,,,,,,,,,,,,,,0.000000,,,,,,,,
1692021583.000647,1.617720,-0.255748,0.000018,45.695024,0.166478,-0.000008,-0.055200,0.053767,-0.000046,-0.008091,214.532576,-0.000653,0.026970,242.337984,-0.001999,3.223680,6.555205,-0.005351,-1.858000,-0.038637,0.004000,0.022929,1.219636,-0.002363,-1.593000,0.010364,0.008999,-0.014720,0.000000,-0.000138,-1.373429,0.000002,-0.000038,63318.000000,1692021582.985706,0.914743,-1.315242,-0.000048,-0.299657,-0.013650,0.000048,,,,,,,,,
1692021583.010332,,,,,,,,,,,,,,,,,,,,,,,,,,,,,,,,,,,,,,,,,,,125320.000000,1692021582.998462,0.000000,0.000000,0.000000,0.000000,0.000000,0.000000
1692021583.014433,2.264808,-0.255748,-0.000080,45.986075,0.166478,-0.000008,-0.171120,0.053767,-0.000046,-0.005394,214.532576,-0.000653,0.005394,242.338016,0.001939,3.786720,6.555216,0.008105,-1.858000,-0.039637,0.013000,0.019651,1.219636,-0.004727,-1.593000,0.009363,0.013000,0.023920,0.000000,-0.000138,-1.340571,0.000002,-0.000038,63319.000000,1692021582.995715,0.988343,-1.315242,-0.000048,-0.362743,-0.013269,0.000048,,,,,,,,,
1692021583.017914,,,,,,,,,,,,,,,,,,,,,,,,,,,,,,,,,,,,,,,,,,,125321.000000,1692021583.009552,0.000000,0.000000,0.000000,0.000000,0.000000,0.000000
1692021583.031211,,,,,,,,,,,,,,,,,,,,,,,,,,,,,,,,,,,,,,,,,,,125322.000000,1692021583.018534,0.000000,0.000000,0.000000,0.000000,0.000000,0.000000
1692021583.040416,1.439771,-0.255748,-0.000018,46.277126,0.166478,-0.000008,-0.154560,0.053767,-0.000046,-0.002697,214.532576,-0.000653,0.008091,242.338016,0.000653,3.565920,6.555195,-0.001120,-1.858000,-0.041637,0.003000,0.021288,1.219636,-0.004727,-1.593000,0.009363,0.008000,0.027600,0.000000,-0.000138,-1.255143,0.000002,-0.000038,63320.000000,1692021583.025713,0.893714,-1.315242,-0.000048,-0.262857,-0.013650,0.000048,,,,,,,,,
1692021583.044327,,,,,,,,,,,,,,,,,,,,,,,,,,,,,,,,,,,,,,,,,,,125323.000000,1692021583.028790,0.000000,0.000000,0.000000,0.000000,0.000000,0.000000
1692021583.046065,,,,,,,,,,,,,,,,,,,,,,,,,,,,,,,,,,,,,,,,,,,125324.000000,1692021583.038793,0.000000,0.000000,0.000000,0.000000,0.000000,0.000000
1692021583.051722,2.442758,-0.255748,-0.000018,45.986075,0.166478,-0.000008,-0.121440,0.053767,-0.000046,-0.008091,214.532576,-0.000653,0.026970,242.338016,0.001286,3.477600,6.555195,-0.003926,-1.856000,-0.040636,-0.002000,0.022109,1.219636,-0.004727,-1.593000,0.009363,0.008000,0.033120,0.000000,-0.000138,-1.294571,0.000002,-0.000038,63321.000000,1692021583.035710,0.914743,-1.315242,-0.000048,-0.273371,-0.013650,0.000048,,,,,,,,,
1692021583.059123,,,,,,,,,,,,,,,,,,,,,,,,,,,,,,,,,,,,,,,,,,,125325.000000,1692021583.048402,0.000000,0.000000,0.000000,0.000000,0.000000,0.000000
1692021583.064982,,,,,,,,,,,,,,,,,,,,,,,,,,,,,,,,,,,,,,,,,,,125326.000000,1692021583.058486,0.000000,0.000000,0.000000,0.000000,0.000000,0.000000
1692021583.072804,,,,,,,,,,,,,,,,,,,,,,,,,,,,,,,,,,,,,,,,,,,125327.000000,1692021583.068451,0.000000,0.000000,0.000000,0.000000,0.000000,0.000000
1692021583.074312,2.653061,-0.255748,-0.000490,46.568177,0.166478,-0.000008,-0.193200,0.053767,-0.000046,-0.005394,214.532576,-0.000653,0.026970,242.337984,-0.003048,3.808800,6.555205,0.003518,-1.860000,-0.042636,-0.006000,0.023337,1.219636,-0.004727,-1.593000,0.008364,0.008000,0.044160,0.000000,-0.000138,-1.307714,0.000002,-0.000038,63322.000000,1692021583.065711,0.998857,-1.315242,-0.000048,-0.325943,-0.013650,0.000048,,,,,,,,,
1692021583.081513,,,,,,,,,,,,,,,,,,,,,,,,,,,,,,,,,,,,,,,,,,,125328.000000,1692021583.078481,0.000000,0.000000,0.000000,0.000000,0.000000,0.000000
1692021583.089777,2.847188,-0.256132,0.000199,46.568177,0.166478,-0.000008,-0.082800,0.053767,-0.000046,-0.008091,214.532576,-0.000653,0.037758,242.337984,-0.002474,3.323040,6.555205,-0.000942,-1.858000,-0.040636,-0.006000,0.020880,1.219636,-0.004727,-1.600000,0.002364,0.003000,0.012880,0.000000,-0.000138,-1.373429,0.000002,-0.000038,63323.000000,1692021583.075720,0.930514,-1.315242,-0.000048,-0.299657,-0.013650,0.000048,,,,,,,,,
1692021583.107590,,,,,,,,,,,,,,,,,,,,,,,,,,,,,,,,,,,,,,,,,,,125329.000000,1692021583.088697,0.000000,0.000000,0.000000,0.000000,0.000000,0.000000
1692021583.110757,,,,,,,,,,,,,,,,,,,,,,,,,,,,,,,,,,,,,,,,,,0.000000,,,,,,,,
1692021583.112312,3.073668,-0.255748,-0.000062,46.568177,0.166478,-0.000008,-0.121440,0.053767,-0.000046,-0.002697,214.532576,-0.000653,0.016182,242.337984,-0.003206,3.985440,6.555205,0.003926,-1.858000,-0.040636,0.008000,0.021288,1.219636,-0.004727,-1.600000,0.003364,-0.020999,0.007360,0.000000,-0.000138,-1.281429,0.000002,-0.000038,63324.000000,1692021583.095711,1.051429,-1.315242,-0.000048,-0.304914,-0.013650,0.000048,,,,,,,,,
1692021583.118842,,,,,,,,,,,,,,,,,,,,,,,,,,,,,,,,,,,,,,,,,,,125331.000000,1692021583.108837,0.000000,0.000000,0.000000,0.000000,0.000000,0.000000
1692021583.137127,2.992782,-0.255748,-0.000133,46.568177,0.166478,-0.000008,-0.082800,0.053767,-0.000046,-0.008091,214.532576,-0.000653,0.000000,242.338016,0.000732,4.018560,6.555205,0.002680,-1.863000,-0.043637,-0.007000,0.024975,1.219636,-0.001772,-1.597000,0.007363,-0.018999,0.040480,0.000000,-0.000138,-1.393143,0.000002,-0.000038,63325.000000,1692021583.115711,0.962057,-1.315242,-0.000048,-0.273371,-0.013650,-0.000048,,,,,,,,,
1692021583.138176,,,,,,,,,,,,,,,,,,,,,,,,,,,,,,,,,,,,,,,,,,,125332.000000,1692021583.118406,0.000000,0.000000,0.000000,0.000000,0.000000,0.000000
1692021583.145880,,,,,,,,,,,,,,,,,,,,,,,,,,,,,,,,,,,,,,,,,,,125334.000000,1692021583.138469,0.000000,0.000000,0.000000,0.000000,0.000000,0.000000
1692021583.164659,,,,,,,,,,,,,,,,,,,,,,,,,,,,,,,,,,,,,,,,,,,125335.000000,1692021583.148481,0.000000,0.000000,0.000000,0.000000,0.000000,0.000000
1692021583.165595,2.653061,-0.256132,0.001165,47.441330,0.166478,-0.000008,-0.149040,0.053767,-0.000046,-0.008091,214.532576,-0.000653,-0.008091,242.338016,0.001246,3.599040,6.555216,0.006304,-1.863000,-0.042636,-0.009999,0.022109,1.219636,-0.004136,-1.603000,0.004363,-0.013000,0.034960,0.000000,-0.000138,-1.314286,0.000002,-0.000038,63326.000000,1692021583.145705,1.088229,-1.315242,-0.000048,-0.362743,-0.013650,-0.000048,,,,,,,,,
1692021583.184905,,,,,,,,,,,,,,,,,,,,,,,,,,,,,,,,,,,,,,,,,,,125336.000000,1692021583.158976,0.000000,0.000000,0.000000,0.000000,0.000000,0.000000
1692021583.188021,2.879542,-0.256132,0.001270,47.441330,0.166478,-0.000008,-0.115920,0.053767,-0.000046,-0.008091,214.532576,-0.000653,0.005394,242.338016,0.000969,3.864000,6.555195,-0.002722,-1.863000,-0.042045,-0.004999,0.024566,1.219045,-0.004136,-1.603000,0.004954,-0.013000,0.066240,0.000000,-0.000138,-1.327429,0.000002,-0.000038,63327.000000,1692021583.155713,1.046171,-1.315242,-0.000048,-0.336457,-0.013650,-0.000048,,,,,,,,,
1692021583.194019,,,,,,,,,,,,,,,,,,,,,,,,,,,,,,,,,,,,,,,,,,,125338.000000,1692021583.178831,0.000000,0.000000,0.000000,0.000000,0.000000,0.000000
1692021583.200361,,,,,,,,,,,,,,,,,,,,,,,,,,,,,,,,,,,,,,,,,,,125339.000000,1692021583.188481,0.000000,0.000000,0.000000,0.000000,0.000000,0.000000
1692021583.205768,2.572175,-0.255748,-0.000018,47.441330,0.166478,-0.000254,-0.110400,0.053767,-0.000046,-0.013485,214.532576,-0.000653,0.016182,242.337984,-0.003107,3.565920,6.555195,-0.000534,-1.861000,-0.041046,0.009999,0.020471,1.219045,-0.006499,-1.600000,0.005955,-0.008000,0.097520,0.000000,-0.000138,-1.334000,0.000002,-0.000038,63328.000000,1692021583.175711,1.109257,-1.315242,-0.000048,-0.283886,-0.013650,-0.000048,,,,,,,,,
1692021583.220253,,,,,,,,,,,,,,,,,,,,,,,,,,,,,,,,,,,,,,,,,,,125340.000000,1692021583.198769,0.000000,0.000000,0.000000,0.000000,0.000000,0.000000
1692021583.220584,,,,,,,,,,,,,,,,,,,,,,,,,,,,,,,,,,,,,,,,,,0.000000,,,,,,,,
1692021583.223478,3.914883,-0.256132,-0.000218,46.568177,0.166479,0.000008,-0.044160,0.053767,-0.000046,-0.005394,214.532576,-0.000653,0.013485,242.338016,0.001484,3.532800,6.555195,-0.004900,-1.866000,-0.042636,-0.014999,0.017197,1.219636,-0.006499,-1.600000,0.006363,-0.003000,0.011040,0.000000,-0.000138,-1.380000,0.000002,-0.000038,63329.000000,1692021583.195711,1.082971,-1.315242,-0.000048,-0.362743,-0.013650,-0.000048,,,,,,,,,
1692021583.229219,,,,,,,,,,,,,,,,,,,,,,,,,,,,,,,,,,,,,,,,,,,125341.000000,1692021583.208759,0.000000,0.000000,0.000000,0.000000,0.000000,0.000000
1692021583.236573,,,,,,,,,,,,,,,,,,,,,,,,,,,,,,,,,,,,,,,,,,,125342.000000,1692021583.218498,0.000000,0.000000,0.000000,0.000000,0.000000,0.000000
1692021583.240751,3.445744,-0.256132,0.000708,45.695024,0.166478,-0.000205,-0.110400,0.053767,-0.000046,-0.008091,214.532576,-0.000653,-0.008091,242.338016,0.001702,3.588000,6.555195,-0.002628,-1.863000,-0.040636,0.004999,0.021288,1.219636,-0.003545,-1.600000,0.005364,0.002000,0.060720,0.000000,-0.000138,-1.432571,0.000002,-0.000038,63330.000000,1692021583.215714,0.993600,-1.315242,-0.000048,-0.315429,-0.013650,-0.000048,,,,,,,,,
1692021583.249841,,,,,,,,,,,,,,,,,,,,,,,,,,,,,,,,,,,,,,,,,,,125343.000000,1692021583.228528,0.000000,0.000000,0.000000,0.000000,0.000000,0.000000
1692021583.256669,,,,,,,,,,,,,,,,,,,,,,,,,,,,,,,,,,,,,,,,,,,125344.000000,1692021583.238561,0.000000,0.000000,0.000000,0.000000,0.000000,0.000000
1692021583.267909,3.753111,-0.256132,0.001470,45.403973,0.166478,-0.000008,-0.226320,0.053767,-0.000046,-0.008091,214.532576,-0.000653,0.002697,242.338016,0.001741,3.455520,6.555195,-0.000209,-1.861000,-0.039046,0.008999,0.026204,1.219045,-0.002954,-1.598000,0.005955,-0.012000,0.064400,0.000000,-0.000138,-1.314286,0.000002,-0.000038,63331.000000,1692021583.245709,0.988343,-1.315242,-0.000048,-0.289143,-0.013650,-0.000048,,,,,,,,,
1692021583.272026,,,,,,,,,,,,,,,,,,,,,,,,,,,,,,,,,,,,,,,,,,,125345.000000,1692021583.248667,0.000000,0.000000,0.000000,0.000000,0.000000,0.000000
1692021583.275525,,,,,,,,,,,,,,,,,,,,,,,,,,,,,,,,,,,,,,,,,,,125346.000000,1692021583.258482,0.000000,0.000000,0.000000,0.000000,0.000000,0.000000
1692021583.285408,3.413390,-0.256132,-0.000036,45.695024,0.166478,-0.000008,-0.093840,0.053767,-0.000046,-0.010788,214.532576,-0.000653,-0.002697,242.338016,0.002454,3.554880,6.555195,-0.000094,-1.866000,-0.043637,0.013000,0.024154,1.219636,-0.002363,-1.598000,0.006363,-0.007000,0.012880,0.000000,-0.000138,-1.288000,0.000002,-0.000038,63332.000000,1692021583.265707,1.119771,-1.315242,-0.000048,-0.310171,-0.013650,-0.000048,,,,,,,,,
1692021583.285429,,,,,,,,,,,,,,,,,,,,,,,,,,,,,,,,,,,,,,,,,,,125347.000000,1692021583.268491,0.000000,0.000000,0.000000,0.000000,0.000000,0.000000
1692021583.298932,,,,,,,,,,,,,,,,,,,,,,,,,,,,,,,,,,,,,,,,,,,125348.000000,1692021583.278785,0.000000,0.000000,0.000000,0.000000,0.000000,0.000000
1692021583.317660,,,,,,,,,,,,,,,,,,,,,,,,,,,,,,,,,,,,,,,,,,,125349.000000,1692021583.288481,0.000000,0.000000,0.000000,0.000000,0.000000,0.000000
1692021583.317702,3.639871,-0.256132,0.000313,45.695024,0.166478,-0.000008,-0.149040,0.053767,-0.000046,-0.010788,214.532576,-0.000653,0.000000,242.338016,0.001504,3.510720,6.555205,0.000146,-1.866000,-0.042636,-0.012000,0.021700,1.219636,-0.002363,-1.598000,0.006363,-0.002000,0.012880,0.000000,-0.000138,-1.281429,0.000002,-0.000038,63333.000000,1692021583.275709,1.077714,-1.315242,-0.000048,-0.346971,-0.013269,-0.000048,,,,,,,,,
1692021583.329329,,,,,,,,,,,,,,,,,,,,,,,,,,,,,,,,,,,,,,,,,,,125350.000000,1692021583.298518,0.000000,0.000000,0.000000,0.000000,0.000000,0.000000
1692021583.347534,,,,,,,,,,,,,,,,,,,,,,,,,,,,,,,,,,,,,,,,,,0.000000,,,,,,,,
1692021583.347546,,,,,,,,,,,,,,,,,,,,,,,,,,,,,,,,,,,,,,,,,,,125351.000000,1692021583.308527,0.000000,0.000000,0.000000,0.000000,0.000000,0.000000
1692021583.368572,3.947237,-0.256132,0.000181,46.568177,0.166478,-0.000008,-0.044160,0.053767,-0.000046,-0.002697,214.532576,-0.000653,0.005394,242.338016,0.000653,3.565920,6.555205,0.000293,-1.870000,-0.044637,-0.016000,0.021288,1.219636,-0.002363,-1.593000,0.010364,0.008000,0.011040,0.000000,-0.000138,-1.406286,0.000006,0.002233,63334.000000,1692021583.305704,1.072457,-1.315242,-0.000048,-0.325943,-0.013650,-0.000048,,,,,,,,,
1692021583.368597,,,,,,,,,,,,,,,,,,,,,,,,,,,,,,,,,,,,,,,,,,,125352.000000,1692021583.318576,0.000000,0.000000,0.000000,0.000000,0.000000,0.000000
1692021583.375124,,,,,,,,,,,,,,,,,,,,,,,,,,,,,,,,,,,,,,,,,,,125353.000000,1692021583.328482,0.000000,0.000000,0.000000,0.000000,0.000000,0.000000
1692021583.379081,,,,,,,,,,,,,,,,,,,,,,,,,,,,,,,,,,,,,,,,,,,125355.000000,1692021583.348659,0.000000,0.000000,0.000000,0.000000,0.000000,0.000000
1692021583.379173,2.054505,-0.256132,0.001229,46.859228,0.166478,-0.000008,-0.066240,0.053767,-0.000046,-0.008091,214.532576,-0.000653,0.010788,242.338016,0.001246,3.543840,6.555205,0.000942,-1.871000,-0.045819,-0.019999,0.020063,1.220818,0.002954,-1.595000,0.007182,0.010999,0.025760,0.000000,-0.000138,-1.301143,0.000006,0.000038,63336.000000,1692021583.345709,1.056686,-1.315242,-0.000048,-0.278629,-0.013650,-0.000048,,,,,,,,,
