__time,/hsrb/joint_states/arm_flex_joint/effort,/hsrb/joint_states/arm_flex_joint/position,/hsrb/joint_states/arm_flex_joint/velocity,/hsrb/joint_states/arm_lift_joint/effort,/hsrb/joint_states/arm_lift_joint/position,/hsrb/joint_states/arm_lift_joint/velocity,/hsrb/joint_states/arm_roll_joint/effort,/hsrb/joint_states/arm_roll_joint/position,/hsrb/joint_states/arm_roll_joint/velocity,/hsrb/joint_states/base_l_drive_wheel_joint/effort,/hsrb/joint_states/base_l_drive_wheel_joint/position,/hsrb/joint_states/base_l_drive_wheel_joint/velocity,/hsrb/joint_states/base_r_drive_wheel_joint/effort,/hsrb/joint_states/base_r_drive_wheel_joint/position,/hsrb/joint_states/base_r_drive_wheel_joint/velocity,/hsrb/joint_states/base_roll_joint/effort,/hsrb/joint_states/base_roll_joint/position,/hsrb/joint_states/base_roll_joint/velocity,/hsrb/joint_states/hand_l_spring_proximal_joint/effort,/hsrb/joint_states/hand_l_spring_proximal_joint/position,/hsrb/joint_states/hand_l_spring_proximal_joint/velocity,/hsrb/joint_states/hand_motor_joint/effort,/hsrb/joint_states/hand_motor_joint/position,/hsrb/joint_states/hand_motor_joint/velocity,/hsrb/joint_states/hand_r_spring_proximal_joint/effort,/hsrb/joint_states/hand_r_spring_proximal_joint/position,/hsrb/joint_states/hand_r_spring_proximal_joint/velocity,/hsrb/joint_states/head_pan_joint/effort,/hsrb/joint_states/head_pan_joint/position,/hsrb/joint_states/head_pan_joint/velocity,/hsrb/joint_states/head_tilt_joint/effort,/hsrb/joint_states/head_tilt_joint/position,/hsrb/joint_states/head_tilt_joint/velocity,/hsrb/joint_states/header/seq,/hsrb/joint_states/header/stamp,/hsrb/joint_states/wrist_flex_joint/effort,/hsrb/joint_states/wrist_flex_joint/position,/hsrb/joint_states/wrist_flex_joint/velocity,/hsrb/joint_states/wrist_roll_joint/effort,/hsrb/joint_states/wrist_roll_joint/position,/hsrb/joint_states/wrist_roll_joint/velocity,/hsrb/pressure_sensor/data,/hsrb/wrist_wrench/compensated/header/seq,/hsrb/wrist_wrench/compensated/header/stamp,/hsrb/wrist_wrench/compensated/wrench/force/x,/hsrb/wrist_wrench/compensated/wrench/force/y,/hsrb/wrist_wrench/compensated/wrench/force/z,/hsrb/wrist_wrench/compensated/wrench/torque/x,/hsrb/wrist_wrench/compensated/wrench/torque/y,/hsrb/wrist_wrench/compensated/wrench/torque/z
1692624875.015398,,,,,,,,,,,,,,,,,,,,,,,,,,,,,,,,,,,,,,,,,,,40933.000000,1692624875.004488,0.000000,0.000000,0.000000,0.000000,0.000000,0.000000
1692624875.027627,,,,,,,,,,,,,,,,,,,,,,,,,,,,,,,,,,,,,,,,,,,40934.000000,1692624875.014753,0.000000,0.000000,0.000000,0.000000,0.000000,0.000000
1692624875.032471,,,,,,,,,,,,,,,,,,,,,,,,,,,,,,,,,,,,,,,,,,,40935.000000,1692624875.024423,0.000000,0.000000,0.000000,0.000000,0.000000,0.000000
1692624875.033832,1.197113,-0.444812,0.000018,67.814908,0.189676,-0.000008,0.093840,-0.188168,-0.000046,-0.013485,0.297790,0.000653,-0.016182,4.004818,0.000653,0.430560,-0.392123,0.000094,-1.957000,-0.058636,0.007000,0.003683,1.401636,0.005909,-1.786000,-0.027637,0.010999,0.020240,0.000015,0.000138,-1.577143,0.000002,-0.000038,20860.000000,1692624875.022682,0.583543,-1.132913,-0.000048,-0.220800,0.080687,-0.000048,,,,,,,,,
1692624875.044987,,,,,,,,,,,,,,,,,,,,,,,,,,,,,,,,,,,,,,,,,,,40936.000000,1692624875.034378,0.000000,0.000000,0.000000,0.000000,0.000000,0.000000
1692624875.047796,0.663265,-0.444812,0.000373,67.523857,0.189676,-0.000008,0.160080,-0.188168,-0.000046,-0.013485,0.297790,0.000653,-0.016182,4.004818,0.000653,0.342240,-0.392123,0.000094,-1.955000,-0.057046,0.007000,-0.001225,1.401045,0.005909,-1.784000,-0.027046,0.001000,0.029440,0.000015,0.000138,-1.669143,0.000002,-0.000038,20861.000000,1692624875.032680,0.410057,-1.132913,-0.000048,-0.257600,0.080687,-0.000048,,,,,,,,,
1692624875.056532,,,,,,,,,,,,,,,,,,,,,,,,,,,,,,,,,,,,,,,,,,,40937.000000,1692624875.044999,0.000000,0.000000,0.000000,0.000000,0.000000,0.000000
1692624875.062794,,,,,,,,,,,,,,,,,,,,,,,,,,,,,,,,,,,,,,,,,,,40938.000000,1692624875.054477,0.000000,0.000000,0.000000,0.000000,0.000000,0.000000
1692624875.062807,2.475112,-0.444812,0.000018,67.523857,0.189676,-0.000008,0.193200,-0.188163,0.000046,-0.016182,0.297790,0.000653,-0.013485,4.004818,0.000653,0.331200,-0.392133,-0.001151,-1.957000,-0.058045,0.001000,-0.001637,1.401045,0.002954,-1.789000,-0.030045,-0.004000,0.014720,0.000015,0.000138,-1.636286,0.000002,-0.000038,20862.000000,1692624875.052683,0.441600,-1.132913,-0.000048,-0.210286,0.080687,-0.000048,,,,,,,,,
1692624875.068396,,,,,,,,,,,,,,,,,,,,,,,,,,,,,,,,,,,,,,,,,,0.000000,,,,,,,,
1692624875.088015,1.957442,-0.444812,-0.000959,67.814908,0.189676,-0.000008,0.093840,-0.188163,0.000046,-0.016182,0.297790,0.000653,-0.016182,4.004818,0.000653,0.309120,-0.392123,0.000513,-1.953000,-0.056863,0.008999,0.000408,1.399863,-0.002954,-1.789000,-0.029863,-0.017000,-0.007360,0.000015,0.000138,-1.537714,0.000002,-0.000038,20863.000000,1692624875.072694,0.457371,-1.132913,-0.000048,-0.184000,0.080687,-0.000048,,,,,,,,,
1692624875.088896,,,,,,,,,,,,,,,,,,,,,,,,,,,,,,,,,,,,,,,,,,,40939.000000,1692624875.080047,0.000000,0.000000,0.000000,0.000000,0.000000,0.000000
1692624875.094192,,,,,,,,,,,,,,,,,,,,,,,,,,,,,,,,,,,,,,,,,,,40941.000000,1692624875.084671,0.000000,0.000000,0.000000,0.000000,0.000000,0.000000
1692624875.102033,,,,,,,,,,,,,,,,,,,,,,,,,,,,,,,,,,,,,,,,,,,40942.000000,1692624875.094380,0.000000,0.000000,0.000000,0.000000,0.000000,0.000000
1692624875.117727,2.135391,-0.444812,-0.000975,66.941754,0.189676,-0.000008,0.022080,-0.188163,0.000046,-0.016182,0.297790,0.000653,-0.016182,4.004818,0.000653,0.309120,-0.392123,0.000094,-1.958000,-0.060864,-0.001000,0.001637,1.399863,-0.002954,-1.787000,-0.027864,-0.017000,0.007360,0.000015,0.000138,-1.478571,0.000002,-0.000038,20864.000000,1692624875.102683,0.509943,-1.132913,-0.000048,-0.184000,0.080687,-0.000048,,,,,,,,,
1692624875.118094,,,,,,,,,,,,,,,,,,,,,,,,,,,,,,,,,,,,,,,,,,,40943.000000,1692624875.108278,0.000000,0.000000,0.000000,0.000000,0.000000,0.000000
1692624875.129170,,,,,,,,,,,,,,,,,,,,,,,,,,,,,,,,,,,,,,,,,,,40944.000000,1692624875.114762,0.000000,0.000000,0.000000,0.000000,0.000000,0.000000
1692624875.129194,0.857392,-0.444812,0.000018,67.814908,0.189676,-0.000008,0.165600,-0.188163,0.000046,-0.016182,0.297790,0.000653,-0.013485,4.004818,0.000653,0.253920,-0.392133,-0.000272,-1.957000,-0.058864,-0.014999,-0.000408,1.399863,-0.002954,-1.787000,-0.027864,-0.007000,0.012880,0.000015,0.000138,-1.662571,0.000002,-0.000038,20865.000000,1692624875.112697,0.462629,-1.132913,-0.000048,-0.152457,0.080687,-0.000048,,,,,,,,,
1692624875.137035,,,,,,,,,,,,,,,,,,,,,,,,,,,,,,,,,,,,,,,,,,,40945.000000,1692624875.124499,0.000000,0.000000,0.000000,0.000000,0.000000,0.000000
1692624875.143543,,,,,,,,,,,,,,,,,,,,,,,,,,,,,,,,,,,,,,,,,,,40946.000000,1692624875.134478,0.000000,0.000000,0.000000,0.000000,0.000000,0.000000
1692624875.155215,,,,,,,,,,,,,,,,,,,,,,,,,,,,,,,,,,,,,,,,,,,40947.000000,1692624875.144487,0.000000,0.000000,0.000000,0.000000,0.000000,0.000000
1692624875.155232,0.938278,-0.444812,-0.000018,67.523857,0.189676,-0.000008,0.099360,-0.188163,0.000046,-0.010788,0.297790,0.000653,-0.016182,4.004818,0.000653,0.220800,-0.392133,-0.004900,-1.957000,-0.059863,-0.004000,-0.000408,1.399863,-0.002954,-1.781000,-0.023863,0.003000,0.020240,0.000015,0.000138,-1.583714,0.000002,-0.000038,20866.000000,1692624875.142680,0.583543,-1.132913,-0.000048,-0.147200,0.080687,-0.000048,,,,,,,,,
1692624875.173436,,,,,,,,,,,,,,,,,,,,,,,,,,,,,,,,,,,,,,,,,,,40948.000000,1692624875.154673,0.000000,0.000000,0.000000,0.000000,0.000000,0.000000
1692624875.175314,,,,,,,,,,,,,,,,,,,,,,,,,,,,,,,,,,,,,,,,,,0.000000,,,,,,,,
1692624875.175333,1.310353,-0.444812,0.000048,67.814908,0.189676,-0.000008,0.093840,-0.188163,0.000046,-0.016182,0.297790,0.000653,-0.013485,4.004818,0.000653,0.309120,-0.392133,-0.002366,-1.960000,-0.060864,-0.012000,-0.001637,1.399863,-0.002954,-1.781000,-0.023863,0.007000,-0.007360,0.000015,0.000138,-1.583714,0.000002,-0.000038,20867.000000,1692624875.162679,0.525714,-1.132913,-0.000048,-0.120914,0.080687,-0.000048,,,,,,,,,
1692624875.182268,,,,,,,,,,,,,,,,,,,,,,,,,,,,,,,,,,,,,,,,,,,40950.000000,1692624875.174380,0.000000,0.000000,0.000000,0.000000,0.000000,0.000000
1692624875.197649,,,,,,,,,,,,,,,,,,,,,,,,,,,,,,,,,,,,,,,,,,,40951.000000,1692624875.184505,0.000000,0.000000,0.000000,0.000000,0.000000,0.000000
1692624875.197672,2.297163,-0.444812,0.000018,67.523857,0.189676,-0.000008,0.110400,-0.188163,0.000046,-0.013485,0.297790,0.000653,-0.013485,4.004818,0.000653,0.187680,-0.392123,0.004283,-1.962000,-0.060864,-0.026000,0.001225,1.399863,-0.002954,-1.782000,-0.024863,0.006000,0.016560,0.000015,0.000138,-1.590286,0.000002,-0.000038,20868.000000,1692624875.182678,0.425829,-1.132913,-0.000048,-0.252343,0.080687,-0.000048,,,,,,,,,
1692624875.204508,,,,,,,,,,,,,,,,,,,,,,,,,,,,,,,,,,,,,,,,,,,40952.000000,1692624875.194549,0.000000,0.000000,0.000000,0.000000,0.000000,0.000000
1692624875.219678,,,,,,,,,,,,,,,,,,,,,,,,,,,,,,,,,,,,,,,,,,,40953.000000,1692624875.204425,0.000000,0.000000,0.000000,0.000000,0.000000,0.000000
1692624875.219705,1.682429,-0.444812,0.000018,67.814908,0.189676,-0.000008,0.121440,-0.188163,0.000046,-0.010788,0.297790,0.000653,-0.016182,4.004818,0.000653,0.066240,-0.392133,-0.001748,-1.957000,-0.057454,0.000000,0.001225,1.400454,-0.002954,-1.786000,-0.027454,0.001000,0.001840,0.000015,0.000138,-1.669143,0.000002,-0.000038,20869.000000,1692624875.202689,0.520457,-1.132913,-0.000048,-0.199771,0.080687,-0.000048,,,,,,,,,
1692624875.231068,,,,,,,,,,,,,,,,,,,,,,,,,,,,,,,,,,,,,,,,,,,40955.000000,1692624875.224691,0.000000,0.000000,0.000000,0.000000,0.000000,0.000000
1692624875.231665,2.086859,-0.444812,0.000018,67.814908,0.189676,-0.000008,0.099360,-0.188163,0.000046,-0.013485,0.297790,0.000653,-0.013485,4.004818,0.000653,0.220800,-0.392133,-0.000282,-1.958000,-0.059455,0.009999,-0.001637,1.400454,0.000000,-1.786000,-0.028455,-0.004000,0.003680,0.000015,0.000138,-1.577143,0.000002,-0.000038,20870.000000,1692624875.222680,0.499429,-1.132913,-0.000048,-0.199771,0.080687,-0.000048,,,,,,,,,
1692624875.241977,,,,,,,,,,,,,,,,,,,,,,,,,,,,,,,,,,,,,,,,,,,40956.000000,1692624875.234502,0.000000,0.000000,0.000000,0.000000,0.000000,0.000000
1692624875.254075,,,,,,,,,,,,,,,,,,,,,,,,,,,,,,,,,,,,,,,,,,,40957.000000,1692624875.244853,0.000000,0.000000,0.000000,0.000000,0.000000,0.000000
1692624875.256585,0.194126,-0.444428,-0.000044,67.523857,0.189676,-0.000008,-0.071760,-0.188163,0.000046,-0.018879,0.297790,0.000653,-0.013485,4.004818,0.000653,-0.055200,-0.392133,-0.004429,-1.962000,-0.061455,-0.008999,0.000408,1.400454,0.000000,-1.784000,-0.026455,0.002000,-0.049680,0.000015,0.000138,-1.570571,0.000002,-0.000038,20871.000000,1692624875.242685,0.441600,-1.132913,-0.000048,-0.189257,0.080687,-0.000048,,,,,,,,,
1692624875.263498,,,,,,,,,,,,,,,,,,,,,,,,,,,,,,,,,,,,,,,,,,,40958.000000,1692624875.254359,0.000000,0.000000,0.000000,0.000000,0.000000,0.000000
1692624875.264944,2.264808,-0.444812,0.000028,67.523857,0.189676,-0.000008,0.099360,-0.188163,0.000046,-0.016182,0.297790,0.000653,-0.016182,4.004818,0.000653,0.220800,-0.392133,-0.000251,-1.960000,-0.059455,-0.008999,0.003683,1.400454,0.000000,-1.786000,-0.026455,0.002000,-0.034960,0.000015,0.000138,-1.656000,0.000002,-0.000038,20872.000000,1692624875.252709,0.509943,-1.132913,-0.000048,-0.189257,0.080687,-0.000048,,,,,,,,,
1692624875.282128,,,,,,,,,,,,,,,,,,,,,,,,,,,,,,,,,,,,,,,,,,,40959.000000,1692624875.271751,0.000000,0.000000,0.000000,0.000000,0.000000,0.000000
1692624875.284055,,,,,,,,,,,,,,,,,,,,,,,,,,,,,,,,,,,,,,,,,,0.000000,,,,,,,,
1692624875.284063,1.925087,-0.444812,0.000018,67.232806,0.189676,-0.000008,0.154560,-0.188163,0.000046,-0.010788,0.297790,0.000653,-0.016182,4.004818,0.000653,0.088320,-0.392123,0.004743,-1.957000,-0.057454,0.014999,0.000408,1.400454,0.000000,-1.779000,-0.023455,0.020999,0.011040,0.000015,0.000138,-1.531143,0.000002,-0.000038,20873.000000,1692624875.272683,0.452114,-1.132913,-0.000048,-0.278629,0.080687,-0.000048,,,,,,,,,
1692624875.291724,,,,,,,,,,,,,,,,,,,,,,,,,,,,,,,,,,,,,,,,,,,40960.000000,1692624875.275416,0.000000,0.000000,0.000000,0.000000,0.000000,0.000000
1692624875.303896,,,,,,,,,,,,,,,,,,,,,,,,,,,,,,,,,,,,,,,,,,,40961.000000,1692624875.284414,0.000000,0.000000,0.000000,0.000000,0.000000,0.000000
1692624875.306828,,,,,,,,,,,,,,,,,,,,,,,,,,,,,,,,,,,,,,,,,,,40962.000000,1692624875.294665,0.000000,0.000000,0.000000,0.000000,0.000000,0.000000
1692624875.312430,,,,,,,,,,,,,,,,,,,,,,,,,,,,,,,,,,,,,,,,,,,40963.000000,1692624875.304647,0.000000,0.000000,0.000000,0.000000,0.000000,0.000000
1692624875.314779,1.472125,-0.444812,0.000062,67.523857,0.189676,-0.000008,-0.016560,-0.188163,0.000046,-0.013485,0.297790,0.000653,-0.018879,4.004818,0.000653,0.309120,-0.392133,-0.000942,-1.955000,-0.056272,0.014000,0.000000,1.399272,-0.002363,-1.781000,-0.026272,0.004999,-0.027600,0.000015,0.000138,-1.504857,0.000002,-0.000038,20874.000000,1692624875.302690,0.488914,-1.132913,-0.000048,-0.215543,0.080687,-0.000048,,,,,,,,,
1692624875.322386,,,,,,,,,,,,,,,,,,,,,,,,,,,,,,,,,,,,,,,,,,,40964.000000,1692624875.314461,0.000000,0.000000,0.000000,0.000000,0.000000,0.000000
1692624875.325511,1.925087,-0.444812,0.000018,66.941754,0.189676,-0.000008,-0.005520,-0.188163,0.000046,-0.018879,0.297790,0.000653,-0.016182,4.004818,0.000653,0.364320,-0.392123,0.000094,-1.957000,-0.058681,0.008999,0.001637,1.398681,-0.004727,-1.779000,-0.024682,-0.004999,0.025760,0.000015,0.000138,-1.649429,0.000002,-0.000038,20875.000000,1692624875.312685,0.420571,-1.132913,-0.000048,-0.310171,0.080687,-0.000048,,,,,,,,,
1692624875.334176,,,,,,,,,,,,,,,,,,,,,,,,,,,,,,,,,,,,,,,,,,,40965.000000,1692624875.324395,0.000000,0.000000,0.000000,0.000000,0.000000,0.000000
1692624875.344428,,,,,,,,,,,,,,,,,,,,,,,,,,,,,,,,,,,,,,,,,,,40966.000000,1692624875.335735,0.000000,0.000000,0.000000,0.000000,0.000000,0.000000
1692624875.354613,,,,,,,,,,,,,,,,,,,,,,,,,,,,,,,,,,,,,,,,,,,40967.000000,1692624875.344731,0.000000,0.000000,0.000000,0.000000,0.000000,0.000000
1692624875.356234,2.766302,-0.444812,0.000018,67.523857,0.189676,-0.000008,0.016560,-0.188163,0.000046,-0.016182,0.297790,0.000653,-0.021576,4.004818,0.000653,0.309120,-0.392123,0.007424,-1.957000,-0.059682,0.004000,-0.002454,1.398681,-0.004136,-1.776000,-0.022681,0.000000,0.018400,0.000015,0.000138,-1.524571,0.000002,-0.000038,20876.000000,1692624875.342680,0.467886,-1.132913,-0.000048,-0.126171,0.080687,-0.000048,,,,,,,,,
1692624875.368630,,,,,,,,,,,,,,,,,,,,,,,,,,,,,,,,,,,,,,,,,,,40968.000000,1692624875.354401,0.000000,0.000000,0.000000,0.000000,0.000000,0.000000
1692624875.374824,,,,,,,,,,,,,,,,,,,,,,,,,,,,,,,,,,,,,,,,,,,40969.000000,1692624875.364536,0.000000,0.000000,0.000000,0.000000,0.000000,0.000000
1692624875.374840,1.455948,-0.444812,0.000018,66.941754,0.189676,-0.000008,-0.044160,-0.188163,0.000046,-0.013485,0.297790,0.000653,-0.018879,4.004818,0.000653,0.143520,-0.392133,-0.001434,-1.953000,-0.056681,0.004000,-0.000408,1.398681,-0.008863,-1.777000,-0.023681,0.009999,0.003680,0.000015,0.000138,-1.485143,0.000002,-0.000038,20877.000000,1692624875.362685,0.483657,-1.132913,-0.000048,-0.210286,0.080687,-0.000048,,,,,,,,,
1692624875.385336,,,,,,,,,,,,,,,,,,,,,,,,,,,,,,,,,,,,,,,,,,,40970.000000,1692624875.375914,0.000000,0.000000,0.000000,0.000000,0.000000,0.000000
1692624875.388404,1.488303,-0.444428,-0.001597,67.814908,0.189676,-0.000008,0.143520,-0.188163,0.000046,-0.008091,0.297790,0.000653,-0.013485,4.004818,0.000653,0.353280,-0.392133,0.001246,-1.952000,-0.055681,0.004000,0.002046,1.398681,-0.005909,-1.779000,-0.024682,0.004999,0.009200,0.000015,0.000138,-1.564000,0.000002,-0.000038,20878.000000,1692624875.372684,0.410057,-1.132913,-0.000048,-0.615086,0.081074,-0.003334,,,,,,,,,
1692624875.391643,,,,,,,,,,,,,,,,,,,,,,,,,,,,,,,,,,,,,,,,,,0.000000,,,,,,,,
1692624875.395809,,,,,,,,,,,,,,,,,,,,,,,,,,,,,,,,,,,,,,,,,,,40971.000000,1692624875.384380,0.000000,0.000000,0.000000,0.000000,0.000000,0.000000
1692624875.405427,,,,,,,,,,,,,,,,,,,,,,,,,,,,,,,,,,,,,,,,,,,40972.000000,1692624875.394377,0.000000,0.000000,0.000000,0.000000,0.000000,0.000000
1692624875.407558,1.407417,-0.444428,-0.000741,67.523857,0.189676,-0.000008,-0.038640,-0.188163,0.000046,-0.013485,0.297790,0.000653,-0.018879,4.004818,0.000653,0.276000,-0.392123,0.005434,-1.952000,-0.056272,0.008000,0.004503,1.399272,-0.002954,-1.781000,-0.026272,-0.004000,-0.025760,0.000015,0.000138,-1.787429,0.000002,-0.000038,20879.000000,1692624875.392680,0.520457,-1.132913,-0.000048,-0.147200,0.080687,-0.000107,,,,,,,,,
1692624875.414291,,,,,,,,,,,,,,,,,,,,,,,,,,,,,,,,,,,,,,,,,,,40973.000000,1692624875.404413,0.000000,0.000000,0.000000,0.000000,0.000000,0.000000
1692624875.425834,,,,,,,,,,,,,,,,,,,,,,,,,,,,,,,,,,,,,,,,,,,40974.000000,1692624875.414317,0.000000,0.000000,0.000000,0.000000,0.000000,0.000000
1692624875.425852,0.533848,-0.444428,-0.001654,67.523857,0.189676,-0.000008,0.038640,-0.188163,0.000046,-0.018879,0.297790,0.000653,-0.013485,4.004818,0.000653,0.287040,-0.392123,0.000230,-1.952000,-0.056863,0.003000,0.000817,1.399863,0.000000,-1.779000,-0.025864,-0.004000,-0.020240,0.000015,0.000138,-1.603429,0.000002,-0.000038,20880.000000,1692624875.412680,0.552000,-1.132913,-0.000048,-0.241829,0.080687,-0.000048,,,,,,,,,
1692624875.439878,,,,,,,,,,,,,,,,,,,,,,,,,,,,,,,,,,,,,,,,,,,40975.000000,1692624875.424396,0.000000,0.000000,0.000000,0.000000,0.000000,0.000000
1692624875.446828,1.261822,-0.444812,0.000018,67.814908,0.189676,-0.000008,-0.049680,-0.188163,0.000046,-0.016182,0.297790,0.000653,-0.016182,4.004818,0.000653,0.386400,-0.392123,0.000094,-1.952000,-0.056272,0.007000,-0.000817,1.399272,-0.002363,-1.779000,-0.025273,0.001000,0.005520,0.000000,-0.000138,-1.629714,0.000002,-0.000038,20881.000000,1692624875.432683,0.494171,-1.132913,-0.000048,-0.268114,0.080687,-0.000048,,,,,,,,,
1692624875.450065,,,,,,,,,,,,,,,,,,,,,,,,,,,,,,,,,,,,,,,,,,,40976.000000,1692624875.434523,0.000000,0.000000,0.000000,0.000000,0.000000,0.000000
1692624875.456987,,,,,,,,,,,,,,,,,,,,,,,,,,,,,,,,,,,,,,,,,,,40977.000000,1692624875.444368,0.000000,0.000000,0.000000,0.000000,0.000000,0.000000
1692624875.468546,,,,,,,,,,,,,,,,,,,,,,,,,,,,,,,,,,,,,,,,,,,40978.000000,1692624875.454323,0.000000,0.000000,0.000000,0.000000,0.000000,0.000000
1692624875.475578,0.630911,-0.444812,0.000018,67.523857,0.189676,-0.000008,-0.049680,-0.188168,-0.000276,-0.016182,0.297790,0.000653,-0.016182,4.004818,0.000653,0.364320,-0.392123,0.000429,-1.960000,-0.062272,-0.008000,0.000408,1.399272,-0.002363,-1.781000,-0.027273,-0.004000,-0.003680,0.000000,-0.000138,-1.636286,0.000002,-0.000038,20882.000000,1692624875.462687,0.436343,-1.132913,-0.000048,-0.310171,0.080687,-0.000048,,,,,,,,,
1692624875.480087,,,,,,,,,,,,,,,,,,,,,,,,,,,,,,,,,,,,,,,,,,,40979.000000,1692624875.464420,0.000000,0.000000,0.000000,0.000000,0.000000,0.000000
1692624875.485461,,,,,,,,,,,,,,,,,,,,,,,,,,,,,,,,,,,,,,,,,,,40980.000000,1692624875.474406,0.000000,0.000000,0.000000,0.000000,0.000000,0.000000
1692624875.487919,2.410403,-0.444812,-0.000046,67.232806,0.189676,-0.000008,0.038640,-0.188168,-0.000046,-0.013485,0.297790,0.000653,-0.016182,4.004818,0.000653,0.419520,-0.392123,0.000094,-1.960000,-0.062272,-0.021999,-0.000817,1.399272,-0.002363,-1.781000,-0.027273,-0.008000,-0.073600,0.000000,-0.000138,-1.564000,0.000002,-0.000038,20883.000000,1692624875.472681,0.588800,-1.132913,-0.000048,-0.226057,0.080687,-0.000048,,,,,,,,,
1692624875.494180,,,,,,,,,,,,,,,,,,,,,,,,,,,,,,,,,,,,,,,,,,,40981.000000,1692624875.484479,0.000000,0.000000,0.000000,0.000000,0.000000,0.000000
1692624875.497381,,,,,,,,,,,,,,,,,,,,,,,,,,,,,,,,,,,,,,,,,,0.000000,,,,,,,,
1692624875.509458,,,,,,,,,,,,,,,,,,,,,,,,,,,,,,,,,,,,,,,,,,,40982.000000,1692624875.494327,0.000000,0.000000,0.000000,0.000000,0.000000,0.000000
1692624875.516630,1.989796,-0.444812,0.000018,67.814908,0.189676,-0.000008,-0.121440,-0.188168,-0.000046,-0.013485,0.297790,0.000653,-0.008091,4.004818,0.000653,-0.033120,-0.392133,-0.004911,-1.963000,-0.063273,-0.024000,0.000000,1.399272,-0.004727,-1.781000,-0.027273,-0.008000,-0.011040,0.000000,-0.000138,-1.748000,0.000002,-0.000038,20884.000000,1692624875.502678,0.509943,-1.132913,-0.000048,-0.215543,0.080687,-0.000048,,,,,,,,,
1692624875.516678,,,,,,,,,,,,,,,,,,,,,,,,,,,,,,,,,,,,,,,,,,,40983.000000,1692624875.504611,0.000000,0.000000,0.000000,0.000000,0.000000,0.000000
1692624875.524441,,,,,,,,,,,,,,,,,,,,,,,,,,,,,,,,,,,,,,,,,,,40984.000000,1692624875.515126,0.000000,0.000000,0.000000,0.000000,0.000000,0.000000
1692624875.524463,2.248631,-0.444812,0.000018,67.523857,0.189676,-0.000008,0.011040,-0.188168,-0.000046,-0.013485,0.297790,0.000653,-0.010788,4.004818,0.000653,0.342240,-0.392123,0.000146,-1.963000,-0.063273,-0.023000,0.001637,1.399272,-0.001772,-1.782000,-0.028272,-0.008000,-0.014720,0.000000,-0.000138,-1.550857,0.000002,-0.000038,20885.000000,1692624875.512686,0.499429,-1.132913,-0.000048,-0.241829,0.080687,-0.000048,,,,,,,,,
1692624875.534324,,,,,,,,,,,,,,,,,,,,,,,,,,,,,,,,,,,,,,,,,,,40985.000000,1692624875.524410,0.000000,0.000000,0.000000,0.000000,0.000000,0.000000
1692624875.545967,,,,,,,,,,,,,,,,,,,,,,,,,,,,,,,,,,,,,,,,,,,40986.000000,1692624875.534603,0.000000,0.000000,0.000000,0.000000,0.000000,0.000000
1692624875.552612,1.553011,-0.444812,-0.000521,67.523857,0.189676,-0.000008,0.005520,-0.188168,-0.000046,-0.010788,0.297790,0.000653,-0.016182,4.004818,0.000653,0.309120,-0.392123,0.000094,-1.963000,-0.060864,-0.019999,0.000000,1.399863,0.001181,-1.784000,-0.027864,-0.012000,-0.001840,0.000000,-0.000138,-1.557429,0.000002,-0.000038,20886.000000,1692624875.542680,0.594057,-1.132913,-0.000048,-0.268114,0.080687,-0.000048,,,,,,,,,
1692624875.556040,,,,,,,,,,,,,,,,,,,,,,,,,,,,,,,,,,,,,,,,,,,40987.000000,1692624875.544430,0.000000,0.000000,0.000000,0.000000,0.000000,0.000000
1692624875.562307,,,,,,,,,,,,,,,,,,,,,,,,,,,,,,,,,,,,,,,,,,,40988.000000,1692624875.554525,0.000000,0.000000,0.000000,0.000000,0.000000,0.000000
1692624875.572899,,,,,,,,,,,,,,,,,,,,,,,,,,,,,,,,,,,,,,,,,,,40989.000000,1692624875.564416,0.000000,0.000000,0.000000,0.000000,0.000000,0.000000
1692624875.572935,2.167745,-0.444812,0.000018,67.814908,0.189676,-0.000008,-0.038640,-0.188168,-0.000046,-0.010788,0.297790,0.000653,-0.013485,4.004818,0.000653,-0.011040,-0.392133,-0.005246,-1.963000,-0.060864,-0.013000,0.002046,1.399863,0.001181,-1.784000,-0.027864,-0.002000,0.003680,0.000000,-0.000138,-1.583714,0.000002,-0.000038,20887.000000,1692624875.562677,0.552000,-1.132913,-0.000048,-0.268114,0.080687,-0.000048,,,,,,,,,
1692624875.592884,,,,,,,,,,,,,,,,,,,,,,,,,,,,,,,,,,,,,,,,,,,40990.000000,1692624875.575298,0.000000,0.000000,0.000000,0.000000,0.000000,0.000000
1692624875.592913,2.539821,-0.444812,0.000674,67.523857,0.189676,-0.000008,-0.104880,-0.188168,-0.000046,-0.013485,0.297790,0.000653,-0.013485,4.004818,0.000653,0.220800,-0.392133,-0.000429,-1.960000,-0.057863,-0.003000,-0.000817,1.399863,0.001181,-1.784000,-0.028863,-0.006000,-0.012880,0.000000,-0.000138,-1.642857,0.000002,-0.000038,20888.000000,1692624875.572682,0.436343,-1.132913,-0.000048,-0.205029,0.080687,-0.000048,,,,,,,,,
1692624875.608148,,,,,,,,,,,,,,,,,,,,,,,,,,,,,,,,,,,,,,,,,,,40991.000000,1692624875.584689,0.000000,0.000000,0.000000,0.000000,0.000000,0.000000
1692624875.612088,1.698606,-0.444812,0.000519,67.814908,0.189676,-0.000008,0.016560,-0.188168,-0.000046,-0.013485,0.297790,0.000653,-0.016182,4.004818,0.000653,0.242880,-0.392133,-0.000178,-1.958000,-0.056863,0.016000,0.000000,1.399863,0.001181,-1.782000,-0.027864,-0.004999,0.007360,0.000000,-0.000138,-1.603429,0.000002,-0.000038,20889.000000,1692624875.592683,0.546743,-1.132913,-0.000048,-0.310171,0.080687,-0.000048,,,,,,,,,
1692624875.612121,,,,,,,,,,,,,,,,,,,,,,,,,,,,,,,,,,,,,,,,,,0.000000,,,,,,,,
1692624875.618724,,,,,,,,,,,,,,,,,,,,,,,,,,,,,,,,,,,,,,,,,,,40993.000000,1692624875.604412,0.000000,0.000000,0.000000,0.000000,0.000000,0.000000
1692624875.630242,,,,,,,,,,,,,,,,,,,,,,,,,,,,,,,,,,,,,,,,,,,40994.000000,1692624875.614425,0.000000,0.000000,0.000000,0.000000,0.000000,0.000000
1692624875.634151,1.002987,-0.444812,0.000018,67.523857,0.189676,-0.000008,-0.044160,-0.188168,-0.000046,-0.018879,0.297790,0.000653,-0.016182,4.004818,0.000653,0.287040,-0.392123,0.000094,-1.958000,-0.056863,0.016000,0.001637,1.399863,0.001181,-1.786000,-0.028863,-0.008999,-0.012880,0.000000,-0.000138,-1.465429,0.000002,-0.000038,20890.000000,1692624875.622698,0.536229,-1.132913,-0.000048,-0.283886,0.080687,-0.000048,,,,,,,,,
1692624875.638337,,,,,,,,,,,,,,,,,,,,,,,,,,,,,,,,,,,,,,,,,,,40995.000000,1692624875.624511,0.000000,0.000000,0.000000,0.000000,0.000000,0.000000
1692624875.648685,,,,,,,,,,,,,,,,,,,,,,,,,,,,,,,,,,,,,,,,,,,40996.000000,1692624875.639971,0.000000,0.000000,0.000000,0.000000,0.000000,0.000000
1692624875.661035,1.277999,-0.444812,0.000335,67.523857,0.189676,-0.000008,0.066240,-0.188168,-0.000046,-0.013485,0.297790,0.000653,-0.016182,4.004818,0.000653,0.253920,-0.392123,0.000764,-1.958000,-0.058454,0.010999,-0.000817,1.400454,0.003545,-1.786000,-0.028455,-0.004000,-0.001840,0.000000,-0.000138,-1.649429,0.000002,-0.000038,20891.000000,1692624875.642680,0.515200,-1.132913,-0.000048,-0.283886,0.080687,-0.000048,,,,,,,,,
1692624875.662268,,,,,,,,,,,,,,,,,,,,,,,,,,,,,,,,,,,,,,,,,,,40997.000000,1692624875.644544,0.000000,0.000000,0.000000,0.000000,0.000000,0.000000
1692624875.673348,,,,,,,,,,,,,,,,,,,,,,,,,,,,,,,,,,,,,,,,,,,40998.000000,1692624875.658792,0.000000,0.000000,0.000000,0.000000,0.000000,0.000000
1692624875.673378,0.792683,-0.444812,0.000018,67.814908,0.189676,-0.000008,-0.060720,-0.188168,-0.000046,-0.010788,0.297790,0.000653,-0.016182,4.004818,0.000653,0.298080,-0.392123,0.006607,-1.957000,-0.057863,0.010999,0.000000,1.399863,0.003545,-1.786000,-0.027864,-0.004000,-0.012880,0.000000,-0.000138,-1.623143,0.000002,-0.000038,20892.000000,1692624875.652683,0.546743,-1.132913,-0.000048,-0.278629,0.080687,-0.000048,,,,,,,,,
1692624875.683584,,,,,,,,,,,,,,,,,,,,,,,,,,,,,,,,,,,,,,,,,,,40999.000000,1692624875.664496,0.000000,0.000000,0.000000,0.000000,0.000000,0.000000
1692624875.684310,1.164759,-0.444812,0.000028,67.523857,0.189676,-0.000008,0.044160,-0.188168,-0.000046,-0.016182,0.297790,0.000653,-0.013485,4.004818,0.000653,0.364320,-0.392133,-0.001036,-1.957000,-0.058864,0.010999,0.001225,1.399863,0.000590,-1.787000,-0.028863,-0.008000,0.014720,0.000000,-0.000138,-1.406286,0.000002,-0.000038,20893.000000,1692624875.672682,0.499429,-1.132913,-0.000048,-0.310171,0.080687,-0.000048,,,,,,,,,
1692624875.690706,,,,,,,,,,,,,,,,,,,,,,,,,,,,,,,,,,,,,,,,,,,41001.000000,1692624875.684524,0.000000,0.000000,0.000000,0.000000,0.000000,0.000000
1692624875.704907,,,,,,,,,,,,,,,,,,,,,,,,,,,,,,,,,,,,,,,,,,,41002.000000,1692624875.694365,0.000000,0.000000,0.000000,0.000000,0.000000,0.000000
1692624875.713015,,,,,,,,,,,,,,,,,,,,,,,,,,,,,,,,,,,,,,,,,,0.000000,,,,,,,,
1692624875.713786,,,,,,,,,,,,,,,,,,,,,,,,,,,,,,,,,,,,,,,,,,,41003.000000,1692624875.707939,0.000000,0.000000,0.000000,0.000000,0.000000,0.000000
1692624875.716025,2.232454,-0.444812,-0.000931,67.232806,0.189676,-0.000008,-0.038640,-0.188168,-0.000046,-0.016182,0.297790,0.000653,-0.016182,4.004818,0.000653,0.419520,-0.392123,0.009393,-1.962000,-0.062454,-0.004000,0.001225,1.400454,0.002954,-1.786000,-0.027454,-0.012000,-0.018400,0.000000,-0.000138,-1.524571,0.000002,-0.000038,20894.000000,1692624875.702688,0.583543,-1.132913,-0.000048,-0.199771,0.080687,-0.000048,,,,,,,,,
1692624875.732706,,,,,,,,,,,,,,,,,,,,,,,,,,,,,,,,,,,,,,,,,,,41004.000000,1692624875.714942,0.000000,0.000000,0.000000,0.000000,0.000000,0.000000
1692624875.733564,0.226481,-0.444812,0.000712,67.523857,0.189676,-0.000008,0.027600,-0.188168,-0.000046,-0.018879,0.297790,0.000653,-0.016182,4.004818,0.000653,0.176640,-0.392133,-0.003916,-1.960000,-0.060454,-0.008000,-0.000408,1.400454,0.002954,-1.786000,-0.027454,0.003000,-0.034960,0.000000,-0.000138,-1.485143,0.000002,-0.000038,20895.000000,1692624875.712686,0.515200,-1.132913,-0.000048,-0.094629,0.080306,-0.000048,,,,,,,,,
1692624875.740795,,,,,,,,,,,,,,,,,,,,,,,,,,,,,,,,,,,,,,,,,,,41005.000000,1692624875.724408,0.000000,0.000000,0.000000,0.000000,0.000000,0.000000
1692624875.754186,,,,,,,,,,,,,,,,,,,,,,,,,,,,,,,,,,,,,,,,,,,41006.000000,1692624875.734947,0.000000,0.000000,0.000000,0.000000,0.000000,0.000000
1692624875.758713,1.650075,-0.444428,-0.000815,67.523857,0.189676,-0.000008,0.055200,-0.188168,-0.000046,-0.016182,0.297790,0.000653,-0.013485,4.004818,0.000653,0.342240,-0.392123,0.000230,-1.960000,-0.062046,0.006000,0.000408,1.401045,0.005318,-1.784000,-0.026045,0.012000,-0.003680,0.000000,-0.000138,-1.610000,0.000002,-0.000038,20896.000000,1692624875.742684,0.483657,-1.132913,-0.000048,-0.294400,0.080687,-0.005427,,,,,,,,,
1692624875.764609,,,,,,,,,,,,,,,,,,,,,,,,,,,,,,,,,,,,,,,,,,,41008.000000,1692624875.754488,0.000000,0.000000,0.000000,0.000000,0.000000,0.000000
1692624875.779608,,,,,,,,,,,,,,,,,,,,,,,,,,,,,,,,,,,,,,,,,,,41009.000000,1692624875.764471,0.000000,0.000000,0.000000,0.000000,0.000000,0.000000
1692624875.779621,0.614734,-0.444812,0.000018,66.941754,0.189676,-0.000008,0.055200,-0.188168,-0.000046,-0.018879,0.297790,0.000653,-0.016182,4.004818,0.000653,0.353280,-0.392123,0.000125,-1.958000,-0.059455,0.006000,0.001637,1.400454,0.005318,-1.784000,-0.026455,0.007000,-0.007360,0.000000,-0.000138,-1.629714,0.000002,-0.000038,20897.000000,1692624875.762676,0.562514,-1.132913,-0.000048,-0.252343,0.080687,-0.000048,,,,,,,,,
1692624875.801123,1.730961,-0.444812,0.000018,67.523857,0.189676,-0.000008,0.011040,-0.188168,-0.000046,-0.016182,0.297790,0.000653,-0.018879,4.004818,0.000653,0.298080,-0.392133,-0.002366,-1.960000,-0.061455,0.006000,-0.002454,1.400454,0.002363,-1.784000,-0.026455,0.007000,0.007360,0.000000,-0.000138,-1.504857,0.000002,-0.000038,20898.000000,1692624875.772696,0.583543,-1.132913,-0.000048,-0.289143,0.080687,-0.000048,,,,,,,,,
1692624875.801144,,,,,,,,,,,,,,,,,,,,,,,,,,,,,,,,,,,,,,,,,,,41010.000000,1692624875.774770,0.000000,0.000000,0.000000,0.000000,0.000000,0.000000
1692624875.809907,,,,,,,,,,,,,,,,,,,,,,,,,,,,,,,,,,,,,,,,,,,41011.000000,1692624875.784501,0.000000,0.000000,0.000000,0.000000,0.000000,0.000000
1692624875.818453,,,,,,,,,,,,,,,,,,,,,,,,,,,,,,,,,,,,,,,,,,,41012.000000,1692624875.794506,0.000000,0.000000,0.000000,0.000000,0.000000,0.000000
1692624875.818461,1.326531,-0.444812,-0.000018,67.814908,0.189676,-0.000008,-0.027600,-0.188168,-0.000046,-0.018879,0.297790,0.000653,-0.018879,4.004818,0.000653,0.298080,-0.392123,0.000272,-1.960000,-0.060454,0.001000,0.001225,1.400454,0.002363,-1.782000,-0.024454,0.007000,0.049680,0.000000,-0.000138,-1.452286,0.000002,-0.000038,20899.000000,1692624875.792680,0.578286,-1.132913,-0.000048,-0.341714,0.080687,-0.000048,,,,,,,,,
1692624875.825473,,,,,,,,,,,,,,,,,,,,,,,,,,,,,,,,,,,,,,,,,,,41013.000000,1692624875.804547,0.000000,0.000000,0.000000,0.000000,0.000000,0.000000
1692624875.829154,,,,,,,,,,,,,,,,,,,,,,,,,,,,,,,,,,,,,,,,,,0.000000,,,,,,,,
1692624875.831816,,,,,,,,,,,,,,,,,,,,,,,,,,,,,,,,,,,,,,,,,,,41014.000000,1692624875.814579,0.000000,0.000000,0.000000,0.000000,0.000000,0.000000
1692624875.837937,1.536834,-0.444812,-0.000018,66.941754,0.189676,-0.000008,0.005520,-0.188168,-0.000046,-0.016182,0.297790,0.000653,-0.021576,4.004818,0.000653,0.264960,-0.392133,-0.002628,-1.963000,-0.062863,-0.018999,-0.000408,1.399863,0.002363,-1.782000,-0.023863,0.016000,0.001840,0.000000,-0.000138,-1.458857,0.000002,-0.000038,20900.000000,1692624875.822692,0.562514,-1.132913,-0.000048,-0.283886,0.080687,-0.000048,,,,,,,,,
1692624875.839813,,,,,,,,,,,,,,,,,,,,,,,,,,,,,,,,,,,,,,,,,,,41015.000000,1692624875.824390,0.000000,0.000000,0.000000,0.000000,0.000000,0.000000
1692624875.855801,,,,,,,,,,,,,,,,,,,,,,,,,,,,,,,,,,,,,,,,,,,41016.000000,1692624875.834487,0.000000,0.000000,0.000000,0.000000,0.000000,0.000000
1692624875.860699,0.679443,-0.444812,-0.000199,66.941754,0.189676,-0.000008,0.055200,-0.188168,-0.000046,-0.024273,0.297790,0.000653,-0.016182,4.004818,0.000653,0.375360,-0.392123,0.000094,-1.963000,-0.061455,-0.014000,-0.001637,1.400454,0.002363,-1.781000,-0.024454,0.016000,-0.025760,0.000000,-0.000138,-1.550857,0.000002,-0.000038,20901.000000,1692624875.842684,0.515200,-1.132913,-0.000048,-0.184000,0.080687,-0.000048,,,,,,,,,
1692624875.862314,,,,,,,,,,,,,,,,,,,,,,,,,,,,,,,,,,,,,,,,,,,41018.000000,1692624875.854561,0.000000,0.000000,0.000000,0.000000,0.000000,0.000000
1692624875.881669,1.633897,-0.444812,0.000062,67.523857,0.189676,-0.000008,0.033120,-0.188168,-0.000046,-0.013485,0.297790,0.000653,-0.018879,4.004818,0.000653,0.353280,-0.392123,0.000094,-1.962000,-0.060454,-0.004000,-0.000817,1.400454,0.002363,-1.781000,-0.025454,0.016000,0.020240,0.000000,-0.000138,-1.465429,0.000002,-0.000038,20902.000000,1692624875.852681,0.499429,-1.132913,-0.000048,-0.262857,0.080687,-0.000048,,,,,,,,,
1692624875.890829,,,,,,,,,,,,,,,,,,,,,,,,,,,,,,,,,,,,,,,,,,,41019.000000,1692624875.864413,0.000000,0.000000,0.000000,0.000000,0.000000,0.000000
1692624875.894184,,,,,,,,,,,,,,,,,,,,,,,,,,,,,,,,,,,,,,,,,,,41020.000000,1692624875.874522,0.000000,0.000000,0.000000,0.000000,0.000000,0.000000
1692624875.899387,1.342708,-0.444812,0.000018,67.232806,0.189676,-0.000008,0.093840,-0.188168,-0.000046,-0.010788,0.297790,0.000653,-0.016182,4.004818,0.000653,0.342240,-0.392123,0.000178,-1.960000,-0.059045,0.004999,0.000408,1.401045,0.002363,-1.784000,-0.027046,0.006000,-0.007360,0.000000,-0.000138,-1.577143,0.000002,-0.000038,20903.000000,1692624875.872690,0.404800,-1.132913,-0.000048,-0.283886,0.080687,-0.000048,,,,,,,,,
1692624875.902941,,,,,,,,,,,,,,,,,,,,,,,,,,,,,,,,,,,,,,,,,,,41021.000000,1692624875.884538,0.000000,0.000000,0.000000,0.000000,0.000000,0.000000
1692624875.906528,,,,,,,,,,,,,,,,,,,,,,,,,,,,,,,,,,,,,,,,,,,41022.000000,1692624875.894378,0.000000,0.000000,0.000000,0.000000,0.000000,0.000000
1692624875.913737,1.666252,-0.444812,0.000018,67.523857,0.189676,-0.000008,0.005520,-0.188168,-0.000046,-0.016182,0.297790,0.000653,-0.013485,4.004818,0.000653,0.342240,-0.392123,0.007068,-1.960000,-0.059045,0.008999,-0.000817,1.401045,0.004727,-1.786000,-0.028045,0.006000,0.036800,0.000000,-0.000138,-1.465429,0.000002,-0.000038,20904.000000,1692624875.892681,0.431086,-1.132913,-0.000048,-0.425829,0.080687,-0.000048,,,,,,,,,
1692624875.922889,,,,,,,,,,,,,,,,,,,,,,,,,,,,,,,,,,,,,,,,,,,41023.000000,1692624875.905236,0.000000,0.000000,0.000000,0.000000,0.000000,0.000000
1692624875.933948,1.553011,-0.444812,0.000018,67.523857,0.189676,-0.000008,0.022080,-0.188168,-0.000046,-0.013485,0.297790,0.000653,-0.018879,4.004818,0.000653,0.253920,-0.392133,-0.002356,-1.960000,-0.060046,0.013000,-0.001637,1.401045,0.004727,-1.786000,-0.028045,0.001000,-0.014720,0.000000,-0.000138,-1.544286,0.000002,-0.000038,20905.000000,1692624875.912680,0.509943,-1.132913,-0.000048,-0.252343,0.080687,-0.000048,,,,,,,,,
1692624875.938907,,,,,,,,,,,,,,,,,,,,,,,,,,,,,,,,,,,,,,,,,,,41024.000000,1692624875.918589,0.000000,0.000000,0.000000,0.000000,0.000000,0.000000
1692624875.942142,,,,,,,,,,,,,,,,,,,,,,,,,,,,,,,,,,,,,,,,,,0.000000,,,,,,,,
1692624875.953275,,,,,,,,,,,,,,,,,,,,,,,,,,,,,,,,,,,,,,,,,,,41025.000000,1692624875.926934,0.000000,0.000000,0.000000,0.000000,0.000000,0.000000
1692624875.957019,0.647088,-0.444812,0.000018,66.941754,0.189676,-0.000008,0.171120,-0.188168,-0.000046,-0.013485,0.297790,0.000653,-0.018879,4.004818,0.000653,0.298080,-0.392123,0.000178,-1.962000,-0.060637,0.003000,-0.000408,1.401636,0.007090,-1.786000,-0.028636,0.001000,0.027600,0.000000,-0.000138,-1.445714,0.000002,-0.000038,20906.000000,1692624875.932682,0.457371,-1.132913,-0.000048,-0.247086,0.080687,-0.000048,,,,,,,,,
1692624875.969340,,,,,,,,,,,,,,,,,,,,,,,,,,,,,,,,,,,,,,,,,,,41027.000000,1692624875.955785,0.000000,0.000000,0.000000,0.000000,0.000000,0.000000
1692624875.975639,0.598556,-0.444812,0.000018,67.814908,0.189676,-0.000008,0.193200,-0.188168,-0.000046,-0.018879,0.297790,0.000653,-0.010788,4.004818,0.000653,0.276000,-0.392133,-0.001738,-1.963000,-0.062046,0.003000,-0.001225,1.401045,0.007090,-1.787000,-0.029046,-0.004000,0.022080,0.000000,-0.000138,-1.491714,0.000002,-0.000038,20907.000000,1692624875.952693,0.573029,-1.132913,-0.000048,-0.257600,0.080687,-0.000048,,,,,,,,,
1692624875.979442,,,,,,,,,,,,,,,,,,,,,,,,,,,,,,,,,,,,,,,,,,,41028.000000,1692624875.965673,0.000000,0.000000,0.000000,0.000000,0.000000,0.000000
1692624875.995196,0.727974,-0.444812,-0.000018,67.523857,0.189676,-0.000008,-0.016560,-0.188168,-0.000046,-0.010788,0.297790,0.000653,-0.018879,4.004818,0.000653,0.320160,-0.392123,0.000094,-1.963000,-0.061228,0.003000,0.000000,1.402227,0.009454,-1.789000,-0.030228,-0.004000,0.001840,0.000000,-0.000138,-1.642857,0.000002,-0.000038,20908.000000,1692624875.972680,0.573029,-1.132913,-0.000048,-0.278629,0.080687,-0.000048,,,,,,,,,
1692624876.001865,,,,,,,,,,,,,,,,,,,,,,,,,,,,,,,,,,,,,,,,,,,41029.000000,1692624875.975720,0.000000,0.000000,0.000000,0.000000,0.000000,0.000000
1692624876.009640,,,,,,,,,,,,,,,,,,,,,,,,,,,,,,,,,,,,,,,,,,,41030.000000,1692624875.985656,0.000000,0.000000,0.000000,0.000000,0.000000,0.000000
1692624876.011540,1.617720,-0.444812,0.000018,67.232806,0.189676,-0.000008,-0.022080,-0.188168,-0.000046,-0.016182,0.297790,0.000653,-0.016182,4.004818,0.000653,0.165600,-0.392133,-0.001277,-1.958000,-0.059045,0.003000,0.000817,1.401045,0.009454,-1.792000,-0.031045,-0.008000,-0.018400,0.000000,-0.000138,-1.564000,0.000002,-0.000038,20909.000000,1692624875.992686,0.436343,-1.132913,-0.000048,-0.136686,0.080306,-0.000048,,,,,,,,,
1692624876.015234,,,,,,,,,,,,,,,,,,,,,,,,,,,,,,,,,,,,,,,,,,,41031.000000,1692624875.995651,0.000000,0.000000,0.000000,0.000000,0.000000,0.000000
1692624876.028595,,,,,,,,,,,,,,,,,,,,,,,,,,,,,,,,,,,,,,,,,,,41032.000000,1692624876.005883,0.000000,0.000000,0.000000,0.000000,0.000000,0.000000
1692624876.044891,2.297163,-0.444812,0.000026,67.523857,0.189676,-0.000008,0.049680,-0.188168,-0.000046,-0.013485,0.297790,0.000653,-0.016182,4.004818,0.000653,0.375360,-0.392123,0.000324,-1.955000,-0.058454,0.007000,-0.000817,1.400454,0.003545,-1.789000,-0.029454,-0.012000,0.000000,0.000000,-0.000138,-1.504857,0.000002,-0.000038,20910.000000,1692624876.012680,0.541486,-1.132913,-0.000048,-0.262857,0.080687,-0.004397,,,,,,,,,
1692624876.045150,,,,,,,,,,,,,,,,,,,,,,,,,,,,,,,,,,,,,,,,,,,41033.000000,1692624876.015599,0.000000,0.000000,0.000000,0.000000,0.000000,0.000000
1692624876.052238,,,,,,,,,,,,,,,,,,,,,,,,,,,,,,,,,,,,,,,,,,,41034.000000,1692624876.025645,0.000000,0.000000,0.000000,0.000000,0.000000,0.000000
1692624876.052267,,,,,,,,,,,,,,,,,,,,,,,,,,,,,,,,,,,,,,,,,,0.000000,,,,,,,,
1692624876.061309,,,,,,,,,,,,,,,,,,,,,,,,,,,,,,,,,,,,,,,,,,,41036.000000,1692624876.045756,0.000000,0.000000,0.000000,0.000000,0.000000,0.000000
1692624876.061630,0.275012,-0.444812,0.000872,67.523857,0.189676,-0.000008,0.110400,-0.188168,-0.000046,-0.010788,0.297790,0.000653,-0.010788,4.004818,0.000653,0.198720,-0.392123,0.002775,-1.957000,-0.060046,0.002000,-0.001637,1.401045,0.000590,-1.794000,-0.032046,-0.019999,0.003680,0.000000,-0.000138,-1.537714,0.000002,-0.000038,20911.000000,1692624876.042685,0.583543,-1.132913,-0.000048,-0.257600,0.080687,-0.000048,,,,,,,,,
1692624876.077358,,,,,,,,,,,,,,,,,,,,,,,,,,,,,,,,,,,,,,,,,,,41037.000000,1692624876.055441,0.000000,0.000000,0.000000,0.000000,0.000000,0.000000
1692624876.089770,0.986809,-0.444812,0.000131,67.523857,0.189676,-0.000008,0.077280,-0.188168,-0.000046,-0.013485,0.297790,0.000653,-0.018879,4.004818,0.000653,0.287040,-0.392123,0.000136,-1.957000,-0.059455,0.002000,-0.001225,1.400454,0.002954,-1.794000,-0.031455,-0.014999,-0.009200,0.000000,-0.000138,-1.603429,0.000002,-0.000038,20912.000000,1692624876.062677,0.546743,-1.132913,-0.000048,-0.278629,0.080687,-0.000048,,,,,,,,,
1692624876.095405,,,,,,,,,,,,,,,,,,,,,,,,,,,,,,,,,,,,,,,,,,,41039.000000,1692624876.075784,0.000000,0.000000,0.000000,0.000000,0.000000,0.000000
1692624876.101760,1.666252,-0.444812,-0.000248,67.232806,0.189676,-0.000008,0.077280,-0.188168,-0.000046,-0.016182,0.297790,0.000653,-0.010788,4.004818,0.000653,0.320160,-0.392123,0.000094,-1.955000,-0.058864,-0.008000,-0.000817,1.399863,-0.002363,-1.794000,-0.030864,-0.014999,0.033120,0.000000,-0.000138,-1.485143,0.000002,-0.000038,20913.000000,1692624876.082676,0.552000,-1.132913,-0.000048,-0.205029,0.080306,-0.000048,,,,,,,,,
1692624876.113443,,,,,,,,,,,,,,,,,,,,,,,,,,,,,,,,,,,,,,,,,,,41041.000000,1692624876.095582,0.000000,0.000000,0.000000,0.000000,0.000000,0.000000
1692624876.129469,,,,,,,,,,,,,,,,,,,,,,,,,,,,,,,,,,,,,,,,,,,41042.000000,1692624876.106667,0.000000,0.000000,0.000000,0.000000,0.000000,0.000000
1692624876.129483,2.054505,-0.444812,-0.000399,67.232806,0.189676,-0.000008,0.104880,-0.188168,-0.000046,-0.010788,0.297790,0.000653,-0.018879,4.004818,0.000653,0.309120,-0.392133,-0.003581,-1.952000,-0.057863,0.006000,-0.002454,1.399863,-0.002363,-1.796000,-0.031863,-0.018999,-0.011040,0.000000,-0.000138,-1.465429,0.000006,0.000038,20914.000000,1692624876.102679,0.420571,-1.132913,-0.000048,-0.236571,0.080687,-0.000048,,,,,,,,,
1692624876.139030,,,,,,,,,,,,,,,,,,,,,,,,,,,,,,,,,,,,,,,,,,,41044.000000,1692624876.125620,0.000000,0.000000,0.000000,0.000000,0.000000,0.000000
1692624876.152394,-0.323544,-0.444428,-0.000389,67.232806,0.189676,-0.000008,0.082800,-0.188168,-0.000046,-0.010788,0.297790,0.000653,-0.016182,4.004818,0.000653,0.320160,-0.392133,-0.000942,-1.947000,-0.055273,0.009999,0.000000,1.399272,-0.007681,-1.796000,-0.031272,-0.018999,-0.088320,0.000000,-0.000138,-1.445714,0.000006,0.000038,20915.000000,1692624876.122678,0.473143,-1.132913,-0.000048,-0.268114,0.080306,-0.000048,,,,,,,,,
1692624876.156709,,,,,,,,,,,,,,,,,,,,,,,,,,,,,,,,,,,,,,,,,,,41045.000000,1692624876.135528,0.000000,0.000000,0.000000,0.000000,0.000000,0.000000
1692624876.157960,,,,,,,,,,,,,,,,,,,,,,,,,,,,,,,,,,,,,,,,,,0.000000,,,,,,,,
1692624876.166967,0.275012,-0.444812,-0.000068,67.814908,0.189676,-0.000008,0.038640,-0.188168,-0.000046,-0.013485,0.297790,0.000653,-0.016182,4.004818,0.000653,0.397440,-0.392123,0.000094,-1.950000,-0.057272,0.014000,0.000408,1.399272,-0.004727,-1.794000,-0.029272,-0.018999,-0.009200,0.000000,-0.000138,-1.603429,0.000006,0.000038,20916.000000,1692624876.132680,0.552000,-1.132913,-0.000048,-0.189257,0.080306,-0.000048,,,,,,,,,
1692624876.167537,,,,,,,,,,,,,,,,,,,,,,,,,,,,,,,,,,,,,,,,,,,41047.000000,1692624876.155507,0.000000,0.000000,0.000000,0.000000,0.000000,0.000000
1692624876.174311,0.388253,-0.444812,0.001193,68.105959,0.189676,-0.000008,0.204240,-0.188168,-0.000046,-0.016182,0.297790,0.000653,-0.013485,4.004818,0.000653,0.298080,-0.392133,-0.003979,-1.952000,-0.059272,-0.006000,0.000000,1.399272,-0.004727,-1.791000,-0.027273,-0.008999,0.003680,0.000000,-0.000138,-1.642857,0.000006,0.000038,20917.000000,1692624876.152682,0.594057,-1.132913,-0.000048,-0.199771,0.080306,-0.000048,,,,,,,,,
1692624876.177928,,,,,,,,,,,,,,,,,,,,,,,,,,,,,,,,,,,,,,,,,,,41048.000000,1692624876.165603,0.000000,0.000000,0.000000,0.000000,0.000000,0.000000
1692624876.200794,0.760329,-0.444812,0.000018,67.523857,0.189676,-0.000008,0.055200,-0.188168,-0.000046,-0.013485,0.297790,0.000653,-0.016182,4.004818,0.000653,0.386400,-0.392123,0.000094,-1.950000,-0.058864,0.004000,-0.001637,1.399863,-0.001772,-1.789000,-0.025864,0.009999,-0.001840,0.000000,-0.000138,-1.504857,0.000006,0.000038,20918.000000,1692624876.172683,0.562514,-1.132913,-0.000048,-0.210286,0.080306,-0.000048,,,,,,,,,
1692624876.204272,,,,,,,,,,,,,,,,,,,,,,,,,,,,,,,,,,,,,,,,,,,41049.000000,1692624876.175548,0.000000,0.000000,0.000000,0.000000,0.000000,0.000000
1692624876.212631,,,,,,,,,,,,,,,,,,,,,,,,,,,,,,,,,,,,,,,,,,,41051.000000,1692624876.195616,0.000000,0.000000,0.000000,0.000000,0.000000,0.000000
1692624876.222500,1.180936,-0.444812,-0.000622,67.814908,0.189676,-0.000008,0.121440,-0.188168,-0.000046,-0.013485,0.297790,0.000653,-0.016182,4.004818,0.000653,0.353280,-0.392123,0.000167,-1.955000,-0.060864,-0.001000,-0.000408,1.399863,-0.001772,-1.789000,-0.027864,0.000000,0.003680,0.000000,-0.000138,-1.656000,0.000006,0.000038,20919.000000,1692624876.192695,0.546743,-1.132913,-0.000048,-0.210286,0.080306,-0.000048,,,,,,,,,
1692624876.224253,,,,,,,,,,,,,,,,,,,,,,,,,,,,,,,,,,,,,,,,,,,41052.000000,1692624876.205616,0.000000,0.000000,0.000000,0.000000,0.000000,0.000000
1692624876.232794,,,,,,,,,,,,,,,,,,,,,,,,,,,,,,,,,,,,,,,,,,,41053.000000,1692624876.215796,0.000000,0.000000,0.000000,0.000000,0.000000,0.000000
1692624876.235781,1.795669,-0.444812,0.000026,67.523857,0.189676,-0.000008,0.121440,-0.188168,-0.000046,-0.013485,0.297790,0.000653,-0.013485,4.004818,0.000653,0.408480,-0.392123,0.000094,-1.960000,-0.063864,-0.024000,0.000000,1.399863,-0.001772,-1.789000,-0.027864,0.000000,-0.005520,0.000000,-0.000138,-1.649429,0.000006,0.000038,20920.000000,1692624876.212682,0.546743,-1.132913,-0.000048,-0.346971,0.080687,-0.003822,,,,,,,,,
1692624876.240027,,,,,,,,,,,,,,,,,,,,,,,,,,,,,,,,,,,,,,,,,,,41054.000000,1692624876.225533,0.000000,0.000000,0.000000,0.000000,0.000000,0.000000
1692624876.252292,,,,,,,,,,,,,,,,,,,,,,,,,,,,,,,,,,,,,,,,,,,41055.000000,1692624876.235614,0.000000,0.000000,0.000000,0.000000,0.000000,0.000000
1692624876.254751,1.164759,-0.444812,0.000018,67.814908,0.189676,-0.000008,0.149040,-0.188168,-0.000046,-0.016182,0.297790,0.000653,-0.013485,4.004818,0.000653,0.353280,-0.392123,0.000094,-1.965000,-0.065454,-0.026000,-0.000408,1.400454,0.001181,-1.791000,-0.027454,0.008999,0.005520,0.000000,-0.000138,-1.577143,0.000006,0.000038,20921.000000,1692624876.232687,0.483657,-1.132913,-0.000048,-0.210286,0.080306,-0.000048,,,,,,,,,
1692624876.261888,,,,,,,,,,,,,,,,,,,,,,,,,,,,,,,,,,,,,,,,,,0.000000,,,,,,,,
1692624876.263257,,,,,,,,,,,,,,,,,,,,,,,,,,,,,,,,,,,,,,,,,,,41057.000000,1692624876.255634,0.000000,0.000000,0.000000,0.000000,0.000000,0.000000
1692624876.273170,,,,,,,,,,,,,,,,,,,,,,,,,,,,,,,,,,,,,,,,,,,41058.000000,1692624876.265604,0.000000,0.000000,0.000000,0.000000,0.000000,0.000000
1692624876.273203,0.598556,-0.444812,-0.000018,67.523857,0.189676,-0.000008,0.138000,-0.188168,-0.000046,-0.016182,0.297790,0.000653,-0.016182,4.004818,0.000653,0.176640,-0.392133,-0.001612,-1.965000,-0.063454,-0.023000,0.001225,1.400454,0.001181,-1.787000,-0.025454,0.008000,0.018400,0.000000,-0.000138,-1.458857,0.000006,0.000038,20922.000000,1692624876.262676,0.604571,-1.132913,-0.000048,-0.215543,0.080306,-0.000048,,,,,,,,,
1692624876.285942,,,,,,,,,,,,,,,,,,,,,,,,,,,,,,,,,,,,,,,,,,,41059.000000,1692624876.275777,0.000000,0.000000,0.000000,0.000000,0.000000,0.000000
1692624876.287284,0.420607,-0.444812,0.000018,67.814908,0.189676,-0.000008,0.060720,-0.188168,-0.000046,-0.016182,0.297790,0.000653,-0.013485,4.004818,0.000653,0.386400,-0.392123,0.000094,-1.965000,-0.062454,-0.012000,0.003275,1.400454,0.001181,-1.789000,-0.026455,0.012000,0.011040,0.000000,-0.000138,-1.649429,0.000006,0.000038,20923.000000,1692624876.272680,0.515200,-1.132913,-0.000048,-0.005257,0.079925,-0.002319,,,,,,,,,
1692624876.297236,,,,,,,,,,,,,,,,,,,,,,,,,,,,,,,,,,,,,,,,,,,41060.000000,1692624876.285771,0.000000,0.000000,0.000000,0.000000,0.000000,0.000000
1692624876.302983,1.391239,-0.444812,-0.000561,67.814908,0.189676,-0.000008,0.126960,-0.188168,-0.000046,-0.008091,0.297790,0.000653,-0.016182,4.004818,0.000653,0.077280,-0.392133,-0.001612,-1.965000,-0.061863,-0.007000,-0.000408,1.399863,-0.001772,-1.787000,-0.025864,0.007000,0.003680,0.000000,-0.000138,-1.583714,0.000006,0.000038,20924.000000,1692624876.292687,0.436343,-1.132913,-0.000048,-0.126171,0.080306,0.000048,,,,,,,,,
1692624876.305922,,,,,,,,,,,,,,,,,,,,,,,,,,,,,,,,,,,,,,,,,,,41061.000000,1692624876.295497,0.000000,0.000000,0.000000,0.000000,0.000000,0.000000
1692624876.314882,,,,,,,,,,,,,,,,,,,,,,,,,,,,,,,,,,,,,,,,,,,41062.000000,1692624876.306062,0.000000,0.000000,0.000000,0.000000,0.000000,0.000000
1692624876.322092,,,,,,,,,,,,,,,,,,,,,,,,,,,,,,,,,,,,,,,,,,,41063.000000,1692624876.315665,0.000000,0.000000,0.000000,0.000000,0.000000,0.000000
1692624876.324667,1.536834,-0.444812,0.000018,67.232806,0.189676,-0.000008,0.022080,-0.188168,-0.000046,-0.018879,0.297790,0.000653,-0.016182,4.004818,0.000653,0.253920,-0.392133,-0.000188,-1.962000,-0.060273,-0.002000,0.000817,1.399272,-0.007090,-1.786000,-0.025273,0.007000,0.001840,0.000000,-0.000138,-1.590286,0.000006,0.000038,20925.000000,1692624876.312680,0.541486,-1.132913,-0.000048,-0.268114,0.080306,0.000048,,,,,,,,,
1692624876.334463,,,,,,,,,,,,,,,,,,,,,,,,,,,,,,,,,,,,,,,,,,,41064.000000,1692624876.325660,0.000000,0.000000,0.000000,0.000000,0.000000,0.000000
1692624876.345046,,,,,,,,,,,,,,,,,,,,,,,,,,,,,,,,,,,,,,,,,,,41065.000000,1692624876.336078,0.000000,0.000000,0.000000,0.000000,0.000000,0.000000
1692624876.345128,1.585366,-0.444812,0.000030,67.523857,0.189676,-0.000008,0.154560,-0.188168,-0.000046,-0.016182,0.297790,0.000653,-0.016182,4.004818,0.000653,0.320160,-0.392133,-0.001570,-1.963000,-0.060273,-0.010999,-0.000817,1.399272,-0.004136,-1.786000,-0.026272,0.007000,0.014720,0.000000,-0.000138,-1.649429,0.000006,0.000038,20926.000000,1692624876.332685,0.525714,-1.132913,-0.000048,-0.089371,0.079925,0.000048,,,,,,,,,
1692624876.358623,,,,,,,,,,,,,,,,,,,,,,,,,,,,,,,,,,,,,,,,,,,41066.000000,1692624876.346229,0.000000,0.000000,0.000000,0.000000,0.000000,0.000000
1692624876.365119,,,,,,,,,,,,,,,,,,,,,,,,,,,,,,,,,,,,,,,,,,,41067.000000,1692624876.355768,0.000000,0.000000,0.000000,0.000000,0.000000,0.000000
1692624876.368182,0.275012,-0.444812,0.000565,67.523857,0.189676,-0.000008,0.077280,-0.188168,-0.000046,-0.016182,0.297790,0.000653,-0.013485,4.004818,0.000653,0.331200,-0.392133,-0.000471,-1.963000,-0.060273,0.008999,-0.001637,1.399272,-0.004136,-1.784000,-0.025273,0.010999,0.029440,0.000000,-0.000138,-1.675714,0.000006,0.000038,20927.000000,1692624876.352688,0.557257,-1.132913,-0.000048,-0.120914,0.079925,0.000048,,,,,,,,,
1692624876.368337,,,,,,,,,,,,,,,,,,,,,,,,,,,,,,,,,,,,,,,,,,0.000000,,,,,,,,
1692624876.377975,,,,,,,,,,,,,,,,,,,,,,,,,,,,,,,,,,,,,,,,,,,41068.000000,1692624876.365523,0.000000,0.000000,0.000000,0.000000,0.000000,0.000000
1692624876.382958,1.213290,-0.444428,-0.000900,67.232806,0.189676,-0.000008,0.132480,-0.188168,-0.000046,-0.018879,0.297790,0.000653,-0.018879,4.004818,0.000653,0.386400,-0.392123,0.000094,-1.965000,-0.061272,-0.001000,0.000817,1.399272,-0.004136,-1.784000,-0.025273,0.006000,0.005520,0.000000,-0.000138,-1.708571,0.000006,0.000038,20928.000000,1692624876.372681,0.630857,-1.132913,-0.000048,-0.210286,0.079925,0.000048,,,,,,,,,
1692624876.383689,,,,,,,,,,,,,,,,,,,,,,,,,,,,,,,,,,,,,,,,,,,41069.000000,1692624876.375678,0.000000,0.000000,0.000000,0.000000,0.000000,0.000000
1692624876.393181,,,,,,,,,,,,,,,,,,,,,,,,,,,,,,,,,,,,,,,,,,,41070.000000,1692624876.385602,0.000000,0.000000,0.000000,0.000000,0.000000,0.000000
1692624876.401358,,,,,,,,,,,,,,,,,,,,,,,,,,,,,,,,,,,,,,,,,,,41071.000000,1692624876.395639,0.000000,0.000000,0.000000,0.000000,0.000000,0.000000
1692624876.403877,1.197113,-0.444812,0.000026,67.814908,0.189676,-0.000008,0.099360,-0.188168,-0.000046,-0.016182,0.297790,0.000653,-0.016182,4.004818,0.000653,0.452640,-0.392123,0.000094,-1.968000,-0.063681,-0.004999,-0.000817,1.398681,-0.006499,-1.781000,-0.024682,0.006000,0.038640,0.000000,-0.000138,-1.498286,0.000006,0.000038,20929.000000,1692624876.392690,0.520457,-1.132913,-0.000048,-0.094629,0.079925,0.000048,,,,,,,,,
1692624876.418216,,,,,,,,,,,,,,,,,,,,,,,,,,,,,,,,,,,,,,,,,,,41072.000000,1692624876.406650,0.000000,0.000000,0.000000,0.000000,0.000000,0.000000
1692624876.423121,1.585366,-0.444812,-0.000133,67.814908,0.189676,-0.000008,0.088320,-0.188168,-0.000046,-0.016182,0.297790,0.000653,-0.013485,4.004818,0.000653,0.386400,-0.392123,0.000094,-1.968000,-0.061272,-0.023000,-0.001225,1.399272,-0.006499,-1.781000,-0.025273,0.006000,-0.007360,0.000000,-0.000138,-1.616571,0.000006,0.000038,20930.000000,1692624876.412681,0.630857,-1.132913,-0.000048,-0.131429,0.080306,0.000048,,,,,,,,,
1692624876.427638,,,,,,,,,,,,,,,,,,,,,,,,,,,,,,,,,,,,,,,,,,,41073.000000,1692624876.415555,0.000000,0.000000,0.000000,0.000000,0.000000,0.000000
1692624876.432997,,,,,,,,,,,,,,,,,,,,,,,,,,,,,,,,,,,,,,,,,,,41074.000000,1692624876.425763,0.000000,0.000000,0.000000,0.000000,0.000000,0.000000
1692624876.444929,,,,,,,,,,,,,,,,,,,,,,,,,,,,,,,,,,,,,,,,,,,41075.000000,1692624876.435929,0.000000,0.000000,0.000000,0.000000,0.000000,0.000000
1692624876.461552,,,,,,,,,,,,,,,,,,,,,,,,,,,,,,,,,,,,,,,,,,,41076.000000,1692624876.445614,0.000000,0.000000,0.000000,0.000000,0.000000,0.000000
1692624876.461598,0.550025,-0.444812,0.000139,66.941754,0.189676,-0.000008,0.082800,-0.188168,-0.000046,-0.013485,0.297790,0.000653,-0.018879,4.004818,0.000653,0.242880,-0.392123,0.000722,-1.968000,-0.061681,0.008000,-0.000817,1.398681,-0.005909,-1.781000,-0.025681,0.001000,0.018400,0.000000,-0.000138,-1.458857,0.000002,-0.000038,20931.000000,1692624876.442679,0.578286,-1.132913,-0.000048,-0.031543,0.079925,0.000048,,,,,,,,,
1692624876.472696,1.553011,-0.444812,0.000018,67.814908,0.189676,-0.000008,0.160080,-0.188168,-0.000046,-0.013485,0.297790,0.000653,-0.016182,4.004818,0.000653,0.276000,-0.392133,-0.000764,-1.967000,-0.061681,-0.007000,-0.000817,1.398681,-0.005909,-1.781000,-0.026682,0.001000,0.009200,0.000000,-0.000138,-1.537714,0.000002,-0.000038,20932.000000,1692624876.452682,0.552000,-1.132913,-0.000048,-0.126171,0.079925,0.000048,,,,,,,,,
1692624876.472717,,,,,,,,,,,,,,,,,,,,,,,,,,,,,,,,,,,,,,,,,,,41077.000000,1692624876.455565,0.000000,0.000000,0.000000,0.000000,0.000000,0.000000
1692624876.477112,,,,,,,,,,,,,,,,,,,,,,,,,,,,,,,,,,,,,,,,,,0.000000,,,,,,,,
1692624876.486115,,,,,,,,,,,,,,,,,,,,,,,,,,,,,,,,,,,,,,,,,,,41078.000000,1692624876.465710,0.000000,0.000000,0.000000,0.000000,0.000000,0.000000
1692624876.486128,1.245645,-0.444812,0.000018,67.814908,0.189676,-0.000008,0.143520,-0.188168,-0.000046,-0.010788,0.297790,0.000653,-0.013485,4.004818,0.000653,0.353280,-0.392123,0.000094,-1.965000,-0.060681,-0.002000,0.002046,1.398681,-0.005909,-1.781000,-0.027681,-0.004000,0.027600,0.000000,-0.000138,-1.741429,0.000002,-0.000038,20933.000000,1692624876.472681,0.609829,-1.132913,-0.000048,-0.057829,0.079925,0.000048,,,,,,,,,
1692624876.493109,,,,,,,,,,,,,,,,,,,,,,,,,,,,,,,,,,,,,,,,,,,41080.000000,1692624876.485616,0.000000,0.000000,0.000000,0.000000,0.000000,0.000000
1692624876.509715,,,,,,,,,,,,,,,,,,,,,,,,,,,,,,,,,,,,,,,,,,,41081.000000,1692624876.495710,0.000000,0.000000,0.000000,0.000000,0.000000,0.000000
1692624876.509732,1.795669,-0.444812,0.000018,67.232806,0.189676,-0.000008,0.121440,-0.188168,-0.000046,-0.016182,0.297790,0.000653,-0.013485,4.004818,0.000653,0.342240,-0.392123,0.000094,-1.965000,-0.060273,0.003000,0.000000,1.399272,-0.002954,-1.784000,-0.028272,-0.012000,-0.007360,0.000000,-0.000138,-1.688857,0.000002,-0.000038,20934.000000,1692624876.492680,0.546743,-1.132913,-0.000048,-0.068343,0.079925,0.000048,,,,,,,,,
1692624876.520301,,,,,,,,,,,,,,,,,,,,,,,,,,,,,,,,,,,,,,,,,,,41082.000000,1692624876.505558,0.000000,0.000000,0.000000,0.000000,0.000000,0.000000
1692624876.525309,,,,,,,,,,,,,,,,,,,,,,,,,,,,,,,,,,,,,,,,,,,41083.000000,1692624876.515656,0.000000,0.000000,0.000000,0.000000,0.000000,0.000000
1692624876.525318,0.792683,-0.444812,0.000018,67.523857,0.189676,-0.000008,0.110400,-0.188168,-0.000046,-0.018879,0.297790,0.000653,-0.016182,4.004818,0.000653,0.143520,-0.392123,0.004775,-1.965000,-0.060273,0.003000,0.003275,1.399272,-0.002954,-1.787000,-0.029272,-0.007000,-0.016560,0.000000,-0.000138,-1.662571,0.000002,-0.000038,20935.000000,1692624876.512680,0.609829,-1.132913,-0.000048,-0.094629,0.080306,0.000048,,,,,,,,,
1692624876.534058,,,,,,,,,,,,,,,,,,,,,,,,,,,,,,,,,,,,,,,,,,,41084.000000,1692624876.525648,0.000000,0.000000,0.000000,0.000000,0.000000,0.000000
1692624876.546209,,,,,,,,,,,,,,,,,,,,,,,,,,,,,,,,,,,,,,,,,,,41085.000000,1692624876.537641,0.000000,0.000000,0.000000,0.000000,0.000000,0.000000
1692624876.546229,0.339721,-0.444812,-0.000026,67.523857,0.189676,-0.000008,0.182160,-0.188168,-0.000046,-0.016182,0.297790,0.000653,-0.013485,4.004818,0.000653,0.209760,-0.392133,-0.001916,-1.963000,-0.058454,0.007000,0.000000,1.400454,0.000000,-1.791000,-0.030454,-0.006000,-0.038640,0.000000,-0.000138,-1.518000,0.000002,-0.000038,20936.000000,1692624876.532680,0.525714,-1.132913,-0.000048,-0.147200,0.079925,0.000048,,,,,,,,,
1692624876.560271,,,,,,,,,,,,,,,,,,,,,,,,,,,,,,,,,,,,,,,,,,,41086.000000,1692624876.545620,0.000000,0.000000,0.000000,0.000000,0.000000,0.000000
1692624876.563575,1.650075,-0.444812,0.000018,67.232806,0.189676,-0.000008,0.215280,-0.188168,-0.000046,-0.016182,0.297790,0.000653,-0.016182,4.004818,0.000653,0.264960,-0.392123,0.000094,-1.960000,-0.057454,0.025000,0.000000,1.400454,0.002363,-1.789000,-0.028455,0.000000,-0.036800,0.000000,-0.000138,-1.649429,0.000002,-0.000038,20937.000000,1692624876.552681,0.473143,-1.132913,-0.000048,-0.089371,0.080306,0.000048,,,,,,,,,
1692624876.570230,,,,,,,,,,,,,,,,,,,,,,,,,,,,,,,,,,,,,,,,,,,41087.000000,1692624876.555649,0.000000,0.000000,0.000000,0.000000,0.000000,0.000000
1692624876.582108,,,,,,,,,,,,,,,,,,,,,,,,,,,,,,,,,,,,,,,,,,,41088.000000,1692624876.565820,0.000000,0.000000,0.000000,0.000000,0.000000,0.000000
1692624876.589761,,,,,,,,,,,,,,,,,,,,,,,,,,,,,,,,,,,,,,,,,,0.000000,,,,,,,,
1692624876.599334,,,,,,,,,,,,,,,,,,,,,,,,,,,,,,,,,,,,,,,,,,,41090.000000,1692624876.585906,0.000000,0.000000,0.000000,0.000000,0.000000,0.000000
1692624876.599717,1.019164,-0.444812,0.000018,67.232806,0.189676,-0.000008,0.099360,-0.188168,-0.000046,-0.018879,0.297790,0.000653,-0.018879,4.004818,0.000653,0.320160,-0.392123,0.000094,-1.960000,-0.057863,0.017999,-0.001225,1.399863,0.002363,-1.789000,-0.028863,-0.004000,0.009200,0.000000,-0.000138,-1.583714,0.000002,-0.000038,20938.000000,1692624876.582686,0.588800,-1.132913,-0.000048,-0.141943,0.080306,0.000048,,,,,,,,,
1692624876.615918,,,,,,,,,,,,,,,,,,,,,,,,,,,,,,,,,,,,,,,,,,,41091.000000,1692624876.595836,0.000000,0.000000,0.000000,0.000000,0.000000,0.000000
1692624876.621159,-0.436784,-0.444428,0.000082,67.814908,0.189676,-0.000008,0.187680,-0.188168,-0.000046,-0.008091,0.297790,0.000653,-0.013485,4.004818,0.000653,0.088320,-0.392123,0.001277,-1.957000,-0.056863,0.017000,-0.001225,1.399863,-0.002954,-1.786000,-0.026863,0.001000,0.003680,0.000000,-0.000138,-1.570571,0.000002,-0.000038,20939.000000,1692624876.602684,0.594057,-1.132913,-0.000048,-0.194514,0.079925,0.000048,,,,,,,,,
1692624876.630227,,,,,,,,,,,,,,,,,,,,,,,,,,,,,,,,,,,,,,,,,,,41092.000000,1692624876.605644,0.000000,0.000000,0.000000,0.000000,0.000000,0.000000
1692624876.630242,,,,,,,,,,,,,,,,,,,,,,,,,,,,,,,,,,,,,,,,,,,41093.000000,1692624876.615562,0.000000,0.000000,0.000000,0.000000,0.000000,0.000000
1692624876.640824,0.954455,-0.444812,0.000048,68.105959,0.189676,-0.000008,0.132480,-0.188168,-0.000046,-0.010788,0.297790,0.000653,-0.013485,4.004818,0.000653,0.276000,-0.392123,0.005424,-1.957000,-0.057863,0.017000,0.002454,1.399863,0.000000,-1.786000,-0.027864,0.004999,0.012880,0.000000,-0.000138,-1.623143,0.000002,-0.000038,20940.000000,1692624876.612681,0.599314,-1.132913,-0.000048,-0.157714,0.079925,0.000048,,,,,,,,,
1692624876.647990,,,,,,,,,,,,,,,,,,,,,,,,,,,,,,,,,,,,,,,,,,,41094.000000,1692624876.625621,0.000000,0.000000,0.000000,0.000000,0.000000,0.000000
1692624876.654620,,,,,,,,,,,,,,,,,,,,,,,,,,,,,,,,,,,,,,,,,,,41095.000000,1692624876.635722,0.000000,0.000000,0.000000,0.000000,0.000000,0.000000
1692624876.659593,,,,,,,,,,,,,,,,,,,,,,,,,,,,,,,,,,,,,,,,,,,41096.000000,1692624876.645740,0.000000,0.000000,0.000000,0.000000,0.000000,0.000000
