__time,/kms40_driver/wrench/header/seq,/kms40_driver/wrench/header/stamp,/kms40_driver/wrench/wrench/force/x,/kms40_driver/wrench/wrench/force/y,/kms40_driver/wrench/wrench/force/z,/kms40_driver/wrench/wrench/torque/x,/kms40_driver/wrench/wrench/torque/y,/kms40_driver/wrench/wrench/torque/z,/wrench/header/seq,/wrench/header/stamp,/wrench/wrench/force/x,/wrench/wrench/force/y,/wrench/wrench/force/z,/wrench/wrench/torque/x,/wrench/wrench/torque/y,/wrench/wrench/torque/z
1696595521.890954,,,,,,,,,353957.000000000,1696595521.888650179,30.354938112,6.958270174,18.247098597,3.359240482,-8.575367168,1.291372682
1696595521.892432,1289047.000000000,1696595521.890249252,-0.007000000,0.005000000,-0.051000000,0.000000000,0.000000000,0.001000000,,,,,,,,
1696595521.894416,1289048.000000000,1696595521.892208338,-0.007000000,0.006000000,-0.052000000,0.000000000,0.000000000,0.001000000,,,,,,,,
1696595521.896745,1289049.000000000,1696595521.894178391,-0.006000000,0.006000000,-0.055000000,0.000000000,0.000000000,0.001000000,,,,,,,,
1696595521.898452,1289050.000000000,1696595521.896235943,-0.007000000,0.006000000,-0.055000000,0.000000000,0.000000000,0.001000000,,,,,,,,
1696595521.899174,,,,,,,,,353958.000000000,1696595521.896559477,30.730831120,8.516660969,18.068370801,3.897462560,-8.634194283,1.306923147
1696595521.900403,1289051.000000000,1696595521.898217201,-0.008000000,0.006000000,-0.055000000,0.000000000,0.000000000,0.001000000,,,,,,,,
1696595521.902448,1289052.000000000,1696595521.900265694,-0.008000000,0.006000000,-0.056000000,0.000000000,0.000000000,0.001000000,,,,,,,,
1696595521.904444,1289053.000000000,1696595521.902223349,-0.009000000,0.006000000,-0.055000000,0.000000000,0.000000000,0.001000000,,,,,,,,
1696595521.906323,1289054.000000000,1696595521.904184818,-0.008000000,0.005000000,-0.054000000,0.000000000,0.000000000,0.001000000,,,,,,,,
1696595521.906673,,,,,,,,,353959.000000000,1696595521.904545784,30.980823491,7.139211951,18.378164336,3.409722230,-8.860236506,1.265513790
1696595521.908403,1289055.000000000,1696595521.906218529,-0.007000000,0.005000000,-0.053000000,0.000000000,0.000000000,0.001000000,,,,,,,,
1696595521.910490,1289056.000000000,1696595521.908204317,-0.006000000,0.004000000,-0.051000000,0.000000000,0.000000000,0.001000000,,,,,,,,
1696595521.912838,1289057.000000000,1696595521.910239935,-0.005000000,0.004000000,-0.048000000,0.000000000,0.000000000,0.001000000,,,,,,,,
1696595521.914410,1289058.000000000,1696595521.912238836,-0.004000000,0.003000000,-0.046000000,0.000000000,0.000000000,0.001000000,,,,,,,,
1696595521.914767,,,,,,,,,353960.000000000,1696595521.912609100,30.137414873,7.536545532,17.941627202,3.558776856,-8.263295989,1.340074578
1696595521.916416,1289059.000000000,1696595521.914252043,-0.003000000,0.003000000,-0.043000000,0.000000000,0.000000000,0.001000000,,,,,,,,
1696595521.918358,1289060.000000000,1696595521.916193485,-0.003000000,0.002000000,-0.040000000,0.000000000,0.000000000,0.001000000,,,,,,,,
1696595521.920392,1289061.000000000,1696595521.918208361,-0.003000000,0.001000000,-0.038000000,0.000000000,0.000000000,0.001000000,,,,,,,,
1696595521.922426,1289062.000000000,1696595521.920241594,-0.003000000,0.000000000,-0.036000000,0.000000000,0.000000000,0.000000000,,,,,,,,
1696595521.923341,,,,,,,,,353961.000000000,1696595521.920525551,30.851605045,7.112734679,18.693672445,3.398393277,-8.803822946,1.402542957
1696595521.924383,1289063.000000000,1696595521.922216415,-0.003000000,0.000000000,-0.033000000,0.000000000,0.000000000,0.000000000,,,,,,,,
1696595521.926397,1289064.000000000,1696595521.924195290,-0.003000000,-0.001000000,-0.030000000,0.000000000,0.000000000,0.000000000,,,,,,,,
1696595521.928487,1289065.000000000,1696595521.926247597,-0.003000000,-0.002000000,-0.026000000,0.000000000,0.000000000,0.000000000,,,,,,,,
1696595521.930556,1289066.000000000,1696595521.928226233,-0.002000000,-0.003000000,-0.023000000,0.000000000,0.000000000,0.000000000,,,,,,,,
1696595521.931018,,,,,,,,,353962.000000000,1696595521.928667068,30.910749766,7.895477295,18.011240097,3.672759578,-8.706241317,1.354633030
1696595521.932406,1289067.000000000,1696595521.930208683,-0.001000000,-0.004000000,-0.018000000,0.000000000,0.000000000,0.000000000,,,,,,,,
1696595521.934384,1289068.000000000,1696595521.932207823,0.000000000,-0.005000000,-0.015000000,0.000000000,0.000000000,0.000000000,,,,,,,,
1696595521.937460,1289069.000000000,1696595521.934267759,0.001000000,-0.006000000,-0.011000000,0.000000000,0.000000000,0.000000000,,,,,,,,
1696595521.938407,1289070.000000000,1696595521.936207533,0.002000000,-0.007000000,-0.008000000,0.000000000,0.000000000,0.000000000,,,,,,,,
1696595521.939591,,,,,,,,,353963.000000000,1696595521.936539412,30.753519543,7.766877101,18.157422447,3.721954825,-8.655228557,1.313724796
1696595521.940358,1289071.000000000,1696595521.938198090,0.003000000,-0.007000000,-0.005000000,0.000000000,0.000000000,0.000000000,,,,,,,,
1696595521.942461,1289072.000000000,1696595521.940218687,0.003000000,-0.008000000,-0.001000000,0.000000000,0.000000000,0.000000000,,,,,,,,
1696595521.944412,1289073.000000000,1696595521.942198515,0.003000000,-0.009000000,0.000000000,0.000000000,0.000000000,0.000000000,,,,,,,,
1696595521.946629,1289074.000000000,1696595521.944198847,0.003000000,-0.010000000,0.002000000,0.000000000,0.000000000,0.000000000,,,,,,,,
1696595521.946996,,,,,,,,,353964.000000000,1696595521.944588661,30.327120368,6.929844243,18.836054505,3.319328963,-8.472069734,1.305228151
1696595521.948390,1289075.000000000,1696595521.946215630,0.003000000,-0.011000000,0.004000000,0.000000000,0.000000000,0.000000000,,,,,,,,
1696595521.950509,1289076.000000000,1696595521.948194265,0.003000000,-0.011000000,0.007000000,0.000000000,0.000000000,0.000000000,,,,,,,,
1696595521.952370,1289077.000000000,1696595521.950217724,0.003000000,-0.012000000,0.010000000,0.000000000,0.000000000,0.000000000,,,,,,,,
1696595521.954392,1289078.000000000,1696595521.952189207,0.004000000,-0.013000000,0.012000000,0.000000000,0.000000000,0.000000000,,,,,,,,
1696595521.954763,,,,,,,,,353965.000000000,1696595521.952532530,30.791834203,7.344084154,17.964825558,3.418204028,-8.679837475,1.386424149
1696595521.956457,1289079.000000000,1696595521.954198837,0.005000000,-0.013000000,0.015000000,0.000000000,0.000000000,0.000000000,,,,,,,,
1696595521.958466,1289080.000000000,1696595521.956274271,0.007000000,-0.013000000,0.017000000,0.000000000,0.000000000,0.000000000,,,,,,,,
1696595521.960404,1289081.000000000,1696595521.958237410,0.007000000,-0.014000000,0.020000000,0.000000000,0.000000000,0.000000000,,,,,,,,
1696595521.962734,1289082.000000000,1696595521.960200787,0.008000000,-0.014000000,0.021000000,0.000000000,0.000000000,0.000000000,,,,,,,,
1696595521.963587,,,,,,,,,353966.000000000,1696595521.960575819,30.685475179,7.331457657,17.834207180,3.496352786,-8.712633202,1.413477705
1696595521.964457,1289083.000000000,1696595521.962215662,0.008000000,-0.014000000,0.022000000,0.000000000,0.000000000,0.000000000,,,,,,,,
1696595521.966390,1289084.000000000,1696595521.964210987,0.007000000,-0.014000000,0.023000000,0.000000000,0.000000000,0.000000000,,,,,,,,
1696595521.968408,1289085.000000000,1696595521.966210365,0.007000000,-0.015000000,0.024000000,0.000000000,0.000000000,0.000000000,,,,,,,,
1696595521.970502,1289086.000000000,1696595521.968206167,0.006000000,-0.015000000,0.025000000,0.000000000,0.000000000,0.000000000,,,,,,,,
1696595521.971048,,,,,,,,,353967.000000000,1696595521.968649387,30.809488252,7.207347456,18.215033738,3.367322339,-8.689433644,1.250271332
1696595521.972387,1289087.000000000,1696595521.970212460,0.005000000,-0.015000000,0.026000000,0.000000000,0.000000000,0.000000000,,,,,,,,
1696595521.974436,1289088.000000000,1696595521.972212076,0.005000000,-0.016000000,0.028000000,0.000000000,0.000000000,0.000000000,,,,,,,,
1696595521.976486,1289089.000000000,1696595521.974210978,0.006000000,-0.016000000,0.027000000,0.000000000,0.000000000,0.000000000,,,,,,,,
1696595521.978426,1289090.000000000,1696595521.976206541,0.006000000,-0.016000000,0.030000000,0.000000000,0.000000000,0.000000000,,,,,,,,
1696595521.978967,,,,,,,,,353968.000000000,1696595521.976593494,29.976540535,6.532346655,17.857883777,3.182304389,-8.167886733,1.251967603
1696595521.980572,1289091.000000000,1696595521.978300095,0.007000000,-0.016000000,0.031000000,0.000000000,0.000000000,0.000000000,,,,,,,,
1696595521.982339,1289092.000000000,1696595521.980194569,0.007000000,-0.016000000,0.033000000,0.000000000,0.000000000,0.000000000,,,,,,,,
1696595521.984483,1289093.000000000,1696595521.982242346,0.007000000,-0.016000000,0.034000000,0.000000000,0.000000000,0.000000000,,,,,,,,
1696595521.986596,1289094.000000000,1696595521.984211445,0.007000000,-0.016000000,0.034000000,0.000000000,0.000000000,0.000000000,,,,,,,,
1696595521.987978,,,,,,,,,353969.000000000,1696595521.984586239,30.977265193,6.796275146,18.872610056,3.254563752,-8.931862876,1.296045190
1696595521.988542,1289095.000000000,1696595521.986238003,0.006000000,-0.016000000,0.034000000,0.000000000,0.000000000,0.000000000,,,,,,,,
1696595521.990396,1289096.000000000,1696595521.988212824,0.005000000,-0.016000000,0.034000000,0.000000000,0.000000000,0.000000000,,,,,,,,
1696595521.992445,1289097.000000000,1696595521.990226984,0.004000000,-0.017000000,0.035000000,0.000000000,0.000000000,0.000000000,,,,,,,,
1696595521.994511,1289098.000000000,1696595521.992187977,0.003000000,-0.017000000,0.035000000,0.000000000,0.000000000,0.000000000,,,,,,,,
1696595521.995204,,,,,,,,,353970.000000000,1696595521.992540359,30.523143368,7.592846472,18.747237259,3.572842263,-8.618891894,1.231602975
1696595521.996463,1289099.000000000,1696595521.994190693,0.002000000,-0.017000000,0.036000000,0.000000000,0.000000000,0.000000000,,,,,,,,
1696595521.998551,1289100.000000000,1696595521.996233940,0.002000000,-0.017000000,0.037000000,0.000000000,0.000000000,0.000000000,,,,,,,,
1696595522.000455,1289101.000000000,1696595521.998208761,0.002000000,-0.017000000,0.037000000,0.000000000,0.000000000,0.000000000,,,,,,,,
1696595522.002581,1289102.000000000,1696595522.000238657,0.002000000,-0.017000000,0.040000000,0.000000000,0.000000000,0.000000000,,,,,,,,
1696595522.003172,,,,,,,,,353971.000000000,1696595522.000554085,30.225639720,7.689743841,18.329347466,3.557012841,-8.309421631,1.284181207
1696595522.004521,1289103.000000000,1696595522.002219200,0.002000000,-0.017000000,0.041000000,0.000000000,0.000000000,0.000000000,,,,,,,,
1696595522.006472,1289104.000000000,1696595522.004204035,0.003000000,-0.017000000,0.041000000,0.000000000,0.000000000,0.000000000,,,,,,,,
1696595522.008511,1289105.000000000,1696595522.006295919,0.002000000,-0.017000000,0.042000000,0.000000000,0.000000000,0.000000000,,,,,,,,
1696595522.010596,1289106.000000000,1696595522.008238316,0.002000000,-0.017000000,0.042000000,0.000000000,0.000000000,0.000000000,,,,,,,,
1696595522.011510,,,,,,,,,353972.000000000,1696595522.008727551,30.515427174,7.713884604,17.756999366,3.567878469,-8.493843162,1.326708302
1696595522.012670,1289107.000000000,1696595522.010203362,0.001000000,-0.017000000,0.042000000,0.000000000,0.000000000,0.000000000,,,,,,,,
1696595522.014353,1289108.000000000,1696595522.012199640,0.000000000,-0.018000000,0.042000000,0.000000000,0.000000000,0.000000000,,,,,,,,
1696595522.016408,1289109.000000000,1696595522.014224052,-0.001000000,-0.018000000,0.042000000,0.000000000,0.000000000,0.000000000,,,,,,,,
1696595522.018330,1289110.000000000,1696595522.016181231,-0.002000000,-0.018000000,0.042000000,0.000000000,0.000000000,0.000000000,,,,,,,,
1696595522.019269,,,,,,,,,353973.000000000,1696595522.016584635,30.635822095,7.953689765,18.233106245,3.678848767,-8.628040815,1.311448883
1696595522.020458,1289111.000000000,1696595522.018236399,-0.002000000,-0.019000000,0.042000000,0.000000000,0.000000000,0.000000000,,,,,,,,
1696595522.022448,1289112.000000000,1696595522.020203352,-0.002000000,-0.019000000,0.042000000,0.000000000,0.000000000,0.000000000,,,,,,,,
1696595522.024469,1289113.000000000,1696595522.022290230,-0.002000000,-0.019000000,0.043000000,0.000000000,0.000000000,0.000000000,,,,,,,,
1696595522.026455,1289114.000000000,1696595522.024193287,-0.001000000,-0.018000000,0.043000000,0.000000000,0.000000000,0.000000000,,,,,,,,
1696595522.026962,,,,,,,,,353974.000000000,1696595522.024625778,30.548930141,7.180715388,18.192705319,3.371447344,-8.608641698,1.304142427
1696595522.028399,1289115.000000000,1696595522.026217222,-0.001000000,-0.019000000,0.043000000,0.000000000,0.000000000,0.000000000,,,,,,,,
1696595522.030945,1289116.000000000,1696595522.028191090,-0.001000000,-0.019000000,0.042000000,0.000000000,0.000000000,0.000000000,,,,,,,,
1696595522.032466,1289117.000000000,1696595522.030215740,-0.001000000,-0.019000000,0.042000000,0.000000000,0.000000000,0.000000000,,,,,,,,
1696595522.034422,1289118.000000000,1696595522.032201767,-0.002000000,-0.019000000,0.041000000,0.000000000,0.000000000,0.000000000,,,,,,,,
1696595522.034914,,,,,,,,,353975.000000000,1696595522.032550335,30.480037554,6.858468538,18.710942765,3.266391121,-8.529269841,1.292911334
1696595522.036486,1289119.000000000,1696595522.034206390,-0.002000000,-0.019000000,0.040000000,0.000000000,0.000000000,0.000000000,,,,,,,,
1696595522.039330,1289120.000000000,1696595522.036478758,-0.003000000,-0.019000000,0.039000000,0.000000000,0.000000000,0.000000000,,,,,,,,
1696595522.040491,1289121.000000000,1696595522.038216114,-0.004000000,-0.020000000,0.038000000,0.000000000,0.000000000,0.000000000,,,,,,,,
1696595522.042590,1289122.000000000,1696595522.040247440,-0.004000000,-0.020000000,0.038000000,0.000000000,0.000000000,0.000000000,,,,,,,,
1696595522.043270,,,,,,,,,353976.000000000,1696595522.040547371,30.191127729,7.085164467,18.100855907,3.366437021,-8.340711819,1.358123432
1696595522.044425,1289123.000000000,1696595522.042214394,-0.004000000,-0.020000000,0.037000000,0.000000000,0.000000000,0.000000000,,,,,,,,
1696595522.046434,1289124.000000000,1696595522.044224262,-0.004000000,-0.020000000,0.037000000,0.000000000,0.000000000,0.000000000,,,,,,,,
1696595522.048460,1289125.000000000,1696595522.046237707,-0.003000000,-0.020000000,0.037000000,0.000000000,0.000000000,0.000000000,,,,,,,,
1696595522.050523,1289126.000000000,1696595522.048197269,-0.003000000,-0.020000000,0.037000000,0.000000000,0.000000000,0.000000000,,,,,,,,
1696595522.051386,,,,,,,,,353977.000000000,1696595522.048630714,31.092596548,8.225478572,17.544910144,3.795273853,-8.724203841,1.187678432
1696595522.052481,1289127.000000000,1696595522.050208092,-0.002000000,-0.020000000,0.037000000,0.000000000,0.000000000,0.000000000,,,,,,,,
1696595522.054389,1289128.000000000,1696595522.052191734,-0.002000000,-0.020000000,0.037000000,0.000000000,0.000000000,0.000000000,,,,,,,,
1696595522.056538,1289129.000000000,1696595522.054211855,-0.002000000,-0.020000000,0.036000000,0.000000000,0.000000000,0.000000000,,,,,,,,
1696595522.058433,1289130.000000000,1696595522.056190729,-0.003000000,-0.020000000,0.035000000,0.000000000,0.000000000,0.000000000,,,,,,,,
1696595522.059055,,,,,,,,,353978.000000000,1696595522.056538343,30.333816510,7.130214141,18.668093242,3.405565233,-8.555034099,1.289730317
1696595522.060991,1289131.000000000,1696595522.058240652,-0.004000000,-0.020000000,0.034000000,0.000000000,0.000000000,0.000000000,,,,,,,,
1696595522.063655,1289132.000000000,1696595522.060192585,-0.005000000,-0.020000000,0.036000000,0.000000000,0.000000000,0.000000000,,,,,,,,
1696595522.064492,1289133.000000000,1696595522.062300205,-0.006000000,-0.020000000,0.037000000,0.000000000,0.000000000,0.000000000,,,,,,,,
1696595522.066393,1289134.000000000,1696595522.064189672,-0.006000000,-0.020000000,0.037000000,0.000000000,0.000000000,0.000000000,,,,,,,,
1696595522.067404,,,,,,,,,353979.000000000,1696595522.064611673,30.105919854,7.513505808,17.795373223,3.510266614,-8.214053146,1.188906801
1696595522.068426,1289135.000000000,1696595522.066241264,-0.006000000,-0.020000000,0.037000000,0.000000000,0.000000000,0.000000000,,,,,,,,
1696595522.070460,1289136.000000000,1696595522.068190098,-0.006000000,-0.020000000,0.039000000,0.000000000,0.000000000,0.000000000,,,,,,,,
1696595522.072415,1289137.000000000,1696595522.070208549,-0.005000000,-0.020000000,0.040000000,0.000000000,0.000000000,0.000000000,,,,,,,,
1696595522.074349,1289138.000000000,1696595522.072190762,-0.005000000,-0.019000000,0.041000000,0.000000000,0.000000000,0.000000000,,,,,,,,
1696595522.075121,,,,,,,,,353980.000000000,1696595522.072548151,30.048967959,6.912940173,18.603596669,3.343235965,-8.252444520,1.262696768
1696595522.076434,1289139.000000000,1696595522.074214935,-0.005000000,-0.019000000,0.042000000,0.000000000,0.000000000,0.000000000,,,,,,,,
1696595522.078512,1289140.000000000,1696595522.076210260,-0.006000000,-0.019000000,0.043000000,0.000000000,0.000000000,0.000000000,,,,,,,,
1696595522.080385,1289141.000000000,1696595522.078224421,-0.007000000,-0.019000000,0.045000000,0.000000000,0.000000000,0.000000000,,,,,,,,
1696595522.082344,1289142.000000000,1696595522.080199957,-0.008000000,-0.019000000,0.046000000,0.000000000,0.000000000,0.000000000,,,,,,,,
1696595522.084337,,,,,,,,,353981.000000000,1696595522.080591917,30.608973805,7.358717227,17.859697989,3.493060312,-8.601863357,1.206642696
1696595522.085047,1289143.000000000,1696595522.082210541,-0.010000000,-0.019000000,0.047000000,0.000000000,0.000000000,0.000000000,,,,,,,,
1696595522.086375,1289144.000000000,1696595522.084205151,-0.011000000,-0.019000000,0.048000000,0.000000000,0.000000000,0.000000000,,,,,,,,
1696595522.088422,1289145.000000000,1696595522.086249828,-0.012000000,-0.019000000,0.050000000,0.000000000,0.000000000,0.000000000,,,,,,,,
1696595522.090434,1289146.000000000,1696595522.088242292,-0.012000000,-0.018000000,0.053000000,0.000000000,0.000000000,0.000000000,,,,,,,,
1696595522.091810,,,,,,,,,353982.000000000,1696595522.088635683,29.996059497,7.340425794,18.284049581,3.512864428,-8.287665657,1.272357852
1696595522.092676,1289147.000000000,1696595522.090250969,-0.013000000,-0.018000000,0.056000000,0.000000000,0.000000000,-0.001000000,,,,,,,,
1696595522.094371,1289148.000000000,1696595522.092211723,-0.013000000,-0.018000000,0.058000000,0.000000000,0.000000000,-0.001000000,,,,,,,,
1696595522.096372,1289149.000000000,1696595522.094231606,-0.013000000,-0.017000000,0.060000000,0.000000000,0.000000000,-0.001000000,,,,,,,,
1696595522.098385,1289150.000000000,1696595522.096203566,-0.013000000,-0.017000000,0.062000000,0.000000000,0.000000000,-0.001000000,,,,,,,,
1696595522.099545,,,,,,,,,353983.000000000,1696595522.096551180,30.482196193,7.297874217,18.166048171,3.483790891,-8.510060534,1.206527406
1696595522.100451,1289151.000000000,1696595522.098223448,-0.014000000,-0.016000000,0.065000000,0.000000000,0.000000000,-0.001000000,,,,,,,,
1696595522.102443,1289152.000000000,1696595522.100233316,-0.015000000,-0.016000000,0.065000000,0.000000000,0.000000000,-0.001000000,,,,,,,,
1696595522.104410,1289153.000000000,1696595522.102218151,-0.017000000,-0.016000000,0.067000000,0.000000000,0.000000000,-0.001000000,,,,,,,,
1696595522.106359,1289154.000000000,1696595522.104194641,-0.019000000,-0.015000000,0.071000000,0.000000000,0.000000000,-0.001000000,,,,,,,,
1696595522.107164,,,,,,,,,353984.000000000,1696595522.104594946,30.617397324,7.531208827,18.342686198,3.497278632,-8.670886683,1.260134013
1696595522.108399,1289155.000000000,1696595522.106244087,-0.020000000,-0.015000000,0.070000000,0.000000000,0.000000000,-0.001000000,,,,,,,,
1696595522.110463,1289156.000000000,1696595522.108231306,-0.021000000,-0.015000000,0.072000000,0.000000000,0.000000000,-0.001000000,,,,,,,,
1696595522.112686,1289157.000000000,1696595522.110311270,-0.022000000,-0.014000000,0.073000000,0.000000000,0.000000000,-0.001000000,,,,,,,,
1696595522.114549,1289158.000000000,1696595522.112251759,-0.022000000,-0.014000000,0.074000000,0.000000000,0.000000000,-0.001000000,,,,,,,,
1696595522.115442,,,,,,,,,353985.000000000,1696595522.112552643,30.293582709,6.172810662,17.909393383,3.036467848,-8.443826202,1.256817385
1696595522.116453,1289159.000000000,1696595522.114231110,-0.022000000,-0.013000000,0.076000000,0.000000000,0.000000000,-0.001000000,,,,,,,,
1696595522.118477,1289160.000000000,1696595522.116276264,-0.022000000,-0.012000000,0.076000000,0.000000000,0.000000000,-0.001000000,,,,,,,,
1696595522.120457,1289161.000000000,1696595522.118223429,-0.022000000,-0.012000000,0.077000000,0.000000000,0.000000000,-0.001000000,,,,,,,,
1696595522.122531,1289162.000000000,1696595522.120228767,-0.022000000,-0.011000000,0.077000000,0.000000000,0.000000000,-0.001000000,,,,,,,,
1696595522.123768,,,,,,,,,353986.000000000,1696595522.120563507,30.882946633,6.983438281,18.139905924,3.355108945,-8.767745061,1.225155698
1696595522.124426,1289163.000000000,1696595522.122241259,-0.023000000,-0.010000000,0.076000000,0.000000000,0.000000000,-0.001000000,,,,,,,,
1696595522.126421,1289164.000000000,1696595522.124210835,-0.024000000,-0.010000000,0.075000000,0.000000000,0.000000000,-0.001000000,,,,,,,,
1696595522.128542,1289165.000000000,1696595522.126331329,-0.025000000,-0.009000000,0.074000000,0.000000000,0.000000000,-0.001000000,,,,,,,,
1696595522.130853,1289166.000000000,1696595522.128224611,-0.026000000,-0.009000000,0.072000000,0.000000000,0.000000000,-0.001000000,,,,,,,,
1696595522.131339,,,,,,,,,353987.000000000,1696595522.128653765,30.209098809,7.448536386,17.900076257,3.513215453,-8.321336896,1.245006655
1696595522.132493,1289167.000000000,1696595522.130279779,-0.026000000,-0.008000000,0.070000000,0.000000000,0.000000000,-0.001000000,,,,,,,,
1696595522.134495,1289168.000000000,1696595522.132246494,-0.026000000,-0.007000000,0.068000000,0.000000000,0.000000000,-0.001000000,,,,,,,,
1696595522.136490,1289169.000000000,1696595522.134222507,-0.026000000,-0.006000000,0.066000000,0.000000000,0.000000000,-0.001000000,,,,,,,,
1696595522.138473,1289170.000000000,1696595522.136212587,-0.026000000,-0.005000000,0.064000000,0.000000000,0.000000000,-0.001000000,,,,,,,,
1696595522.139397,,,,,,,,,353988.000000000,1696595522.136573076,30.361373375,8.164954826,17.984887195,3.757854401,-8.417150982,1.266902700
1696595522.141455,1289171.000000000,1696595522.139137983,-0.025000000,-0.005000000,0.060000000,0.000000000,0.000000000,-0.001000000,,,,,,,,
1696595522.142562,1289172.000000000,1696595522.140293837,-0.024000000,-0.003000000,0.058000000,0.000000000,0.000000000,-0.001000000,,,,,,,,
1696595522.144491,1289173.000000000,1696595522.142243624,-0.023000000,-0.002000000,0.054000000,0.000000000,0.000000000,-0.001000000,,,,,,,,
1696595522.146710,1289174.000000000,1696595522.144243240,-0.023000000,-0.001000000,0.050000000,0.000000000,0.000000000,-0.001000000,,,,,,,,
1696595522.147468,,,,,,,,,353989.000000000,1696595522.144536018,30.567627386,6.847627830,17.730228718,3.280114929,-8.695225048,1.334701345
1696595522.148395,1289175.000000000,1696595522.146219492,-0.024000000,-0.001000000,0.046000000,0.000000000,0.000000000,-0.001000000,,,,,,,,
1696595522.150387,1289176.000000000,1696595522.148195744,-0.024000000,0.000000000,0.041000000,0.000000000,0.000000000,0.000000000,,,,,,,,
1696595522.152447,1289177.000000000,1696595522.150228739,-0.024000000,0.000000000,0.036000000,0.000000000,0.000000000,0.000000000,,,,,,,,
1696595522.154596,1289178.000000000,1696595522.152200222,-0.025000000,0.001000000,0.032000000,0.000000000,0.000000000,0.000000000,,,,,,,,
1696595522.155038,,,,,,,,,353990.000000000,1696595522.152602673,30.871123283,7.917524876,18.759406031,3.677260102,-8.662891189,1.450455270
1696595522.156432,1289179.000000000,1696595522.154265165,-0.024000000,0.001000000,0.027000000,0.000000000,0.000000000,0.000000000,,,,,,,,
1696595522.158349,1289180.000000000,1696595522.156186819,-0.024000000,0.002000000,0.023000000,0.000000000,0.000000000,0.000000000,,,,,,,,
1696595522.160414,1289181.000000000,1696595522.158235550,-0.023000000,0.003000000,0.018000000,0.000000000,0.000000000,0.000000000,,,,,,,,
1696595522.162505,1289182.000000000,1696595522.160200357,-0.022000000,0.004000000,0.014000000,0.000000000,0.000000000,0.000000000,,,,,,,,
1696595522.163424,,,,,,,,,353991.000000000,1696595522.160632372,30.866267950,8.366195116,18.140865077,3.827485799,-8.807423926,1.405191422
1696595522.164583,1289183.000000000,1696595522.162231445,-0.020000000,0.005000000,0.010000000,0.000000000,0.000000000,0.000000000,,,,,,,,
1696595522.166368,1289184.000000000,1696595522.164189100,-0.019000000,0.006000000,0.006000000,0.000000000,0.000000000,0.000000000,,,,,,,,
1696595522.168445,1289185.000000000,1696595522.166215181,-0.019000000,0.006000000,0.002000000,0.000000000,0.000000000,0.000000000,,,,,,,,
1696595522.170408,1289186.000000000,1696595522.168187618,-0.019000000,0.007000000,-0.002000000,0.000000000,0.000000000,0.000000000,,,,,,,,
1696595522.172885,,,,,,,,,353992.000000000,1696595522.168639421,30.811779558,7.738223129,18.356540750,3.627909553,-8.671144665,1.286789715
1696595522.173598,1289187.000000000,1696595522.170224428,-0.019000000,0.008000000,-0.005000000,0.000000000,0.000000000,0.000000000,,,,,,,,
1696595522.174470,1289188.000000000,1696595522.172228098,-0.019000000,0.008000000,-0.009000000,0.000000000,0.000000000,0.000000000,,,,,,,,
1696595522.176481,1289189.000000000,1696595522.174218893,-0.019000000,0.008000000,-0.013000000,0.000000000,0.000000000,0.000000000,,,,,,,,
1696595522.178452,1289190.000000000,1696595522.176242590,-0.019000000,0.008000000,-0.016000000,0.000000000,0.000000000,0.000000000,,,,,,,,
1696595522.179193,,,,,,,,,353993.000000000,1696595522.176529884,30.793744714,7.630890167,18.549912016,3.559513669,-8.764898039,1.315145725
1696595522.180776,1289191.000000000,1696595522.178240538,-0.019000000,0.009000000,-0.018000000,0.000000000,0.000000000,0.000000000,,,,,,,,
1696595522.182422,1289192.000000000,1696595522.180197954,-0.018000000,0.009000000,-0.019000000,0.000000000,0.000000000,0.000000000,,,,,,,,
1696595522.184538,1289193.000000000,1696595522.182224035,-0.017000000,0.009000000,-0.020000000,0.000000000,0.000000000,0.000000000,,,,,,,,
1696595522.186550,1289194.000000000,1696595522.184206486,-0.016000000,0.009000000,-0.020000000,0.000000000,0.000000000,0.000000000,,,,,,,,
1696595522.187934,,,,,,,,,353994.000000000,1696595522.184553862,30.836277192,7.228964508,18.361254946,3.387474188,-8.777550338,1.332695575
1696595522.188687,1289195.000000000,1696595522.186259270,-0.015000000,0.009000000,-0.019000000,0.000000000,0.000000000,0.000000000,,,,,,,,
1696595522.190565,1289196.000000000,1696595522.188202858,-0.015000000,0.009000000,-0.019000000,0.000000000,0.000000000,0.000000000,,,,,,,,
1696595522.192462,1289197.000000000,1696595522.190232992,-0.015000000,0.009000000,-0.020000000,0.000000000,0.000000000,0.000000000,,,,,,,,
1696595522.194433,1289198.000000000,1696595522.192206860,-0.015000000,0.008000000,-0.020000000,0.000000000,0.000000000,0.000000000,,,,,,,,
1696595522.194872,,,,,,,,,353995.000000000,1696595522.192571640,29.863559046,7.538455408,18.658234655,3.541374536,-8.226026199,1.173680735
1696595522.196494,1289199.000000000,1696595522.194235325,-0.016000000,0.008000000,-0.018000000,0.000000000,0.000000000,0.000000000,,,,,,,,
1696595522.198584,1289200.000000000,1696595522.196268320,-0.017000000,0.007000000,-0.017000000,0.000000000,0.000000000,0.000000000,,,,,,,,
1696595522.200654,1289201.000000000,1696595522.198316336,-0.017000000,0.007000000,-0.015000000,0.000000000,0.000000000,0.000000000,,,,,,,,
1696595522.202575,1289202.000000000,1696595522.200247526,-0.017000000,0.006000000,-0.011000000,0.000000000,0.000000000,0.000000000,,,,,,,,
1696595522.203422,,,,,,,,,353996.000000000,1696595522.200549841,30.886198389,7.279377236,18.221277925,3.366169644,-8.697030040,1.291266155
1696595522.204762,1289203.000000000,1696595522.202277660,-0.017000000,0.005000000,-0.007000000,0.000000000,0.000000000,0.000000000,,,,,,,,
1696595522.206515,1289204.000000000,1696595522.204243660,-0.017000000,0.005000000,-0.003000000,0.000000000,0.000000000,0.000000000,,,,,,,,
1696595522.208514,1289205.000000000,1696595522.206273079,-0.016000000,0.004000000,0.000000000,0.000000000,0.000000000,0.000000000,,,,,,,,
1696595522.210602,1289206.000000000,1696595522.208395004,-0.016000000,0.003000000,0.005000000,0.000000000,0.000000000,0.000000000,,,,,,,,
1696595522.211671,,,,,,,,,353997.000000000,1696595522.208625317,30.445833639,7.426522855,18.208662642,3.475011893,-8.485220219,1.328908964
1696595522.212732,1289207.000000000,1696595522.210260630,-0.016000000,0.003000000,0.008000000,0.000000000,0.000000000,0.000000000,,,,,,,,
1696595522.214447,1289208.000000000,1696595522.212255001,-0.016000000,0.002000000,0.014000000,0.000000000,0.000000000,0.000000000,,,,,,,,
1696595522.216502,1289209.000000000,1696595522.214266062,-0.016000000,0.001000000,0.018000000,0.000000000,0.000000000,0.000000000,,,,,,,,
1696595522.218497,1289210.000000000,1696595522.216237783,-0.017000000,0.000000000,0.023000000,0.000000000,0.000000000,0.000000000,,,,,,,,
1696595522.219117,,,,,,,,,353998.000000000,1696595522.216573715,30.425692398,8.193399859,18.198829083,3.767162949,-8.424696441,1.308221912
1696595522.220403,1289211.000000000,1696595522.218222857,-0.018000000,0.000000000,0.026000000,0.000000000,0.000000000,0.000000000,,,,,,,,
1696595522.222502,1289212.000000000,1696595522.220350742,-0.019000000,-0.001000000,0.031000000,0.000000000,0.000000000,0.000000000,,,,,,,,
1696595522.224425,1289213.000000000,1696595522.222267866,-0.019000000,-0.002000000,0.036000000,0.000000000,0.000000000,0.000000000,,,,,,,,
1696595522.226369,1289214.000000000,1696595522.224220276,-0.020000000,-0.003000000,0.042000000,0.000000000,0.000000000,0.000000000,,,,,,,,
1696595522.227115,,,,,,,,,353999.000000000,1696595522.224554300,30.034732348,7.156281702,18.302732193,3.405690809,-8.211413450,1.246707411
1696595522.228553,1289215.000000000,1696595522.226297855,-0.019000000,-0.004000000,0.047000000,0.000000000,0.000000000,0.000000000,,,,,,,,
1696595522.230669,1289216.000000000,1696595522.228272915,-0.019000000,-0.005000000,0.052000000,0.000000000,0.000000000,0.000000000,,,,,,,,
1696595522.232488,1289217.000000000,1696595522.230270863,-0.019000000,-0.005000000,0.058000000,0.000000000,0.000000000,-0.001000000,,,,,,,,
1696595522.234496,1289218.000000000,1696595522.232248545,-0.017000000,-0.006000000,0.060000000,0.000000000,0.000000000,-0.001000000,,,,,,,,
1696595522.235664,,,,,,,,,354000.000000000,1696595522.232547522,30.042652269,7.074494471,18.718579339,3.345634382,-8.277514997,1.288716577
1696595522.236583,1289219.000000000,1696595522.234274626,-0.017000000,-0.006000000,0.064000000,0.000000000,0.000000000,-0.001000000,,,,,,,,
1696595522.238525,1289220.000000000,1696595522.236258030,-0.018000000,-0.007000000,0.068000000,0.000000000,0.000000000,-0.001000000,,,,,,,,
1696595522.240599,1289221.000000000,1696595522.238273382,-0.018000000,-0.008000000,0.071000000,0.000000000,0.000000000,-0.001000000,,,,,,,,
1696595522.242473,1289222.000000000,1696595522.240220070,-0.019000000,-0.009000000,0.074000000,0.000000000,0.000000000,-0.001000000,,,,,,,,
1696595522.243492,,,,,,,,,354001.000000000,1696595522.240520239,30.676686571,7.609241701,18.131810393,3.569158683,-8.584000949,1.259745959
1696595522.244545,1289223.000000000,1696595522.242307425,-0.020000000,-0.009000000,0.076000000,0.000000000,0.000000000,-0.001000000,,,,,,,,
1696595522.246433,1289224.000000000,1696595522.244210958,-0.020000000,-0.010000000,0.080000000,0.000000000,0.000000000,-0.001000000,,,,,,,,
1696595522.248469,1289225.000000000,1696595522.246272564,-0.020000000,-0.010000000,0.081000000,0.000000000,0.000000000,-0.001000000,,,,,,,,
1696595522.250520,1289226.000000000,1696595522.248284578,-0.019000000,-0.010000000,0.084000000,0.000000000,0.000000000,-0.001000000,,,,,,,,
1696595522.251717,,,,,,,,,354002.000000000,1696595522.248662949,30.897613075,7.982595694,18.180408361,3.688993886,-8.765523557,1.326295516
1696595522.253199,1289227.000000000,1696595522.250285387,-0.018000000,-0.011000000,0.086000000,0.000000000,0.000000000,-0.001000000,,,,,,,,
1696595522.254837,1289228.000000000,1696595522.252284527,-0.017000000,-0.011000000,0.087000000,0.000000000,0.000000000,-0.001000000,,,,,,,,
1696595522.256530,1289229.000000000,1696595522.254282713,-0.016000000,-0.011000000,0.088000000,0.000000000,0.000000000,-0.001000000,,,,,,,,
1696595522.258550,1289230.000000000,1696595522.256253004,-0.015000000,-0.011000000,0.089000000,0.000000000,0.000000000,-0.001000000,,,,,,,,
1696595522.259713,,,,,,,,,354003.000000000,1696595522.256639719,30.095617272,6.681594459,17.722266600,3.209058015,-8.246947418,1.278747474
1696595522.260588,1289231.000000000,1696595522.258355379,-0.015000000,-0.011000000,0.089000000,0.000000000,0.000000000,-0.001000000,,,,,,,,
1696595522.262627,1289232.000000000,1696595522.260273695,-0.015000000,-0.011000000,0.089000000,0.000000000,0.000000000,-0.001000000,,,,,,,,
1696595522.264511,1289233.000000000,1696595522.262282610,-0.015000000,-0.012000000,0.088000000,0.000000000,0.000000000,-0.001000000,,,,,,,,
1696595522.266536,1289234.000000000,1696595522.264287949,-0.015000000,-0.012000000,0.086000000,0.000000000,0.000000000,-0.001000000,,,,,,,,
1696595522.267594,,,,,,,,,354004.000000000,1696595522.264590025,30.795932927,7.188848034,17.848151725,3.390413834,-8.657416552,1.264112165
1696595522.268474,1289235.000000000,1696595522.266261578,-0.015000000,-0.012000000,0.087000000,0.000000000,0.000000000,-0.001000000,,,,,,,,
1696595522.270487,1289236.000000000,1696595522.268262148,-0.015000000,-0.012000000,0.086000000,0.000000000,0.000000000,-0.001000000,,,,,,,,
1696595522.272470,1289237.000000000,1696595522.270290613,-0.014000000,-0.012000000,0.086000000,0.000000000,0.000000000,-0.001000000,,,,,,,,
1696595522.274473,1289238.000000000,1696595522.272263765,-0.013000000,-0.012000000,0.085000000,0.000000000,0.000000000,-0.001000000,,,,,,,,
1696595522.275230,,,,,,,,,354005.000000000,1696595522.272664309,30.972505573,7.356077061,18.071632392,3.450074635,-8.695767692,1.222298407
1696595522.276481,1289239.000000000,1696595522.274271011,-0.011000000,-0.012000000,0.084000000,0.000000000,0.000000000,-0.001000000,,,,,,,,
1696595522.278442,1289240.000000000,1696595522.276273012,-0.010000000,-0.012000000,0.084000000,0.000000000,0.000000000,-0.001000000,,,,,,,,
1696595522.280500,1289241.000000000,1696595522.278285980,-0.009000000,-0.012000000,0.083000000,0.000000000,0.000000000,-0.001000000,,,,,,,,
1696595522.282427,1289242.000000000,1696595522.280255556,-0.008000000,-0.012000000,0.080000000,0.000000000,0.000000000,-0.001000000,,,,,,,,
1696595522.283044,,,,,,,,,354006.000000000,1696595522.280539274,30.596943950,7.480344870,18.113765899,3.466774773,-8.604076713,1.329213072
1696595522.284467,1289243.000000000,1696595522.282256126,-0.008000000,-0.012000000,0.079000000,0.000000000,0.000000000,-0.001000000,,,,,,,,
1696595522.286458,1289244.000000000,1696595522.284275055,-0.008000000,-0.013000000,0.078000000,0.000000000,0.000000000,-0.001000000,,,,,,,,
1696595522.288574,1289245.000000000,1696595522.286304235,-0.008000000,-0.013000000,0.076000000,0.000000000,0.000000000,-0.001000000,,,,,,,,
1696595522.290444,1289246.000000000,1696595522.288267851,-0.008000000,-0.013000000,0.075000000,0.000000000,0.000000000,-0.001000000,,,,,,,,
1696595522.290939,,,,,,,,,354007.000000000,1696595522.288627148,30.610810701,7.390303659,19.113679379,3.497548479,-8.650093371,1.261355943
1696595522.292480,1289247.000000000,1696595522.290272474,-0.008000000,-0.014000000,0.073000000,0.000000000,0.000000000,-0.001000000,,,,,,,,
1696595522.294455,1289248.000000000,1696595522.292238951,-0.008000000,-0.014000000,0.073000000,0.000000000,0.000000000,-0.001000000,,,,,,,,
1696595522.296829,1289249.000000000,1696595522.294286489,-0.007000000,-0.014000000,0.073000000,0.000000000,0.000000000,-0.001000000,,,,,,,,
1696595522.298491,1289250.000000000,1696595522.296260834,-0.006000000,-0.015000000,0.073000000,0.000000000,0.000000000,-0.001000000,,,,,,,,
1696595522.299289,,,,,,,,,354008.000000000,1696595522.296571732,30.410050862,7.038945025,18.037961862,3.404017767,-8.531313549,1.235954049
1696595522.300641,1289251.000000000,1696595522.298281908,-0.005000000,-0.015000000,0.072000000,0.000000000,0.000000000,-0.001000000,,,,,,,,
1696595522.302444,1289252.000000000,1696595522.300250769,-0.003000000,-0.016000000,0.071000000,0.000000000,0.000000000,-0.001000000,,,,,,,,
1696595522.304441,1289253.000000000,1696595522.302278996,-0.003000000,-0.016000000,0.071000000,0.000000000,0.000000000,-0.001000000,,,,,,,,
1696595522.306433,1289254.000000000,1696595522.304255247,-0.003000000,-0.017000000,0.070000000,0.000000000,0.000000000,-0.001000000,,,,,,,,
1696595522.307202,,,,,,,,,354009.000000000,1696595522.304522514,30.371252906,7.674237801,17.554287883,3.581163165,-8.536715084,1.243835835
1696595522.308491,1289255.000000000,1696595522.306267738,-0.003000000,-0.017000000,0.070000000,0.000000000,0.000000000,-0.001000000,,,,,,,,
1696595522.310550,1289256.000000000,1696595522.308341265,-0.003000000,-0.018000000,0.069000000,0.000000000,0.000000000,-0.001000000,,,,,,,,
1696595522.312508,1289257.000000000,1696595522.310282707,-0.003000000,-0.018000000,0.069000000,0.000000000,0.000000000,-0.001000000,,,,,,,,
1696595522.314446,1289258.000000000,1696595522.312284946,-0.004000000,-0.019000000,0.068000000,0.000000000,0.000000000,-0.001000000,,,,,,,,
1696595522.315086,,,,,,,,,354010.000000000,1696595522.312659025,30.380062466,7.646402695,18.134403247,3.568882078,-8.464627816,1.271622286
1696595522.316474,1289259.000000000,1696595522.314260721,-0.004000000,-0.020000000,0.068000000,0.000000000,0.000000000,-0.001000000,,,,,,,,
1696595522.318440,1289260.000000000,1696595522.316253185,-0.003000000,-0.021000000,0.068000000,0.000000000,0.000000000,-0.001000000,,,,,,,,
1696595522.320652,1289261.000000000,1696595522.318284512,-0.003000000,-0.021000000,0.069000000,0.000000000,0.000000000,-0.001000000,,,,,,,,
1696595522.322501,1289262.000000000,1696595522.320346355,-0.002000000,-0.022000000,0.070000000,0.000000000,0.000000000,-0.001000000,,,,,,,,
1696595522.323244,,,,,,,,,354011.000000000,1696595522.320521355,30.908681144,7.357029642,18.378794548,3.516078301,-8.829190796,1.208212511
1696595522.324505,1289263.000000000,1696595522.322279453,-0.001000000,-0.022000000,0.070000000,0.000000000,0.000000000,-0.001000000,,,,,,,,
1696595522.326448,1289264.000000000,1696595522.324259758,0.000000000,-0.023000000,0.071000000,0.000000000,0.000000000,-0.001000000,,,,,,,,
1696595522.328525,1289265.000000000,1696595522.326288462,0.000000000,-0.023000000,0.071000000,0.000000000,0.000000000,-0.001000000,,,,,,,,
1696595522.330473,1289266.000000000,1696595522.328250170,0.000000000,-0.024000000,0.071000000,0.000000000,0.000000000,-0.001000000,,,,,,,,
1696595522.331741,,,,,,,,,354012.000000000,1696595522.328649521,30.306859242,7.423967510,18.604560526,3.443808481,-8.512881565,1.383196158
1696595522.332524,1289267.000000000,1696595522.330312490,0.000000000,-0.025000000,0.071000000,0.000000000,0.000000000,-0.001000000,,,,,,,,
1696595522.334485,1289268.000000000,1696595522.332256079,-0.001000000,-0.026000000,0.070000000,0.000000000,0.000000000,-0.001000000,,,,,,,,
1696595522.336505,1289269.000000000,1696595522.334295273,-0.001000000,-0.026000000,0.070000000,0.000000000,0.000000000,-0.001000000,,,,,,,,
1696595522.338521,1289270.000000000,1696595522.336272717,-0.001000000,-0.027000000,0.070000000,0.000000000,0.000000000,-0.001000000,,,,,,,,
1696595522.339689,,,,,,,,,354013.000000000,1696595522.336512566,29.878608521,7.204382744,18.349243133,3.394714300,-8.212893519,1.231722327
1696595522.340456,1289271.000000000,1696595522.338290215,-0.001000000,-0.028000000,0.070000000,0.000000000,0.000000000,-0.001000000,,,,,,,,
1696595522.342489,1289272.000000000,1696595522.340256453,0.000000000,-0.028000000,0.070000000,0.000000000,0.000000000,-0.001000000,,,,,,,,
1696595522.344442,1289273.000000000,1696595522.342279434,0.000000000,-0.029000000,0.071000000,0.000000000,0.000000000,-0.001000000,,,,,,,,
1696595522.347241,1289274.000000000,1696595522.344262123,0.001000000,-0.029000000,0.071000000,0.000000000,0.000000000,-0.001000000,,,,,,,,
1696595522.347782,,,,,,,,,354014.000000000,1696595522.344651461,30.761574080,8.385313837,18.097759155,3.890382675,-8.718111471,1.335746139
1696595522.348415,1289275.000000000,1696595522.346260548,0.002000000,-0.029000000,0.071000000,0.000000000,0.000000000,-0.001000000,,,,,,,,
1696595522.350510,1289276.000000000,1696595522.348271132,0.002000000,-0.030000000,0.071000000,0.000000000,0.000000000,-0.001000000,,,,,,,,
1696595522.352441,1289277.000000000,1696595522.350284338,0.002000000,-0.030000000,0.070000000,0.000000000,0.000000000,-0.001000000,,,,,,,,
1696595522.354479,1289278.000000000,1696595522.352300406,0.002000000,-0.030000000,0.069000000,0.000000000,0.000000000,-0.001000000,,,,,,,,
1696595522.355421,,,,,,,,,354015.000000000,1696595522.352531910,30.850273456,7.267290374,18.222898211,3.444684548,-8.670889486,1.181216746
1696595522.356440,1289279.000000000,1696595522.354258776,0.002000000,-0.031000000,0.068000000,0.000000000,0.000000000,-0.001000000,,,,,,,,
1696595522.358437,1289280.000000000,1696595522.356253624,0.002000000,-0.031000000,0.067000000,0.000000000,0.000000000,-0.001000000,,,,,,,,
1696595522.360532,1289281.000000000,1696595522.358264685,0.002000000,-0.031000000,0.066000000,0.000000000,0.000000000,-0.001000000,,,,,,,,
1696595522.362498,1289282.000000000,1696595522.360255480,0.002000000,-0.031000000,0.065000000,0.000000000,0.000000000,-0.001000000,,,,,,,,
1696595522.363585,,,,,,,,,354016.000000000,1696595522.360571861,30.192539481,8.068526661,18.289037174,3.749074337,-8.333390489,1.184408417
1696595522.364437,1289283.000000000,1696595522.362277031,0.002000000,-0.032000000,0.065000000,0.000000000,0.000000000,-0.001000000,,,,,,,,
1696595522.366447,1289284.000000000,1696595522.364260912,0.004000000,-0.031000000,0.064000000,0.000000000,0.000000000,-0.001000000,,,,,,,,
1696595522.368444,1289285.000000000,1696595522.366287470,0.005000000,-0.032000000,0.063000000,0.000000000,0.000000000,-0.001000000,,,,,,,,
1696595522.370513,1289286.000000000,1696595522.368260860,0.005000000,-0.031000000,0.064000000,0.000000000,0.000000000,-0.001000000,,,,,,,,
1696595522.371667,,,,,,,,,354017.000000000,1696595522.368646622,30.855050601,7.467426944,18.050682023,3.530400840,-8.797009192,1.220696466
1696595522.372416,1289287.000000000,1696595522.370259047,0.006000000,-0.031000000,0.063000000,0.000000000,0.000000000,-0.001000000,,,,,,,,
1696595522.374491,1289288.000000000,1696595522.372260809,0.007000000,-0.031000000,0.061000000,0.000000000,0.000000000,-0.001000000,,,,,,,,
1696595522.376472,1289289.000000000,1696595522.374314547,0.006000000,-0.031000000,0.060000000,0.000000000,0.000000000,-0.001000000,,,,,,,,
1696595522.378464,1289290.000000000,1696595522.376269341,0.006000000,-0.031000000,0.058000000,0.000000000,0.000000000,-0.001000000,,,,,,,,
1696595522.379448,,,,,,,,,354018.000000000,1696595522.376525879,30.422884923,7.305926255,18.548110483,3.456989145,-8.509583460,1.274879610
1696595522.380603,1289291.000000000,1696595522.378261566,0.006000000,-0.031000000,0.057000000,0.000000000,0.000000000,-0.001000000,,,,,,,,
1696595522.382429,1289292.000000000,1696595522.380243301,0.005000000,-0.030000000,0.056000000,0.000000000,0.000000000,-0.001000000,,,,,,,,
1696595522.384506,1289293.000000000,1696595522.382284880,0.004000000,-0.030000000,0.055000000,0.000000000,0.000000000,-0.001000000,,,,,,,,
1696595522.386450,1289294.000000000,1696595522.384266853,0.005000000,-0.030000000,0.055000000,0.000000000,0.000000000,-0.001000000,,,,,,,,
1696595522.387542,,,,,,,,,354019.000000000,1696595522.384534359,30.726727485,7.411491725,18.358914930,3.467490610,-8.718642570,1.275514770
1696595522.389028,1289295.000000000,1696595522.386286497,0.005000000,-0.029000000,0.055000000,0.000000000,0.000000000,-0.001000000,,,,,,,,
1696595522.390517,1289296.000000000,1696595522.388284683,0.005000000,-0.029000000,0.054000000,0.000000000,0.000000000,-0.001000000,,,,,,,,
1696595522.392772,1289297.000000000,1696595522.390269279,0.006000000,-0.028000000,0.054000000,0.000000000,0.000000000,-0.001000000,,,,,,,,
1696595522.394451,1289298.000000000,1696595522.392260075,0.006000000,-0.028000000,0.055000000,0.000000000,0.000000000,-0.001000000,,,,,,,,
1696595522.395477,,,,,,,,,354020.000000000,1696595522.392553806,30.489737716,7.563995881,18.160297415,3.511504214,-8.486096259,1.300418604
1696595522.396558,1289299.000000000,1696595522.394287348,0.006000000,-0.027000000,0.054000000,0.000000000,0.000000000,-0.001000000,,,,,,,,
1696595522.398526,1289300.000000000,1696595522.396294117,0.006000000,-0.026000000,0.054000000,0.000000000,0.000000000,0.000000000,,,,,,,,
1696595522.400401,1289301.000000000,1696595522.398237944,0.004000000,-0.026000000,0.053000000,0.000000000,0.000000000,0.000000000,,,,,,,,
1696595522.402455,1289302.000000000,1696595522.400294542,0.003000000,-0.025000000,0.052000000,0.000000000,0.000000000,0.000000000,,,,,,,,
1696595522.402979,,,,,,,,,354021.000000000,1696595522.400513887,30.467170280,6.745252654,18.315462609,3.269524027,-8.468389781,1.197629429
1696595522.404426,1289303.000000000,1696595522.402236462,0.002000000,-0.025000000,0.051000000,0.000000000,0.000000000,0.000000000,,,,,,,,
1696595522.406424,1289304.000000000,1696595522.404269218,0.001000000,-0.024000000,0.050000000,0.000000000,0.000000000,0.000000000,,,,,,,,
1696595522.408449,1289305.000000000,1696595522.406239510,0.001000000,-0.023000000,0.049000000,0.000000000,0.000000000,0.000000000,,,,,,,,
1696595522.410531,1289306.000000000,1696595522.408222198,0.000000000,-0.023000000,0.050000000,0.000000000,0.000000000,0.000000000,,,,,,,,
1696595522.412145,,,,,,,,,354022.000000000,1696595522.408698082,30.552595882,6.884959350,18.190826089,3.320429200,-8.532566759,1.375529698
1696595522.413506,1289307.000000000,1696595522.410267115,0.000000000,-0.022000000,0.050000000,0.000000000,0.000000000,0.000000000,,,,,,,,
1696595522.414578,1289308.000000000,1696595522.412268400,0.000000000,-0.021000000,0.049000000,0.000000000,0.000000000,0.000000000,,,,,,,,
1696595522.416476,1289309.000000000,1696595522.414266586,0.000000000,-0.019000000,0.048000000,0.000000000,0.000000000,0.000000000,,,,,,,,
1696595522.418489,1289310.000000000,1696595522.416268826,0.000000000,-0.019000000,0.047000000,0.000000000,0.000000000,0.000000000,,,,,,,,
1696595522.419134,,,,,,,,,354023.000000000,1696595522.416614771,31.049323583,8.409395850,17.012389162,3.850286115,-8.765075221,1.254546087
1696595522.420647,1289311.000000000,1696595522.418396950,0.000000000,-0.017000000,0.046000000,0.000000000,0.000000000,0.000000000,,,,,,,,
1696595522.422499,1289312.000000000,1696595522.420269251,-0.002000000,-0.017000000,0.044000000,0.000000000,0.000000000,0.000000000,,,,,,,,
1696595522.424519,1289313.000000000,1696595522.422284842,-0.003000000,-0.016000000,0.042000000,0.000000000,0.000000000,0.000000000,,,,,,,,
1696595522.426485,1289314.000000000,1696595522.424259186,-0.005000000,-0.014000000,0.040000000,0.000000000,0.000000000,0.000000000,,,,,,,,
1696595522.426995,,,,,,,,,354024.000000000,1696595522.424524069,30.233252897,6.973870437,18.500776321,3.281650049,-8.463081254,1.290602356
1696595522.428500,1289315.000000000,1696595522.426284790,-0.006000000,-0.014000000,0.038000000,0.000000000,0.000000000,0.000000000,,,,,,,,
1696595522.431712,1289316.000000000,1696595522.428567648,-0.008000000,-0.012000000,0.035000000,0.000000000,0.000000000,0.000000000,,,,,,,,
1696595522.432499,1289317.000000000,1696595522.430284739,-0.008000000,-0.011000000,0.033000000,0.000000000,0.000000000,0.000000000,,,,,,,,
1696595522.434738,1289318.000000000,1696595522.432519436,-0.009000000,-0.010000000,0.031000000,0.000000000,0.000000000,0.000000000,,,,,,,,
1696595522.436034,,,,,,,,,354025.000000000,1696595522.432536364,30.565728482,8.046398683,18.125376143,3.726421666,-8.635755345,1.255273313
1696595522.437709,1289319.000000000,1696595522.434283018,-0.008000000,-0.009000000,0.028000000,0.000000000,0.000000000,0.000000000,,,,,,,,
1696595522.438469,1289320.000000000,1696595522.436286449,-0.009000000,-0.008000000,0.026000000,0.000000000,0.000000000,0.000000000,,,,,,,,
1696595522.440519,1289321.000000000,1696595522.438285828,-0.009000000,-0.006000000,0.024000000,0.000000000,0.000000000,0.000000000,,,,,,,,
1696595522.442472,1289322.000000000,1696595522.440297127,-0.010000000,-0.005000000,0.020000000,0.000000000,0.000000000,0.000000000,,,,,,,,
1696595522.443261,,,,,,,,,354026.000000000,1696595522.440534592,30.179912623,6.823204575,18.179912032,3.270989453,-8.357692087,1.277922383
1696595522.444429,1289323.000000000,1696595522.442268133,-0.011000000,-0.004000000,0.016000000,0.000000000,0.000000000,0.000000000,,,,,,,,
1696595522.446480,1289324.000000000,1696595522.444253683,-0.012000000,-0.003000000,0.012000000,0.000000000,0.000000000,0.000000000,,,,,,,,
1696595522.448768,1289325.000000000,1696595522.446286678,-0.013000000,-0.002000000,0.008000000,0.000000000,0.000000000,0.000000000,,,,,,,,
1696595522.450537,1289326.000000000,1696595522.448280811,-0.014000000,-0.001000000,0.004000000,0.000000000,0.000000000,0.000000000,,,,,,,,
1696595522.451323,,,,,,,,,354027.000000000,1696595522.448617935,30.320004467,7.623284712,18.582850140,3.530879711,-8.403760775,1.367741297
1696595522.452458,1289327.000000000,1696595522.450266838,-0.015000000,-0.001000000,0.001000000,0.000000000,0.000000000,0.000000000,,,,,,,,
1696595522.454481,1289328.000000000,1696595522.452255487,-0.016000000,0.000000000,-0.002000000,0.000000000,0.000000000,0.000000000,,,,,,,,
1696595522.456537,1289329.000000000,1696595522.454282284,-0.016000000,0.000000000,-0.004000000,0.000000000,0.000000000,0.000000000,,,,,,,,
1696595522.458545,1289330.000000000,1696595522.456266642,-0.015000000,0.001000000,-0.007000000,0.000000000,0.000000000,0.000000000,,,,,,,,
1696595522.459775,,,,,,,,,354028.000000000,1696595522.456534386,30.605027375,6.685782462,17.904679516,3.222814572,-8.491182867,1.336338133
1696595522.461502,1289331.000000000,1696595522.458277702,-0.015000000,0.002000000,-0.010000000,0.000000000,0.000000000,0.000000000,,,,,,,,
1696595522.462514,1289332.000000000,1696595522.460276127,-0.015000000,0.002000000,-0.012000000,0.000000000,0.000000000,0.000000000,,,,,,,,
1696595522.465122,1289333.000000000,1696595522.462322235,-0.014000000,0.003000000,-0.015000000,0.000000000,0.000000000,0.000000000,,,,,,,,
1696595522.466489,1289334.000000000,1696595522.464273691,-0.015000000,0.003000000,-0.017000000,0.000000000,0.000000000,0.000000000,,,,,,,,
1696595522.467194,,,,,,,,,354029.000000000,1696595522.464539051,30.549728698,7.744890643,17.754457424,3.619944403,-8.557714503,1.244131866
1696595522.468432,1289335.000000000,1696595522.466266394,-0.015000000,0.003000000,-0.020000000,0.000000000,0.000000000,0.000000000,,,,,,,,
1696595522.470518,1289336.000000000,1696595522.468267679,-0.016000000,0.004000000,-0.023000000,0.000000000,0.000000000,0.000000000,,,,,,,,
1696595522.472636,1289337.000000000,1696595522.470283985,-0.017000000,0.004000000,-0.024000000,0.000000000,0.000000000,0.000000000,,,,,,,,
1696595522.474438,1289338.000000000,1696595522.472269058,-0.017000000,0.004000000,-0.026000000,0.000000000,0.000000000,0.000000000,,,,,,,,
1696595522.474824,,,,,,,,,354030.000000000,1696595522.472540140,30.680868003,7.488783374,18.612355582,3.522390765,-8.633399340,1.274587851
1696595522.476498,1289339.000000000,1696595522.474269867,-0.017000000,0.003000000,-0.026000000,0.000000000,0.000000000,0.000000000,,,,,,,,
1696595522.478536,1289340.000000000,1696595522.476262331,-0.016000000,0.003000000,-0.026000000,0.000000000,0.000000000,0.000000000,,,,,,,,
1696595522.480459,1289341.000000000,1696595522.478281498,-0.015000000,0.003000000,-0.026000000,0.000000000,0.000000000,0.000000000,,,,,,,,
1696595522.482419,1289342.000000000,1696595522.480254173,-0.014000000,0.003000000,-0.024000000,0.000000000,0.000000000,0.000000000,,,,,,,,
1696595522.482776,,,,,,,,,354031.000000000,1696595522.480506897,30.240757649,7.515702003,17.909851452,3.536414482,-8.413148930,1.272064755
1696595522.484509,1289343.000000000,1696595522.482264519,-0.013000000,0.002000000,-0.024000000,0.000000000,0.000000000,0.000000000,,,,,,,,
1696595522.486543,1289344.000000000,1696595522.484330416,-0.013000000,0.002000000,-0.022000000,0.000000000,0.000000000,0.000000000,,,,,,,,
1696595522.488484,1289345.000000000,1696595522.486267328,-0.013000000,0.002000000,-0.021000000,0.000000000,0.000000000,0.000000000,,,,,,,,
1696595522.490562,1289346.000000000,1696595522.488292694,-0.013000000,0.001000000,-0.018000000,0.000000000,0.000000000,0.000000000,,,,,,,,
1696595522.491386,,,,,,,,,354032.000000000,1696595522.488637209,30.817992334,7.369334818,18.107025264,3.467670516,-8.716495666,1.276364026
1696595522.492551,1289347.000000000,1696595522.490289211,-0.013000000,0.000000000,-0.018000000,0.000000000,0.000000000,0.000000000,,,,,,,,
1696595522.494452,1289348.000000000,1696595522.492257357,-0.013000000,0.000000000,-0.015000000,0.000000000,0.000000000,0.000000000,,,,,,,,
1696595522.496528,1289349.000000000,1696595522.494293690,-0.013000000,-0.001000000,-0.012000000,0.000000000,0.000000000,0.000000000,,,,,,,,
1696595522.498508,1289350.000000000,1696595522.496263504,-0.013000000,-0.001000000,-0.009000000,0.000000000,0.000000000,0.000000000,,,,,,,,
1696595522.499426,,,,,,,,,354033.000000000,1696595522.496565342,30.759752098,7.914028698,17.897164659,3.692711261,-8.778439502,1.312445345
1696595522.500453,1289351.000000000,1696595522.498265266,-0.013000000,-0.002000000,-0.006000000,0.000000000,0.000000000,0.000000000,,,,,,,,
1696595522.502465,1289352.000000000,1696595522.500262499,-0.012000000,-0.003000000,-0.002000000,0.000000000,0.000000000,0.000000000,,,,,,,,
1696595522.504435,1289353.000000000,1696595522.502275229,-0.011000000,-0.004000000,0.001000000,0.000000000,0.000000000,0.000000000,,,,,,,,
1696595522.506433,1289354.000000000,1696595522.504252672,-0.010000000,-0.005000000,0.006000000,0.000000000,0.000000000,0.000000000,,,,,,,,
1696595522.507085,,,,,,,,,354034.000000000,1696595522.504555941,30.655824250,7.588187008,18.498364467,3.573267558,-8.575152990,1.301064548
1696595522.508476,1289355.000000000,1696595522.506314039,-0.009000000,-0.005000000,0.010000000,0.000000000,0.000000000,0.000000000,,,,,,,,
1696595522.510468,1289356.000000000,1696595522.508264303,-0.009000000,-0.006000000,0.013000000,0.000000000,0.000000000,0.000000000,,,,,,,,
1696595522.512548,1289357.000000000,1696595522.510295630,-0.008000000,-0.007000000,0.017000000,0.000000000,0.000000000,0.000000000,,,,,,,,
1696595522.514457,1289358.000000000,1696595522.512286186,-0.009000000,-0.008000000,0.020000000,0.000000000,0.000000000,0.000000000,,,,,,,,
1696595522.515279,,,,,,,,,354035.000000000,1696595522.512530088,30.135171065,7.473684013,18.512032745,3.519063504,-8.298430098,1.230652592
1696595522.516451,1289359.000000000,1696595522.514275789,-0.009000000,-0.009000000,0.024000000,0.000000000,0.000000000,0.000000000,,,,,,,,
1696595522.518476,1289360.000000000,1696595522.516263962,-0.009000000,-0.010000000,0.026000000,0.000000000,0.000000000,0.000000000,,,,,,,,
1696595522.520573,1289361.000000000,1696595522.518289089,-0.010000000,-0.011000000,0.030000000,0.000000000,0.000000000,0.000000000,,,,,,,,
1696595522.522504,1289362.000000000,1696595522.520260811,-0.010000000,-0.011000000,0.032000000,0.000000000,0.000000000,0.000000000,,,,,,,,
1696595522.523163,,,,,,,,,354036.000000000,1696595522.520631313,30.585385935,6.325260476,18.692882429,3.059811581,-8.557034772,1.270718378
1696595522.524447,1289363.000000000,1696595522.522281885,-0.009000000,-0.012000000,0.036000000,0.000000000,0.000000000,0.000000000,,,,,,,,
1696595522.526453,1289364.000000000,1696595522.524263382,-0.008000000,-0.012000000,0.039000000,0.000000000,0.000000000,0.000000000,,,,,,,,
1696595522.528457,1289365.000000000,1696595522.526288033,-0.007000000,-0.013000000,0.043000000,0.000000000,0.000000000,0.000000000,,,,,,,,
1696595522.530602,1289366.000000000,1696595522.528352261,-0.006000000,-0.013000000,0.045000000,0.000000000,0.000000000,0.000000000,,,,,,,,
1696595522.530925,,,,,,,,,354037.000000000,1696595522.528616428,30.403130033,8.706967081,18.704547791,4.004939686,-8.466044534,1.317272911
1696595522.532456,1289367.000000000,1696595522.530289173,-0.006000000,-0.013000000,0.047000000,0.000000000,0.000000000,0.000000000,,,,,,,,
1696595522.534465,1289368.000000000,1696595522.532262087,-0.005000000,-0.014000000,0.048000000,0.000000000,0.000000000,0.000000000,,,,,,,,
1696595522.536454,1289369.000000000,1696595522.534278393,-0.006000000,-0.014000000,0.050000000,0.000000000,0.000000000,0.000000000,,,,,,,,
1696595522.538558,1289370.000000000,1696595522.536286831,-0.006000000,-0.015000000,0.051000000,0.000000000,0.000000000,0.000000000,,,,,,,,
1696595522.538743,,,,,,,,,354038.000000000,1696595522.536552429,30.126893261,7.245548854,17.938493288,3.452886330,-8.314891955,1.246389736
1696595522.540531,1289371.000000000,1696595522.538273811,-0.006000000,-0.015000000,0.051000000,0.000000000,0.000000000,0.000000000,,,,,,,,
1696595522.542485,1289372.000000000,1696595522.540278673,-0.007000000,-0.015000000,0.052000000,0.000000000,0.000000000,0.000000000,,,,,,,,
1696595522.544466,1289373.000000000,1696595522.542282820,-0.007000000,-0.016000000,0.053000000,0.000000000,0.000000000,0.000000000,,,,,,,,
1696595522.546475,1289374.000000000,1696595522.544286013,-0.007000000,-0.016000000,0.053000000,0.000000000,0.000000000,0.000000000,,,,,,,,
1696595522.547318,,,,,,,,,354039.000000000,1696595522.544565439,30.165685228,7.660206286,17.378236508,3.618998692,-8.388299911,1.407850597
1696595522.548530,1289375.000000000,1696595522.546264172,-0.006000000,-0.016000000,0.054000000,0.000000000,0.000000000,0.000000000,,,,,,,,
1696595522.550527,1289376.000000000,1696595522.548283815,-0.005000000,-0.016000000,0.054000000,0.000000000,0.000000000,0.000000000,,,,,,,,
1696595522.553193,1289377.000000000,1696595522.550336599,-0.004000000,-0.015000000,0.054000000,0.000000000,0.000000000,0.000000000,,,,,,,,
1696595522.554582,1289378.000000000,1696595522.552254677,-0.004000000,-0.016000000,0.054000000,0.000000000,0.000000000,0.000000000,,,,,,,,
1696595522.555419,,,,,,,,,354040.000000000,1696595522.552542448,30.911488661,7.959291279,17.440600976,3.686060278,-8.619076163,1.271589882
1696595522.556471,1289379.000000000,1696595522.554266930,-0.003000000,-0.015000000,0.054000000,0.000000000,0.000000000,0.000000000,,,,,,,,
1696595522.558427,1289380.000000000,1696595522.556261063,-0.003000000,-0.016000000,0.053000000,0.000000000,0.000000000,0.000000000,,,,,,,,
1696595522.560457,1289381.000000000,1696595522.558297157,-0.004000000,-0.015000000,0.052000000,0.000000000,0.000000000,0.000000000,,,,,,,,
1696595522.562628,1289382.000000000,1696595522.560287714,-0.004000000,-0.016000000,0.052000000,0.000000000,0.000000000,0.000000000,,,,,,,,
1696595522.563167,,,,,,,,,354041.000000000,1696595522.560619116,30.729502552,7.252754310,18.317857107,3.424429079,-8.679718111,1.235705243
1696595522.564428,1289383.000000000,1696595522.562272072,-0.005000000,-0.016000000,0.051000000,0.000000000,0.000000000,0.000000000,,,,,,,,
1696595522.566462,1289384.000000000,1696595522.564272404,-0.006000000,-0.015000000,0.051000000,0.000000000,0.000000000,0.000000000,,,,,,,,
1696595522.568508,1289385.000000000,1696595522.566285372,-0.005000000,-0.015000000,0.050000000,0.000000000,0.000000000,0.000000000,,,,,,,,
1696595522.570507,1289386.000000000,1696595522.568278313,-0.005000000,-0.015000000,0.051000000,0.000000000,0.000000000,0.000000000,,,,,,,,
1696595522.571611,,,,,,,,,354042.000000000,1696595522.568615913,30.652106824,6.806563570,18.138908272,3.249149705,-8.732372088,1.280520298
1696595522.572457,1289387.000000000,1696595522.570295334,-0.005000000,-0.015000000,0.050000000,0.000000000,0.000000000,0.000000000,,,,,,,,
1696595522.574502,1289388.000000000,1696595522.572332621,-0.004000000,-0.015000000,0.052000000,0.000000000,0.000000000,0.000000000,,,,,,,,
