__time,/kms40_driver/wrench/header/seq,/kms40_driver/wrench/header/stamp,/kms40_driver/wrench/wrench/force/x,/kms40_driver/wrench/wrench/force/y,/kms40_driver/wrench/wrench/force/z,/kms40_driver/wrench/wrench/torque/x,/kms40_driver/wrench/wrench/torque/y,/kms40_driver/wrench/wrench/torque/z,/wrench/header/seq,/wrench/header/stamp,/wrench/wrench/force/x,/wrench/wrench/force/y,/wrench/wrench/force/z,/wrench/wrench/torque/x,/wrench/wrench/torque/y,/wrench/wrench/torque/z
1696594847.621806,,,,,,,,,269676.000000000,1696594847.620083809,30.880132632,-5.293380856,11.507857125,-1.612258474,-8.034800735,1.362075573
1696594847.622192,951926.000000000,1696594847.620490551,0.016000000,-0.019000000,0.057000000,0.000000000,0.000000000,0.000000000,,,,,,,,
1696594847.624073,951927.000000000,1696594847.622490644,0.017000000,-0.019000000,0.057000000,0.000000000,0.000000000,0.000000000,,,,,,,,
1696594847.626491,951928.000000000,1696594847.624499083,0.017000000,-0.019000000,0.057000000,0.000000000,0.000000000,0.000000000,,,,,,,,
1696594847.628069,951929.000000000,1696594847.626499176,0.018000000,-0.018000000,0.058000000,0.000000000,0.000000000,0.000000000,,,,,,,,
1696594847.629670,,,,,,,,,269677.000000000,1696594847.628077745,31.488461658,-4.582213843,11.341115779,-1.396452751,-8.373927928,1.317652604
1696594847.631101,951930.000000000,1696594847.628533363,0.018000000,-0.018000000,0.057000000,0.000000000,0.000000000,0.000000000,,,,,,,,
1696594847.632688,951931.000000000,1696594847.630542040,0.018000000,-0.018000000,0.057000000,0.000000000,0.000000000,0.000000000,,,,,,,,
1696594847.634107,951932.000000000,1696594847.632523775,0.017000000,-0.018000000,0.056000000,0.000000000,0.000000000,0.000000000,,,,,,,,
1696594847.636114,951933.000000000,1696594847.634491205,0.016000000,-0.018000000,0.055000000,0.000000000,0.000000000,0.000000000,,,,,,,,
1696594847.638136,,,,,,,,,269678.000000000,1696594847.636143446,31.567248587,-5.231112257,11.075549083,-1.657824246,-8.414217994,1.337592234
1696594847.638335,951934.000000000,1696594847.636502504,0.015000000,-0.017000000,0.055000000,0.000000000,0.000000000,0.000000000,,,,,,,,
1696594847.640064,951935.000000000,1696594847.638502121,0.014000000,-0.017000000,0.054000000,0.000000000,0.000000000,0.000000000,,,,,,,,
1696594847.642090,951936.000000000,1696594847.640523434,0.014000000,-0.017000000,0.054000000,0.000000000,0.000000000,0.000000000,,,,,,,,
1696594847.644028,951937.000000000,1696594847.642483711,0.014000000,-0.017000000,0.054000000,0.000000000,0.000000000,0.000000000,,,,,,,,
1696594847.646262,,,,,,,,,269679.000000000,1696594847.644061804,31.523814337,-4.736600638,10.778851708,-1.489930720,-8.301201716,1.332958589
1696594847.646623,951938.000000000,1696594847.644500017,0.015000000,-0.017000000,0.054000000,0.000000000,0.000000000,0.000000000,,,,,,,,
1696594847.648151,951939.000000000,1696594847.646520853,0.015000000,-0.016000000,0.054000000,0.000000000,0.000000000,0.000000000,,,,,,,,
1696594847.650133,951940.000000000,1696594847.648516655,0.016000000,-0.016000000,0.054000000,0.000000000,0.000000000,0.000000000,,,,,,,,
1696594847.652080,951941.000000000,1696594847.650527716,0.016000000,-0.016000000,0.053000000,0.000000000,0.000000000,0.000000000,,,,,,,,
1696594847.653766,,,,,,,,,269680.000000000,1696594847.652143002,31.539535622,-5.365682813,10.976492848,-1.636432903,-8.355234861,1.393633461
1696594847.654621,951942.000000000,1696594847.652485847,0.016000000,-0.016000000,0.052000000,0.000000000,0.000000000,0.000000000,,,,,,,,
1696594847.656109,951943.000000000,1696594847.654484749,0.015000000,-0.015000000,0.052000000,0.000000000,0.000000000,0.000000000,,,,,,,,
1696594847.658125,951944.000000000,1696594847.656497478,0.015000000,-0.015000000,0.050000000,0.000000000,0.000000000,0.000000000,,,,,,,,
1696594847.660119,951945.000000000,1696594847.658478737,0.014000000,-0.015000000,0.049000000,0.000000000,0.000000000,0.000000000,,,,,,,,
1696594847.662241,951946.000000000,1696594847.660542250,0.013000000,-0.015000000,0.049000000,0.000000000,0.000000000,0.000000000,,,,,,,,
1696594847.662678,,,,,,,,,269681.000000000,1696594847.660075665,31.423863582,-4.625654567,11.346467896,-1.369493463,-8.226624965,1.400182789
1696594847.664146,951947.000000000,1696594847.662487507,0.012000000,-0.015000000,0.048000000,0.000000000,0.000000000,0.000000000,,,,,,,,
1696594847.666149,951948.000000000,1696594847.664510727,0.012000000,-0.015000000,0.047000000,0.000000000,0.000000000,0.000000000,,,,,,,,
1696594847.668129,951949.000000000,1696594847.666478395,0.013000000,-0.015000000,0.046000000,0.000000000,0.000000000,0.000000000,,,,,,,,
1696594847.670096,951950.000000000,1696594847.668499231,0.013000000,-0.015000000,0.045000000,0.000000000,0.000000000,0.000000000,,,,,,,,
1696594847.670390,,,,,,,,,269682.000000000,1696594847.668108940,31.448113491,-5.791117434,11.025812512,-1.833149665,-8.421821658,1.383205361
1696594847.672189,951951.000000000,1696594847.670535088,0.014000000,-0.014000000,0.044000000,0.000000000,0.000000000,0.000000000,,,,,,,,
1696594847.674195,951952.000000000,1696594847.672580957,0.015000000,-0.014000000,0.043000000,0.000000000,0.000000000,0.000000000,,,,,,,,
1696594847.676257,951953.000000000,1696594847.674678087,0.015000000,-0.014000000,0.042000000,0.000000000,0.000000000,0.000000000,,,,,,,,
1696594847.678188,,,,,,,,,269683.000000000,1696594847.676092148,31.304504503,-4.768820022,11.484206060,-1.449023736,-8.128259671,1.414586221
1696594847.678448,951954.000000000,1696594847.676531792,0.015000000,-0.014000000,0.039000000,0.000000000,0.000000000,0.000000000,,,,,,,,
1696594847.680056,951955.000000000,1696594847.678486347,0.014000000,-0.013000000,0.037000000,0.000000000,0.000000000,0.000000000,,,,,,,,
1696594847.682077,951956.000000000,1696594847.680512190,0.013000000,-0.013000000,0.035000000,0.000000000,0.000000000,0.000000000,,,,,,,,
1696594847.684004,951957.000000000,1696594847.682471275,0.012000000,-0.013000000,0.032000000,0.000000000,0.000000000,0.000000000,,,,,,,,
1696594847.686482,,,,,,,,,269684.000000000,1696594847.684104204,31.336116510,-5.424987615,11.222582285,-1.687252451,-8.311311186,1.420599619
1696594847.686878,951958.000000000,1696594847.684526920,0.012000000,-0.013000000,0.030000000,0.000000000,0.000000000,0.000000000,,,,,,,,
1696594847.688064,951959.000000000,1696594847.686496735,0.011000000,-0.012000000,0.027000000,0.000000000,0.000000000,0.000000000,,,,,,,,
1696594847.690077,951960.000000000,1696594847.688511372,0.012000000,-0.012000000,0.025000000,0.000000000,0.000000000,0.000000000,,,,,,,,
1696594847.692110,951961.000000000,1696594847.690492392,0.012000000,-0.011000000,0.023000000,0.000000000,0.000000000,0.000000000,,,,,,,,
1696594847.694097,951962.000000000,1696594847.692502499,0.013000000,-0.010000000,0.020000000,0.000000000,0.000000000,0.000000000,,,,,,,,
1696594847.694800,,,,,,,,,269685.000000000,1696594847.692258358,31.486442903,-5.597859224,11.143598596,-1.776985686,-8.373974096,1.464159510
1696594847.696115,951963.000000000,1696594847.694541454,0.013000000,-0.010000000,0.016000000,0.000000000,0.000000000,0.000000000,,,,,,,,
1696594847.698871,951964.000000000,1696594847.696689844,0.014000000,-0.009000000,0.013000000,0.000000000,0.000000000,0.000000000,,,,,,,,
1696594847.700144,951965.000000000,1696594847.698543787,0.013000000,-0.008000000,0.010000000,0.000000000,0.000000000,0.000000000,,,,,,,,
1696594847.702134,951966.000000000,1696594847.700492620,0.014000000,-0.007000000,0.003000000,0.000000000,0.000000000,0.000000000,,,,,,,,
1696594847.702534,,,,,,,,,269686.000000000,1696594847.700136662,31.449672811,-5.794746105,11.687119031,-1.837597350,-8.401486342,1.424484920
1696594847.704347,951967.000000000,1696594847.702515125,0.013000000,-0.007000000,0.000000000,0.000000000,0.000000000,0.000000000,,,,,,,,
1696594847.706123,951968.000000000,1696594847.704503298,0.012000000,-0.006000000,-0.004000000,0.000000000,0.000000000,0.000000000,,,,,,,,
1696594847.708107,951969.000000000,1696594847.706511497,0.011000000,-0.005000000,-0.009000000,0.000000000,0.000000000,0.000000000,,,,,,,,
1696594847.710406,951970.000000000,1696594847.708499908,0.011000000,-0.004000000,-0.013000000,0.000000000,0.000000000,0.000000000,,,,,,,,
1696594847.710414,,,,,,,,,269687.000000000,1696594847.708082676,31.495036024,-5.306764795,11.073933567,-1.657542990,-8.386176852,1.434116512
1696594847.712176,951971.000000000,1696594847.710550547,0.011000000,-0.003000000,-0.018000000,0.000000000,0.000000000,0.001000000,,,,,,,,
1696594847.714145,951972.000000000,1696594847.712521076,0.011000000,-0.002000000,-0.022000000,0.000000000,0.000000000,0.001000000,,,,,,,,
1696594847.716047,951973.000000000,1696594847.714492083,0.012000000,-0.001000000,-0.026000000,0.000000000,0.000000000,0.001000000,,,,,,,,
1696594847.718748,,,,,,,,,269688.000000000,1696594847.716088057,31.701756354,-5.900231325,10.501470849,-1.856098083,-8.497410048,1.371747622
1696594847.718786,951974.000000000,1696594847.716555595,0.013000000,0.000000000,-0.032000000,0.000000000,0.000000000,0.001000000,,,,,,,,
1696594847.720368,951975.000000000,1696594847.718522072,0.013000000,0.000000000,-0.035000000,0.000000000,0.000000000,0.001000000,,,,,,,,
1696594847.722183,951976.000000000,1696594847.720534086,0.014000000,0.001000000,-0.041000000,0.000000000,0.000000000,0.001000000,,,,,,,,
1696594847.724032,951977.000000000,1696594847.722491503,0.014000000,0.002000000,-0.046000000,0.000000000,0.000000000,0.001000000,,,,,,,,
1696594847.726274,,,,,,,,,269689.000000000,1696594847.724073410,31.636716935,-6.047988322,10.915996637,-1.994574485,-8.489882521,1.455205378
1696594847.726724,951978.000000000,1696594847.724512815,0.013000000,0.002000000,-0.051000000,0.000000000,0.000000000,0.001000000,,,,,,,,
1696594847.728043,951979.000000000,1696594847.726491213,0.013000000,0.003000000,-0.055000000,0.000000000,0.000000000,0.001000000,,,,,,,,
1696594847.730149,951980.000000000,1696594847.728543758,0.012000000,0.003000000,-0.060000000,0.000000000,0.000000000,0.001000000,,,,,,,,
1696594847.732079,951981.000000000,1696594847.730472088,0.012000000,0.004000000,-0.065000000,0.000000000,0.000000000,0.002000000,,,,,,,,
1696594847.733695,,,,,,,,,269690.000000000,1696594847.732118130,31.509443701,-4.879569466,10.887728305,-1.487775914,-8.376292430,1.251680491
1696594847.734149,951982.000000000,1696594847.732522964,0.013000000,0.005000000,-0.069000000,0.000000000,0.000000000,0.002000000,,,,,,,,
1696594847.736105,951983.000000000,1696594847.734503746,0.013000000,0.005000000,-0.072000000,0.000000000,0.000000000,0.002000000,,,,,,,,
1696594847.738115,951984.000000000,1696594847.736511469,0.014000000,0.005000000,-0.074000000,0.000000000,0.000000000,0.002000000,,,,,,,,
1696594847.740107,951985.000000000,1696594847.738540173,0.015000000,0.006000000,-0.077000000,0.000000000,0.000000000,0.002000000,,,,,,,,
1696594847.742287,951986.000000000,1696594847.740510464,0.016000000,0.006000000,-0.079000000,0.000000000,0.000000000,0.002000000,,,,,,,,
1696594847.742448,,,,,,,,,269691.000000000,1696594847.740083694,31.112002033,-5.493109650,11.480177439,-1.683414758,-8.013899405,1.461283259
1696594847.744070,951987.000000000,1696594847.742511511,0.017000000,0.006000000,-0.082000000,0.000000000,0.000000000,0.002000000,,,,,,,,
1696594847.746135,951988.000000000,1696594847.744522810,0.017000000,0.006000000,-0.084000000,0.000000000,0.000000000,0.002000000,,,,,,,,
1696594847.748111,951989.000000000,1696594847.746562243,0.017000000,0.006000000,-0.086000000,0.000000000,0.000000000,0.002000000,,,,,,,,
1696594847.750079,,,,,,,,,269692.000000000,1696594847.748105049,31.031589423,-4.741573809,11.109420632,-1.423301539,-7.996801628,1.412927552
1696594847.750263,951990.000000000,1696594847.748500109,0.017000000,0.006000000,-0.088000000,0.000000000,0.000000000,0.002000000,,,,,,,,
1696594847.752083,951991.000000000,1696594847.750523090,0.016000000,0.005000000,-0.087000000,0.000000000,0.000000000,0.002000000,,,,,,,,
1696594847.754132,951992.000000000,1696594847.752510309,0.016000000,0.005000000,-0.088000000,0.000000000,0.000000000,0.002000000,,,,,,,,
1696594847.756047,951993.000000000,1696594847.754490852,0.016000000,0.004000000,-0.087000000,0.000000000,0.000000000,0.002000000,,,,,,,,
1696594847.757931,,,,,,,,,269693.000000000,1696594847.756084681,31.207609262,-5.178048378,11.175860024,-1.594827936,-8.029168789,1.348999895
1696594847.759165,951994.000000000,1696594847.756505251,0.017000000,0.003000000,-0.087000000,0.000000000,0.000000000,0.002000000,,,,,,,,
1696594847.760069,951995.000000000,1696594847.758493900,0.017000000,0.003000000,-0.085000000,0.000000000,0.000000000,0.002000000,,,,,,,,
1696594847.762203,951996.000000000,1696594847.760568142,0.019000000,0.002000000,-0.083000000,0.000000000,0.000000000,0.002000000,,,,,,,,
1696594847.764030,951997.000000000,1696594847.762470961,0.020000000,0.001000000,-0.081000000,0.000000000,0.000000000,0.002000000,,,,,,,,
1696594847.765783,,,,,,,,,269694.000000000,1696594847.764117956,31.478310063,-4.855444431,11.056073835,-1.491798025,-8.171244013,1.416260073
1696594847.766313,951998.000000000,1696594847.764513969,0.020000000,0.000000000,-0.078000000,0.000000000,0.000000000,0.002000000,,,,,,,,
1696594847.768425,951999.000000000,1696594847.766498089,0.021000000,0.000000000,-0.075000000,0.000000000,0.000000000,0.002000000,,,,,,,,
1696594847.770201,952000.000000000,1696594847.768536329,0.021000000,-0.001000000,-0.073000000,0.000000000,0.000000000,0.002000000,,,,,,,,
1696594847.772090,952001.000000000,1696594847.770480871,0.020000000,-0.002000000,-0.070000000,0.000000000,0.000000000,0.001000000,,,,,,,,
1696594847.774209,,,,,,,,,269695.000000000,1696594847.772102833,31.780383258,-4.728292033,11.456501008,-1.367421832,-8.482952464,1.334215506
1696594847.774485,952002.000000000,1696594847.772579908,0.020000000,-0.004000000,-0.067000000,0.000000000,0.000000000,0.001000000,,,,,,,,
1696594847.776059,952003.000000000,1696594847.774500847,0.019000000,-0.005000000,-0.064000000,0.000000000,0.000000000,0.001000000,,,,,,,,
1696594847.778043,952004.000000000,1696594847.776503086,0.018000000,-0.006000000,-0.059000000,0.000000000,0.000000000,0.001000000,,,,,,,,
1696594847.780066,952005.000000000,1696594847.778503180,0.019000000,-0.008000000,-0.055000000,0.000000000,0.000000000,0.001000000,,,,,,,,
1696594847.781687,,,,,,,,,269696.000000000,1696594847.780092001,31.397586837,-4.770834528,11.092351344,-1.448479241,-8.224594356,1.387594308
1696594847.782028,952006.000000000,1696594847.780505896,0.019000000,-0.009000000,-0.050000000,0.000000000,0.000000000,0.001000000,,,,,,,,
1696594847.784108,952007.000000000,1696594847.782555342,0.020000000,-0.010000000,-0.045000000,0.000000000,0.000000000,0.001000000,,,,,,,,
1696594847.786057,952008.000000000,1696594847.784511805,0.020000000,-0.011000000,-0.040000000,0.000000000,0.000000000,0.001000000,,,,,,,,
1696594847.788080,952009.000000000,1696594847.786538601,0.021000000,-0.012000000,-0.036000000,0.000000000,0.000000000,0.001000000,,,,,,,,
1696594847.790342,,,,,,,,,269697.000000000,1696594847.788254976,31.279533120,-5.508629009,10.922235881,-1.756438592,-8.226126488,1.379812585
1696594847.790348,952010.000000000,1696594847.788559198,0.021000000,-0.014000000,-0.031000000,0.000000000,0.000000000,0.001000000,,,,,,,,
1696594847.792097,952011.000000000,1696594847.790524960,0.020000000,-0.015000000,-0.028000000,0.000000000,0.000000000,0.000000000,,,,,,,,
1696594847.794104,952012.000000000,1696594847.792519093,0.020000000,-0.016000000,-0.023000000,0.000000000,0.000000000,0.000000000,,,,,,,,
1696594847.796076,952013.000000000,1696594847.794508696,0.019000000,-0.017000000,-0.019000000,0.000000000,0.000000000,0.000000000,,,,,,,,
1696594847.797699,,,,,,,,,269698.000000000,1696594847.796138287,31.095309442,-4.739619636,11.167705179,-1.437681397,-8.128166868,1.413240687
1696594847.798588,952014.000000000,1696594847.796491623,0.018000000,-0.018000000,-0.015000000,0.000000000,0.000000000,0.000000000,,,,,,,,
1696594847.800155,952015.000000000,1696594847.798516035,0.017000000,-0.019000000,-0.011000000,0.000000000,0.000000000,0.000000000,,,,,,,,
1696594847.802070,952016.000000000,1696594847.800510168,0.017000000,-0.020000000,-0.007000000,0.000000000,0.000000000,0.000000000,,,,,,,,
1696594847.804134,952017.000000000,1696594847.802490950,0.017000000,-0.021000000,-0.002000000,0.000000000,0.000000000,0.000000000,,,,,,,,
1696594847.806725,,,,,,,,,269699.000000000,1696594847.804069996,31.966622433,-5.706624596,11.155227841,-1.857887418,-8.547536974,1.398888356
1696594847.807022,952018.000000000,1696594847.804542542,0.017000000,-0.022000000,0.001000000,0.000000000,0.000000000,0.000000000,,,,,,,,
1696594847.808316,952019.000000000,1696594847.806498289,0.017000000,-0.022000000,0.006000000,0.000000000,0.000000000,0.000000000,,,,,,,,
1696594847.810107,952020.000000000,1696594847.808515549,0.018000000,-0.022000000,0.009000000,0.000000000,0.000000000,0.000000000,,,,,,,,
1696594847.812152,952021.000000000,1696594847.810525417,0.018000000,-0.023000000,0.013000000,0.000000000,0.000000000,0.000000000,,,,,,,,
1696594847.814111,,,,,,,,,269700.000000000,1696594847.812091351,31.098347084,-4.966113806,11.107508354,-1.477639078,-8.100667527,1.415275528
1696594847.814266,952022.000000000,1696594847.812510252,0.018000000,-0.023000000,0.016000000,0.000000000,0.000000000,0.000000000,,,,,,,,
1696594847.816143,952023.000000000,1696594847.814491987,0.017000000,-0.023000000,0.020000000,0.000000000,0.000000000,0.000000000,,,,,,,,
1696594847.818106,952024.000000000,1696594847.816523552,0.016000000,-0.023000000,0.022000000,0.000000000,0.000000000,0.000000000,,,,,,,,
1696594847.820270,952025.000000000,1696594847.818488121,0.015000000,-0.024000000,0.025000000,0.000000000,0.000000000,0.000000000,,,,,,,,
1696594847.822123,,,,,,,,,269701.000000000,1696594847.820071459,31.815752021,-5.513398159,10.654506521,-1.702615253,-8.497657273,1.423875927
1696594847.822484,952026.000000000,1696594847.820532084,0.014000000,-0.024000000,0.028000000,0.000000000,0.000000000,0.000000000,,,,,,,,
1696594847.824136,952027.000000000,1696594847.822512150,0.013000000,-0.024000000,0.031000000,0.000000000,0.000000000,0.000000000,,,,,,,,
1696594847.826151,952028.000000000,1696594847.824506998,0.013000000,-0.024000000,0.035000000,0.000000000,0.000000000,0.000000000,,,,,,,,
1696594847.828118,952029.000000000,1696594847.826515913,0.014000000,-0.025000000,0.036000000,0.000000000,0.000000000,0.000000000,,,,,,,,
1696594847.829878,,,,,,,,,269702.000000000,1696594847.828091621,31.656894756,-6.257579940,11.151486608,-2.016392956,-8.493843738,1.402193096
1696594847.831409,952030.000000000,1696594847.828586817,0.014000000,-0.024000000,0.041000000,0.000000000,0.000000000,0.000000000,,,,,,,,
1696594847.832274,952031.000000000,1696594847.830492258,0.015000000,-0.024000000,0.043000000,0.000000000,0.000000000,0.000000000,,,,,,,,
1696594847.834197,952032.000000000,1696594847.832520485,0.015000000,-0.024000000,0.045000000,0.000000000,0.000000000,0.000000000,,,,,,,,
1696594847.836119,952033.000000000,1696594847.834549427,0.015000000,-0.024000000,0.047000000,0.000000000,0.000000000,0.000000000,,,,,,,,
1696594847.837712,,,,,,,,,269703.000000000,1696594847.836064577,31.686564815,-5.189076047,11.573676067,-1.576867822,-8.518269126,1.351582845
1696594847.838805,952034.000000000,1696594847.836601257,0.014000000,-0.023000000,0.050000000,0.000000000,0.000000000,0.000000000,,,,,,,,
1696594847.840094,952035.000000000,1696594847.838532925,0.014000000,-0.023000000,0.051000000,0.000000000,0.000000000,0.000000000,,,,,,,,
1696594847.842105,952036.000000000,1696594847.840506554,0.013000000,-0.023000000,0.053000000,0.000000000,0.000000000,0.000000000,,,,,,,,
1696594847.844115,952037.000000000,1696594847.842518330,0.012000000,-0.023000000,0.054000000,0.000000000,0.000000000,0.000000000,,,,,,,,
1696594847.846429,,,,,,,,,269704.000000000,1696594847.844153881,31.672795693,-5.072113746,11.318881354,-1.600812250,-8.384194176,1.350468755
1696594847.846934,952038.000000000,1696594847.844524384,0.012000000,-0.023000000,0.057000000,0.000000000,0.000000000,0.000000000,,,,,,,,
1696594847.848204,952039.000000000,1696594847.846567631,0.011000000,-0.023000000,0.059000000,0.000000000,0.000000000,0.000000000,,,,,,,,
1696594847.850949,952040.000000000,1696594847.848566055,0.011000000,-0.022000000,0.061000000,0.000000000,0.000000000,0.000000000,,,,,,,,
1696594847.852123,952041.000000000,1696594847.850487709,0.012000000,-0.022000000,0.063000000,0.000000000,0.000000000,0.000000000,,,,,,,,
1696594847.854271,,,,,,,,,269705.000000000,1696594847.852080584,31.209033195,-5.518439444,11.597050822,-1.734767872,-8.089226774,1.297056269
1696594847.854426,952042.000000000,1696594847.852518797,0.012000000,-0.022000000,0.066000000,0.000000000,0.000000000,-0.001000000,,,,,,,,
1696594847.856174,952043.000000000,1696594847.854512215,0.013000000,-0.022000000,0.068000000,0.000000000,0.000000000,-0.001000000,,,,,,,,
1696594847.858121,952044.000000000,1696594847.856539488,0.013000000,-0.021000000,0.069000000,0.000000000,0.000000000,-0.001000000,,,,,,,,
1696594847.860115,952045.000000000,1696594847.858485937,0.013000000,-0.021000000,0.071000000,0.000000000,0.000000000,-0.001000000,,,,,,,,
1696594847.862398,,,,,,,,,269706.000000000,1696594847.860098839,31.379275757,-6.053922963,11.048003173,-1.912660825,-8.205983518,1.357698422
1696594847.862574,952046.000000000,1696594847.860542297,0.012000000,-0.021000000,0.073000000,0.000000000,0.000000000,-0.001000000,,,,,,,,
1696594847.864069,952047.000000000,1696594847.862503529,0.011000000,-0.021000000,0.074000000,0.000000000,0.000000000,-0.001000000,,,,,,,,
1696594847.866081,952048.000000000,1696594847.864521742,0.010000000,-0.021000000,0.074000000,0.000000000,0.000000000,-0.001000000,,,,,,,,
1696594847.868051,952049.000000000,1696594847.866488695,0.009000000,-0.021000000,0.076000000,0.000000000,0.000000000,-0.001000000,,,,,,,,
1696594847.869891,,,,,,,,,269707.000000000,1696594847.868026495,31.463472917,-4.779801789,11.222336455,-1.370222519,-8.290305671,1.388016039
1696594847.870564,952050.000000000,1696594847.868610620,0.009000000,-0.021000000,0.076000000,0.000000000,0.000000000,-0.001000000,,,,,,,,
1696594847.872252,952051.000000000,1696594847.870563269,0.009000000,-0.021000000,0.077000000,0.000000000,0.000000000,-0.001000000,,,,,,,,
1696594847.874106,952052.000000000,1696594847.872528553,0.009000000,-0.021000000,0.080000000,0.000000000,0.000000000,-0.001000000,,,,,,,,
1696594847.876045,952053.000000000,1696594847.874499083,0.009000000,-0.021000000,0.081000000,0.000000000,0.000000000,-0.001000000,,,,,,,,
1696594847.877826,,,,,,,,,269708.000000000,1696594847.876127481,31.765509816,-5.844415306,10.799550979,-1.836247262,-8.415355873,1.330341724
1696594847.878135,952054.000000000,1696594847.876517534,0.010000000,-0.021000000,0.082000000,0.000000000,0.000000000,-0.001000000,,,,,,,,
1696594847.880459,952055.000000000,1696594847.878550768,0.010000000,-0.021000000,0.083000000,0.000000000,0.000000000,-0.001000000,,,,,,,,
1696594847.882092,952056.000000000,1696594847.880520344,0.010000000,-0.021000000,0.084000000,0.000000000,0.000000000,-0.001000000,,,,,,,,
1696594847.884068,952057.000000000,1696594847.882514000,0.009000000,-0.021000000,0.083000000,0.000000000,0.000000000,-0.001000000,,,,,,,,
1696594847.885958,,,,,,,,,269709.000000000,1696594847.884141445,31.562383446,-5.775742845,11.665892356,-1.858152394,-8.421214519,1.411153843
1696594847.886300,952058.000000000,1696594847.884514570,0.009000000,-0.021000000,0.082000000,0.000000000,0.000000000,-0.001000000,,,,,,,,
1696594847.888072,952059.000000000,1696594847.886518002,0.008000000,-0.022000000,0.082000000,0.000000000,0.000000000,-0.001000000,,,,,,,,
1696594847.890183,952060.000000000,1696594847.888530970,0.007000000,-0.022000000,0.082000000,0.000000000,0.000000000,-0.001000000,,,,,,,,
1696594847.892105,952061.000000000,1696594847.890505791,0.006000000,-0.022000000,0.082000000,0.000000000,0.000000000,-0.001000000,,,,,,,,
1696594847.894249,,,,,,,,,269710.000000000,1696594847.892225742,31.021113020,-5.405074765,11.010169596,-1.746198855,-8.044743052,1.418787985
1696594847.894257,952062.000000000,1696594847.892580032,0.006000000,-0.023000000,0.081000000,0.000000000,0.000000000,-0.001000000,,,,,,,,
1696594847.896099,952063.000000000,1696594847.894519091,0.007000000,-0.023000000,0.081000000,0.000000000,0.000000000,-0.001000000,,,,,,,,
1696594847.898089,952064.000000000,1696594847.896535635,0.007000000,-0.023000000,0.081000000,0.000000000,0.000000000,-0.001000000,,,,,,,,
1696594847.900091,952065.000000000,1696594847.898540258,0.008000000,-0.023000000,0.081000000,0.000000000,0.000000000,-0.001000000,,,,,,,,
1696594847.901704,,,,,,,,,269711.000000000,1696594847.900100231,31.590157782,-5.497757841,11.370842523,-1.796429702,-8.353778925,1.518790552
1696594847.902469,952066.000000000,1696594847.900565863,0.009000000,-0.024000000,0.080000000,0.000000000,0.000000000,-0.001000000,,,,,,,,
1696594847.904485,952067.000000000,1696594847.902494907,0.009000000,-0.024000000,0.079000000,0.000000000,0.000000000,-0.001000000,,,,,,,,
1696594847.906107,952068.000000000,1696594847.904524088,0.010000000,-0.024000000,0.077000000,0.000000000,0.000000000,-0.001000000,,,,,,,,
1696594847.908072,952069.000000000,1696594847.906517267,0.009000000,-0.025000000,0.076000000,0.000000000,0.000000000,-0.001000000,,,,,,,,
1696594847.909774,,,,,,,,,269712.000000000,1696594847.908107042,31.541538191,-4.824182264,11.044272615,-1.440978763,-8.385141570,1.361324028
1696594847.910335,952070.000000000,1696594847.908556223,0.009000000,-0.025000000,0.074000000,0.000000000,0.000000000,-0.001000000,,,,,,,,
1696594847.912177,952071.000000000,1696594847.910560608,0.009000000,-0.025000000,0.073000000,0.000000000,0.000000000,-0.001000000,,,,,,,,
1696594847.914079,952072.000000000,1696594847.912518740,0.008000000,-0.026000000,0.071000000,0.000000000,0.000000000,-0.001000000,,,,,,,,
1696594847.916084,952073.000000000,1696594847.914529800,0.009000000,-0.026000000,0.070000000,0.000000000,0.000000000,-0.001000000,,,,,,,,
1696594847.918195,,,,,,,,,269713.000000000,1696594847.916079521,31.454067723,-5.317104324,11.227112198,-1.661047760,-8.277544357,1.420249781
1696594847.918495,952074.000000000,1696594847.916619301,0.009000000,-0.026000000,0.069000000,0.000000000,0.000000000,-0.001000000,,,,,,,,
1696594847.920119,952075.000000000,1696594847.918535233,0.010000000,-0.027000000,0.068000000,0.000000000,0.000000000,-0.001000000,,,,,,,,
1696594847.922091,952076.000000000,1696594847.920510530,0.011000000,-0.027000000,0.068000000,0.000000000,0.000000000,0.000000000,,,,,,,,
1696594847.924056,952077.000000000,1696594847.922493219,0.013000000,-0.026000000,0.066000000,0.000000000,0.000000000,0.000000000,,,,,,,,
1696594847.926064,,,,,,,,,269714.000000000,1696594847.924093485,30.658351485,-5.621736034,11.320276403,-1.785961869,-8.019945554,1.418837539
1696594847.926571,952078.000000000,1696594847.924603939,0.014000000,-0.026000000,0.066000000,0.000000000,0.000000000,0.000000000,,,,,,,,
1696594847.928117,952079.000000000,1696594847.926501274,0.014000000,-0.026000000,0.064000000,0.000000000,0.000000000,0.000000000,,,,,,,,
1696594847.930120,952080.000000000,1696594847.928530455,0.015000000,-0.026000000,0.062000000,0.000000000,0.000000000,0.000000000,,,,,,,,
1696594847.932061,952081.000000000,1696594847.930501699,0.015000000,-0.027000000,0.060000000,0.000000000,0.000000000,0.000000000,,,,,,,,
1696594847.934108,,,,,,,,,269715.000000000,1696594847.932063580,31.395444945,-4.959311637,10.966943465,-1.503228014,-8.314153325,1.361770762
1696594847.934248,952082.000000000,1696594847.932530403,0.015000000,-0.026000000,0.058000000,0.000000000,0.000000000,0.000000000,,,,,,,,
1696594847.936090,952083.000000000,1696594847.934516907,0.014000000,-0.027000000,0.058000000,0.000000000,0.000000000,0.000000000,,,,,,,,
1696594847.938343,952084.000000000,1696594847.936585665,0.015000000,-0.026000000,0.057000000,0.000000000,0.000000000,0.000000000,,,,,,,,
1696594847.940054,952085.000000000,1696594847.938481092,0.015000000,-0.026000000,0.057000000,0.000000000,0.000000000,0.000000000,,,,,,,,
1696594847.941898,,,,,,,,,269716.000000000,1696594847.940088034,31.426065169,-5.318974682,11.086112042,-1.605691718,-8.259735648,1.378882065
1696594847.942268,952086.000000000,1696594847.940566540,0.016000000,-0.026000000,0.057000000,0.000000000,0.000000000,0.000000000,,,,,,,,
1696594847.944052,952087.000000000,1696594847.942489386,0.017000000,-0.026000000,0.057000000,0.000000000,0.000000000,0.000000000,,,,,,,,
1696594847.946563,952088.000000000,1696594847.944583893,0.018000000,-0.025000000,0.056000000,0.000000000,0.000000000,0.000000000,,,,,,,,
1696594847.948085,952089.000000000,1696594847.946542501,0.019000000,-0.024000000,0.056000000,0.000000000,0.000000000,0.000000000,,,,,,,,
1696594847.950335,,,,,,,,,269717.000000000,1696594847.948078632,31.706031010,-5.767601822,11.124358429,-1.852389534,-8.478037664,1.494304571
1696594847.950558,952090.000000000,1696594847.948564529,0.020000000,-0.024000000,0.057000000,0.000000000,0.000000000,0.000000000,,,,,,,,
1696594847.952235,952091.000000000,1696594847.950504780,0.020000000,-0.023000000,0.057000000,0.000000000,0.000000000,0.000000000,,,,,,,,
1696594847.954069,952092.000000000,1696594847.952516079,0.020000000,-0.023000000,0.057000000,0.000000000,0.000000000,0.000000000,,,,,,,,
1696594847.956023,952093.000000000,1696594847.954476118,0.019000000,-0.023000000,0.056000000,0.000000000,0.000000000,0.000000000,,,,,,,,
1696594847.957831,,,,,,,,,269718.000000000,1696594847.956136703,31.133562172,-5.489342238,11.547024335,-1.752643699,-8.156184223,1.392629783
1696594847.958570,952094.000000000,1696594847.956588745,0.019000000,-0.022000000,0.056000000,0.000000000,0.000000000,0.000000000,,,,,,,,
1696594847.960131,952095.000000000,1696594847.958563805,0.018000000,-0.022000000,0.056000000,0.000000000,0.000000000,0.000000000,,,,,,,,
1696594847.962111,952096.000000000,1696594847.960545063,0.018000000,-0.021000000,0.056000000,0.000000000,0.000000000,0.000000000,,,,,,,,
1696594847.964034,952097.000000000,1696594847.962475777,0.018000000,-0.020000000,0.057000000,0.000000000,0.000000000,0.000000000,,,,,,,,
1696594847.966347,,,,,,,,,269719.000000000,1696594847.964086056,31.283215131,-5.287832552,12.078622265,-1.601261099,-8.359092375,1.350370781
1696594847.966475,952098.000000000,1696594847.964593887,0.019000000,-0.019000000,0.057000000,0.000000000,0.000000000,0.000000000,,,,,,,,
1696594847.968077,952099.000000000,1696594847.966510296,0.019000000,-0.019000000,0.058000000,0.000000000,0.000000000,0.000000000,,,,,,,,
1696594847.970212,952100.000000000,1696594847.968504429,0.020000000,-0.018000000,0.057000000,0.000000000,0.000000000,0.000000000,,,,,,,,
1696594847.972143,952101.000000000,1696594847.970512152,0.020000000,-0.017000000,0.057000000,0.000000000,0.000000000,0.000000000,,,,,,,,
1696594847.974433,,,,,,,,,269720.000000000,1696594847.972090006,31.282336451,-5.483872454,10.927397402,-1.678882323,-8.246028793,1.448338171
1696594847.974609,952102.000000000,1696594847.972586870,0.020000000,-0.016000000,0.056000000,0.000000000,0.000000000,0.000000000,,,,,,,,
1696594847.976081,952103.000000000,1696594847.974507570,0.019000000,-0.016000000,0.055000000,0.000000000,0.000000000,0.000000000,,,,,,,,
1696594847.978199,952104.000000000,1696594847.976552010,0.018000000,-0.015000000,0.053000000,0.000000000,0.000000000,0.000000000,,,,,,,,
1696594847.980081,952105.000000000,1696594847.978505135,0.017000000,-0.014000000,0.053000000,0.000000000,0.000000000,0.000000000,,,,,,,,
1696594847.982371,,,,,,,,,269721.000000000,1696594847.980128050,31.979099292,-6.329925937,11.940478279,-2.074573868,-8.646480939,1.390763128
1696594847.982760,952106.000000000,1696594847.980555773,0.016000000,-0.013000000,0.050000000,0.000000000,0.000000000,0.000000000,,,,,,,,
1696594847.984138,952107.000000000,1696594847.982502460,0.015000000,-0.012000000,0.049000000,0.000000000,0.000000000,0.000000000,,,,,,,,
1696594847.986115,952108.000000000,1696594847.984554768,0.015000000,-0.011000000,0.048000000,0.000000000,0.000000000,0.000000000,,,,,,,,
1696594847.990140,952109.000000000,1696594847.987784147,0.015000000,-0.010000000,0.046000000,0.000000000,0.000000000,0.000000000,,,,,,,,
1696594847.990985,,,,,,,,,269722.000000000,1696594847.988237858,31.427528793,-5.683955244,10.841940091,-1.820183083,-8.343699700,1.409636026
1696594847.991299,952110.000000000,1696594847.988993645,0.015000000,-0.009000000,0.043000000,0.000000000,0.000000000,0.000000000,,,,,,,,
1696594847.992869,952111.000000000,1696594847.990978241,0.015000000,-0.008000000,0.042000000,0.000000000,0.000000000,0.000000000,,,,,,,,
1696594847.995117,952112.000000000,1696594847.992781162,0.015000000,-0.007000000,0.039000000,0.000000000,0.000000000,0.000000000,,,,,,,,
1696594847.996462,952113.000000000,1696594847.994513750,0.015000000,-0.006000000,0.036000000,0.000000000,0.000000000,0.000000000,,,,,,,,
1696594847.998217,,,,,,,,,269723.000000000,1696594847.996156454,30.807204255,-4.728457362,11.014892804,-1.432508300,-7.995747276,1.411646598
1696594847.998227,952114.000000000,1696594847.996587753,0.013000000,-0.005000000,0.032000000,0.000000000,0.000000000,0.000000000,,,,,,,,
1696594848.000146,952115.000000000,1696594847.998521328,0.012000000,-0.004000000,0.029000000,0.000000000,0.000000000,0.000000000,,,,,,,,
1696594848.002105,952116.000000000,1696594848.000509501,0.011000000,-0.003000000,0.025000000,0.000000000,0.000000000,0.000000000,,,,,,,,
1696594848.004534,952117.000000000,1696594848.002553701,0.009000000,-0.002000000,0.021000000,0.000000000,0.000000000,0.000000000,,,,,,,,
1696594848.006186,,,,,,,,,269724.000000000,1696594848.004080296,31.467599691,-5.458465931,12.143264810,-1.745382294,-8.364203579,1.476565510
1696594848.006572,952118.000000000,1696594848.004646301,0.008000000,-0.001000000,0.018000000,0.000000000,0.000000000,0.000000000,,,,,,,,
1696594848.008054,952119.000000000,1696594848.006501675,0.008000000,-0.001000000,0.014000000,0.000000000,0.000000000,0.000000000,,,,,,,,
1696594848.010066,952120.000000000,1696594848.008496284,0.008000000,0.000000000,0.011000000,0.000000000,0.000000000,0.000000000,,,,,,,,
1696594848.012055,952121.000000000,1696594848.010476112,0.007000000,0.000000000,0.007000000,0.000000000,0.000000000,0.000000000,,,,,,,,
1696594848.013941,,,,,,,,,269725.000000000,1696594848.012071848,31.184061858,-6.082656529,10.570731102,-1.893019779,-8.139717023,1.356941870
1696594848.014345,952122.000000000,1696594848.012477636,0.008000000,0.001000000,0.005000000,0.000000000,0.000000000,0.000000000,,,,,,,,
1696594848.016126,952123.000000000,1696594848.014496803,0.008000000,0.002000000,0.002000000,0.000000000,0.000000000,0.000000000,,,,,,,,
1696594848.018145,952124.000000000,1696594848.016514540,0.007000000,0.003000000,0.000000000,0.000000000,0.000000000,0.000000000,,,,,,,,
1696594848.020356,952125.000000000,1696594848.018507719,0.007000000,0.003000000,-0.004000000,0.000000000,0.000000000,0.000000000,,,,,,,,
1696594848.021841,,,,,,,,,269726.000000000,1696594848.020083427,31.524092051,-4.991071852,11.297771462,-1.571520635,-8.359895803,1.307735832
1696594848.022305,952126.000000000,1696594848.020559549,0.006000000,0.004000000,-0.006000000,0.000000000,0.000000000,0.000000000,,,,,,,,
1696594848.024149,952127.000000000,1696594848.022489548,0.004000000,0.004000000,-0.009000000,0.000000000,0.000000000,0.000000000,,,,,,,,
1696594848.026228,952128.000000000,1696594848.024526834,0.003000000,0.005000000,-0.011000000,0.000000000,0.000000000,0.001000000,,,,,,,,
1696594848.028106,952129.000000000,1696594848.026483059,0.002000000,0.005000000,-0.014000000,0.000000000,0.000000000,0.001000000,,,,,,,,
1696594848.029820,,,,,,,,,269727.000000000,1696594848.028079271,31.403644467,-4.983323632,11.547468882,-1.541575237,-8.223193091,1.320788297
1696594848.030732,952130.000000000,1696594848.028529644,0.002000000,0.004000000,-0.015000000,0.000000000,0.000000000,0.001000000,,,,,,,,
1696594848.032197,952131.000000000,1696594848.030523539,0.002000000,0.005000000,-0.017000000,0.000000000,0.000000000,0.001000000,,,,,,,,
1696594848.034130,952132.000000000,1696594848.032511950,0.002000000,0.005000000,-0.017000000,0.000000000,0.000000000,0.001000000,,,,,,,,
1696594848.036037,952133.000000000,1696594848.034493923,0.002000000,0.005000000,-0.017000000,0.000000000,0.000000000,0.001000000,,,,,,,,
1696594848.038091,,,,,,,,,269728.000000000,1696594848.036232948,31.424770145,-5.629359423,11.005393671,-1.773012673,-8.270583577,1.422881395
1696594848.038234,952134.000000000,1696594848.036537170,0.003000000,0.005000000,-0.016000000,0.000000000,0.000000000,0.001000000,,,,,,,,
1696594848.040316,952135.000000000,1696594848.038523436,0.003000000,0.004000000,-0.016000000,0.000000000,0.000000000,0.001000000,,,,,,,,
1696594848.042125,952136.000000000,1696594848.040554762,0.004000000,0.004000000,-0.016000000,0.000000000,0.000000000,0.001000000,,,,,,,,
1696594848.044219,952137.000000000,1696594848.042492390,0.003000000,0.003000000,-0.016000000,0.000000000,0.000000000,0.001000000,,,,,,,,
1696594848.045999,,,,,,,,,269729.000000000,1696594848.044074535,31.303981307,-6.005327577,11.663501167,-1.830497137,-8.293728926,1.425606355
1696594848.046254,952138.000000000,1696594848.044558048,0.003000000,0.003000000,-0.015000000,0.000000000,0.000000000,0.001000000,,,,,,,,
1696594848.048267,952139.000000000,1696594848.046580791,0.002000000,0.002000000,-0.014000000,0.000000000,0.000000000,0.001000000,,,,,,,,
1696594848.051035,952140.000000000,1696594848.048614979,0.002000000,0.001000000,-0.012000000,0.000000000,0.000000000,0.001000000,,,,,,,,
1696594848.052295,952141.000000000,1696594848.050505161,0.002000000,0.000000000,-0.011000000,0.000000000,0.000000000,0.001000000,,,,,,,,
1696594848.053976,,,,,,,,,269730.000000000,1696594848.052139282,31.332933618,-4.918489789,11.359757460,-1.531953044,-8.312796629,1.319843514
1696594848.054533,952142.000000000,1696594848.052542686,0.002000000,0.000000000,-0.007000000,0.000000000,0.000000000,0.001000000,,,,,,,,
1696594848.056208,952143.000000000,1696594848.054531336,0.003000000,-0.001000000,-0.005000000,0.000000000,0.000000000,0.001000000,,,,,,,,
1696594848.058179,952144.000000000,1696594848.056531906,0.004000000,-0.002000000,-0.002000000,0.000000000,0.000000000,0.000000000,,,,,,,,
1696594848.060190,952145.000000000,1696594848.058514118,0.005000000,-0.003000000,0.000000000,0.000000000,0.000000000,0.000000000,,,,,,,,
1696594848.062044,,,,,,,,,269731.000000000,1696594848.060056448,31.236790159,-5.200486336,10.500049259,-1.642270354,-8.166785780,1.321858616
1696594848.062519,952146.000000000,1696594848.060531616,0.006000000,-0.004000000,0.003000000,0.000000000,0.000000000,0.000000000,,,,,,,,
1696594848.064117,952147.000000000,1696594848.062512398,0.007000000,-0.005000000,0.006000000,0.000000000,0.000000000,0.000000000,,,,,,,,
1696594848.066156,952148.000000000,1696594848.064542055,0.007000000,-0.006000000,0.009000000,0.000000000,0.000000000,0.000000000,,,,,,,,
1696594848.068121,952149.000000000,1696594848.066517830,0.008000000,-0.008000000,0.010000000,0.000000000,0.000000000,0.000000000,,,,,,,,
1696594848.070130,,,,,,,,,269732.000000000,1696594848.068083525,31.296750567,-4.990512632,11.425228345,-1.543641591,-8.214875012,1.306551484
1696594848.070322,952150.000000000,1696594848.068557978,0.008000000,-0.009000000,0.012000000,0.000000000,0.000000000,0.000000000,,,,,,,,
1696594848.072096,952151.000000000,1696594848.070511103,0.008000000,-0.010000000,0.014000000,0.000000000,0.000000000,0.000000000,,,,,,,,
1696594848.074235,952152.000000000,1696594848.072555542,0.008000000,-0.012000000,0.016000000,0.000000000,0.000000000,0.000000000,,,,,,,,
1696594848.076082,952153.000000000,1696594848.074491978,0.008000000,-0.013000000,0.019000000,0.000000000,0.000000000,0.000000000,,,,,,,,
1696594848.078196,952154.000000000,1696594848.076517344,0.010000000,-0.014000000,0.021000000,0.000000000,0.000000000,0.000000000,,,,,,,,
1696594848.078643,,,,,,,,,269733.000000000,1696594848.076059341,31.684097764,-5.725530934,11.505634070,-1.825737712,-8.494787554,1.411337637
1696594848.080144,952155.000000000,1696594848.078512430,0.011000000,-0.015000000,0.023000000,0.000000000,0.000000000,0.000000000,,,,,,,,
1696594848.082122,952156.000000000,1696594848.080521822,0.012000000,-0.016000000,0.025000000,0.000000000,0.000000000,0.000000000,,,,,,,,
1696594848.084082,952157.000000000,1696594848.082488537,0.014000000,-0.017000000,0.027000000,0.000000000,0.000000000,0.000000000,,,,,,,,
1696594848.086187,,,,,,,,,269734.000000000,1696594848.084112167,31.610209192,-4.632481780,11.226310224,-1.372345885,-8.383909235,1.332478606
1696594848.086332,952158.000000000,1696594848.084555864,0.015000000,-0.018000000,0.029000000,0.000000000,0.000000000,0.000000000,,,,,,,,
1696594848.088169,952159.000000000,1696594848.086555719,0.016000000,-0.018000000,0.030000000,0.000000000,0.000000000,0.000000000,,,,,,,,
1696594848.090086,952160.000000000,1696594848.088520527,0.016000000,-0.019000000,0.030000000,0.000000000,0.000000000,0.000000000,,,,,,,,
1696594848.092136,952161.000000000,1696594848.090560913,0.016000000,-0.020000000,0.030000000,0.000000000,0.000000000,0.000000000,,,,,,,,
1696594848.094015,,,,,,,,,269735.000000000,1696594848.092135668,31.164288678,-5.313387579,11.808357097,-1.620486961,-8.089947281,1.363728019
1696594848.095265,952162.000000000,1696594848.092591524,0.015000000,-0.021000000,0.032000000,0.000000000,0.000000000,0.000000000,,,,,,,,
1696594848.096101,952163.000000000,1696594848.094516039,0.016000000,-0.021000000,0.031000000,0.000000000,0.000000000,0.000000000,,,,,,,,
1696594848.098074,952164.000000000,1696594848.096506119,0.016000000,-0.022000000,0.032000000,0.000000000,0.000000000,0.000000000,,,,,,,,
1696594848.100119,952165.000000000,1696594848.098490477,0.016000000,-0.022000000,0.031000000,0.000000000,0.000000000,0.000000000,,,,,,,,
1696594848.101907,,,,,,,,,269736.000000000,1696594848.100105286,31.723931002,-5.408114209,10.996901313,-1.693216512,-8.413404015,1.353729303
1696594848.102211,952166.000000000,1696594848.100517273,0.017000000,-0.022000000,0.032000000,0.000000000,0.000000000,0.000000000,,,,,,,,
1696594848.104221,952167.000000000,1696594848.102508068,0.018000000,-0.022000000,0.032000000,0.000000000,0.000000000,0.000000000,,,,,,,,
1696594848.106098,952168.000000000,1696594848.104501247,0.020000000,-0.022000000,0.031000000,0.000000000,0.000000000,0.000000000,,,,,,,,
1696594848.108129,952169.000000000,1696594848.106496811,0.020000000,-0.023000000,0.031000000,0.000000000,0.000000000,0.000000000,,,,,,,,
1696594848.110101,952170.000000000,1696594848.108515739,0.021000000,-0.023000000,0.030000000,0.000000000,0.000000000,0.000000000,,,,,,,,
1696594848.110907,,,,,,,,,269737.000000000,1696594848.108157635,31.497167809,-5.743816617,11.469818912,-1.818640917,-8.454233943,1.410530921
1696594848.112600,952171.000000000,1696594848.110548019,0.021000000,-0.023000000,0.029000000,0.000000000,0.000000000,0.000000000,,,,,,,,
1696594848.114137,952172.000000000,1696594848.112569571,0.021000000,-0.023000000,0.028000000,0.000000000,0.000000000,0.000000000,,,,,,,,
1696594848.116063,952173.000000000,1696594848.114496946,0.021000000,-0.023000000,0.026000000,0.000000000,0.000000000,0.000000000,,,,,,,,
1696594848.118443,,,,,,,,,269738.000000000,1696594848.116091013,31.348712942,-6.055688259,10.983463599,-1.898574556,-8.152639832,1.330062929
1696594848.118448,952174.000000000,1696594848.116523981,0.020000000,-0.023000000,0.027000000,0.000000000,0.000000000,0.000000000,,,,,,,,
1696594848.120313,952175.000000000,1696594848.118498564,0.020000000,-0.023000000,0.023000000,0.000000000,0.000000000,0.000000000,,,,,,,,
1696594848.122162,952176.000000000,1696594848.120519161,0.020000000,-0.023000000,0.023000000,0.000000000,0.000000000,0.000000000,,,,,,,,
1696594848.124110,952177.000000000,1696594848.122495890,0.021000000,-0.023000000,0.023000000,0.000000000,0.000000000,0.000000000,,,,,,,,
1696594848.126038,,,,,,,,,269739.000000000,1696594848.124072075,31.461244528,-5.688331097,10.979420210,-1.794455273,-8.301506920,1.437342687
1696594848.126256,952178.000000000,1696594848.124549866,0.021000000,-0.022000000,0.023000000,0.000000000,0.000000000,0.000000000,,,,,,,,
1696594848.128068,952179.000000000,1696594848.126490831,0.022000000,-0.022000000,0.022000000,0.000000000,0.000000000,0.000000000,,,,,,,,
1696594848.130131,952180.000000000,1696594848.128555059,0.023000000,-0.021000000,0.022000000,0.000000000,0.000000000,0.000000000,,,,,,,,
1696594848.132115,952181.000000000,1696594848.130493164,0.024000000,-0.021000000,0.021000000,0.000000000,0.000000000,0.000000000,,,,,,,,
1696594848.134269,,,,,,,,,269740.000000000,1696594848.132079601,31.609850300,-4.977148822,11.136496850,-1.538420273,-8.409996968,1.431773764
1696594848.134651,952182.000000000,1696594848.132562160,0.024000000,-0.021000000,0.021000000,0.000000000,0.000000000,0.000000000,,,,,,,,
1696594848.136083,952183.000000000,1696594848.134515762,0.023000000,-0.021000000,0.020000000,0.000000000,0.000000000,0.000000000,,,,,,,,
1696594848.138763,952184.000000000,1696594848.136607170,0.023000000,-0.021000000,0.019000000,0.000000000,0.000000000,0.000000000,,,,,,,,
1696594848.140074,952185.000000000,1696594848.138509035,0.022000000,-0.021000000,0.019000000,0.000000000,0.000000000,0.000000000,,,,,,,,
1696594848.141728,,,,,,,,,269741.000000000,1696594848.140077591,31.672918352,-5.456455111,11.214606132,-1.711885925,-8.399890920,1.408880966
1696594848.142171,952186.000000000,1696594848.140533209,0.022000000,-0.021000000,0.018000000,0.000000000,0.000000000,0.000000000,,,,,,,,
1696594848.144063,952187.000000000,1696594848.142503023,0.022000000,-0.020000000,0.018000000,0.000000000,0.000000000,0.000000000,,,,,,,,
1696594848.146149,952188.000000000,1696594848.144535065,0.022000000,-0.020000000,0.019000000,0.000000000,0.000000000,0.000000000,,,,,,,,
1696594848.148070,952189.000000000,1696594848.146497965,0.022000000,-0.020000000,0.020000000,0.000000000,0.000000000,0.000000000,,,,,,,,
1696594848.150329,,,,,,,,,269742.000000000,1696594848.148092985,31.159405656,-4.841100015,11.272411160,-1.433815002,-8.178319504,1.359492480
1696594848.150670,952190.000000000,1696594848.148632288,0.023000000,-0.020000000,0.020000000,0.000000000,0.000000000,0.000000000,,,,,,,,
1696594848.152092,952191.000000000,1696594848.150509834,0.024000000,-0.019000000,0.020000000,0.000000000,0.000000000,0.000000000,,,,,,,,
1696594848.154403,952192.000000000,1696594848.152697563,0.024000000,-0.019000000,0.021000000,0.000000000,0.000000000,0.000000000,,,,,,,,
1696594848.156114,952193.000000000,1696594848.154513121,0.024000000,-0.019000000,0.021000000,0.000000000,0.000000000,0.000000000,,,,,,,,
1696594848.158159,,,,,,,,,269743.000000000,1696594848.156133413,31.048080857,-5.696828183,12.241986322,-1.818462472,-8.212443048,1.421528720
1696594848.158334,952194.000000000,1696594848.156567097,0.024000000,-0.019000000,0.021000000,0.000000000,0.000000000,0.000000000,,,,,,,,
1696594848.160162,952195.000000000,1696594848.158511162,0.023000000,-0.019000000,0.021000000,0.000000000,0.000000000,0.000000000,,,,,,,,
1696594848.162167,952196.000000000,1696594848.160539865,0.022000000,-0.019000000,0.022000000,0.000000000,0.000000000,0.000000000,,,,,,,,
1696594848.164136,952197.000000000,1696594848.162504673,0.021000000,-0.020000000,0.022000000,0.000000000,0.000000000,0.000000000,,,,,,,,
1696594848.166069,,,,,,,,,269744.000000000,1696594848.164076090,30.810660004,-5.363954342,11.504462446,-1.636708432,-7.918709139,1.348597928
1696594848.166441,952198.000000000,1696594848.164530993,0.021000000,-0.020000000,0.023000000,0.000000000,0.000000000,0.000000000,,,,,,,,
1696594848.168079,952199.000000000,1696594848.166500807,0.021000000,-0.020000000,0.024000000,0.000000000,0.000000000,0.000000000,,,,,,,,
1696594848.170436,952200.000000000,1696594848.168528557,0.021000000,-0.020000000,0.025000000,0.000000000,0.000000000,0.000000000,,,,,,,,
1696594848.172094,952201.000000000,1696594848.170488834,0.021000000,-0.020000000,0.026000000,0.000000000,0.000000000,0.000000000,,,,,,,,
1696594848.173896,,,,,,,,,269745.000000000,1696594848.172117233,31.623132771,-5.630811886,10.662816813,-1.731652511,-8.461509608,1.368938012
1696594848.174312,952202.000000000,1696594848.172526836,0.021000000,-0.020000000,0.028000000,0.000000000,0.000000000,0.000000000,,,,,,,,
1696594848.176069,952203.000000000,1696594848.174506664,0.022000000,-0.020000000,0.028000000,0.000000000,0.000000000,0.000000000,,,,,,,,
1696594848.178097,952204.000000000,1696594848.176513433,0.022000000,-0.021000000,0.028000000,0.000000000,0.000000000,0.000000000,,,,,,,,
1696594848.180106,952205.000000000,1696594848.178541422,0.022000000,-0.021000000,0.029000000,0.000000000,0.000000000,0.000000000,,,,,,,,
1696594848.182126,952206.000000000,1696594848.180527687,0.021000000,-0.021000000,0.029000000,0.000000000,0.000000000,0.000000000,,,,,,,,
1696594848.182256,,,,,,,,,269746.000000000,1696594848.180122375,31.269848221,-5.078293493,11.183349917,-1.547252540,-8.249715609,1.320940821
1696594848.184215,952207.000000000,1696594848.182527542,0.021000000,-0.022000000,0.029000000,0.000000000,0.000000000,0.000000000,,,,,,,,
1696594848.186325,952208.000000000,1696594848.184612751,0.020000000,-0.022000000,0.029000000,0.000000000,0.000000000,0.000000000,,,,,,,,
1696594848.188182,952209.000000000,1696594848.186520815,0.019000000,-0.023000000,0.029000000,0.000000000,0.000000000,0.000000000,,,,,,,,
1696594848.190627,,,,,,,,,269747.000000000,1696594848.188040733,31.690853126,-5.282446283,11.473734252,-1.610613330,-8.568642830,1.503647153
1696594848.191388,952210.000000000,1696594848.188518763,0.018000000,-0.023000000,0.029000000,0.000000000,0.000000000,0.000000000,,,,,,,,
1696594848.192287,952211.000000000,1696594848.190520763,0.019000000,-0.024000000,0.029000000,0.000000000,0.000000000,0.000000000,,,,,,,,
1696594848.194245,952212.000000000,1696594848.192550898,0.019000000,-0.024000000,0.029000000,0.000000000,0.000000000,0.000000000,,,,,,,,
1696594848.196169,952213.000000000,1696594848.194512844,0.020000000,-0.024000000,0.029000000,0.000000000,0.000000000,0.000000000,,,,,,,,
1696594848.198228,,,,,,,,,269748.000000000,1696594848.196170092,31.419124719,-5.217719332,11.113394848,-1.639218357,-8.352327594,1.405436168
1696594848.198290,952214.000000000,1696594848.196515083,0.020000000,-0.025000000,0.031000000,0.000000000,0.000000000,0.000000000,,,,,,,,
1696594848.200366,952215.000000000,1696594848.198625326,0.021000000,-0.025000000,0.030000000,0.000000000,0.000000000,0.000000000,,,,,,,,
1696594848.202212,952216.000000000,1696594848.200529575,0.021000000,-0.025000000,0.029000000,0.000000000,0.000000000,0.000000000,,,,,,,,
1696594848.204351,952217.000000000,1696594848.202522278,0.021000000,-0.025000000,0.029000000,0.000000000,0.000000000,0.000000000,,,,,,,,
1696594848.205880,,,,,,,,,269749.000000000,1696594848.204164982,31.227076247,-6.098714098,11.070262420,-1.970948239,-8.208705714,1.453532509
1696594848.206395,952218.000000000,1696594848.204508781,0.020000000,-0.026000000,0.027000000,0.000000000,0.000000000,0.000000000,,,,,,,,
1696594848.208229,952219.000000000,1696594848.206527948,0.020000000,-0.026000000,0.026000000,0.000000000,0.000000000,0.000000000,,,,,,,,
1696594848.210294,952220.000000000,1696594848.208526373,0.019000000,-0.027000000,0.026000000,0.000000000,0.000000000,0.000000000,,,,,,,,
1696594848.212160,952221.000000000,1696594848.210512161,0.019000000,-0.027000000,0.024000000,0.000000000,0.000000000,0.000000000,,,,,,,,
1696594848.214424,952222.000000000,1696594848.212522268,0.019000000,-0.027000000,0.023000000,0.000000000,0.000000000,0.000000000,,,,,,,,
1696594848.214625,,,,,,,,,269750.000000000,1696594848.212170362,31.342242626,-4.955146167,11.425979805,-1.489156180,-8.167709095,1.457681985
1696594848.216290,952223.000000000,1696594848.214526653,0.020000000,-0.027000000,0.022000000,0.000000000,0.000000000,0.000000000,,,,,,,,
1696594848.218277,952224.000000000,1696594848.216566801,0.020000000,-0.028000000,0.022000000,0.000000000,0.000000000,0.000000000,,,,,,,,
1696594848.220359,952225.000000000,1696594848.218503714,0.022000000,-0.028000000,0.021000000,0.000000000,0.000000000,0.000000000,,,,,,,,
1696594848.222288,,,,,,,,,269751.000000000,1696594848.220037937,31.124812993,-5.220200283,11.843152709,-1.628495726,-8.101613265,1.403931504
1696594848.222466,952226.000000000,1696594848.220579386,0.022000000,-0.028000000,0.019000000,0.000000000,0.000000000,0.000000000,,,,,,,,
1696594848.224215,952227.000000000,1696594848.222576380,0.023000000,-0.028000000,0.018000000,0.000000000,0.000000000,0.000000000,,,,,,,,
1696594848.226209,952228.000000000,1696594848.224530935,0.023000000,-0.027000000,0.017000000,0.000000000,0.000000000,0.000000000,,,,,,,,
1696594848.228029,952229.000000000,1696594848.226433754,0.023000000,-0.028000000,0.015000000,0.000000000,0.000000000,0.000000000,,,,,,,,
1696594848.229904,,,,,,,,,269752.000000000,1696594848.228113174,31.315008269,-4.775502189,10.443665840,-1.475845105,-8.327322798,1.428446653
1696594848.230384,952230.000000000,1696594848.228461504,0.023000000,-0.028000000,0.014000000,0.000000000,0.000000000,0.000000000,,,,,,,,
1696594848.232223,952231.000000000,1696594848.230533600,0.022000000,-0.028000000,0.012000000,0.000000000,0.000000000,0.000000000,,,,,,,,
1696594848.234080,952232.000000000,1696594848.232445717,0.022000000,-0.028000000,0.011000000,0.000000000,0.000000000,0.000000000,,,,,,,,
1696594848.236199,952233.000000000,1696594848.234497547,0.022000000,-0.028000000,0.010000000,0.000000000,0.000000000,0.000000000,,,,,,,,
1696594848.237801,,,,,,,,,269753.000000000,1696594848.236040831,31.777529104,-5.005017294,11.309679025,-1.550347307,-8.574968359,1.432892053
1696594848.238503,952234.000000000,1696594848.236485481,0.022000000,-0.028000000,0.009000000,0.000000000,0.000000000,0.000000000,,,,,,,,
1696594848.241132,952235.000000000,1696594848.238539696,0.023000000,-0.027000000,0.009000000,0.000000000,0.000000000,0.000000000,,,,,,,,
1696594848.242359,952236.000000000,1696594848.240492582,0.024000000,-0.027000000,0.009000000,0.000000000,0.000000000,0.000000000,,,,,,,,
1696594848.244144,952237.000000000,1696594848.242475510,0.025000000,-0.027000000,0.008000000,0.000000000,0.000000000,0.000000000,,,,,,,,
1696594848.246591,,,,,,,,,269754.000000000,1696594848.244102716,31.994391953,-5.972933784,11.810715974,-1.889815636,-8.661896277,1.442645550
1696594848.246658,952238.000000000,1696594848.244512081,0.025000000,-0.026000000,0.007000000,0.000000000,0.000000000,0.000000000,,,,,,,,
1696594848.248215,952239.000000000,1696594848.246483564,0.026000000,-0.026000000,0.006000000,0.000000000,0.000000000,0.000000000,,,,,,,,
1696594848.250257,952240.000000000,1696594848.248570204,0.025000000,-0.026000000,0.005000000,0.000000000,0.000000000,0.000000000,,,,,,,,
1696594848.252221,952241.000000000,1696594848.250516891,0.025000000,-0.025000000,0.004000000,0.000000000,0.000000000,0.000000000,,,,,,,,
1696594848.254394,,,,,,,,,269755.000000000,1696594848.252127409,31.989314436,-5.656062682,11.307209552,-1.785920333,-8.642324126,1.288584615
1696594848.254621,952242.000000000,1696594848.252544880,0.024000000,-0.025000000,0.002000000,0.000000000,0.000000000,0.000000000,,,,,,,,
1696594848.256269,952243.000000000,1696594848.254539490,0.023000000,-0.025000000,0.001000000,0.000000000,0.000000000,0.000000000,,,,,,,,
1696594848.258188,952244.000000000,1696594848.256517172,0.023000000,-0.024000000,0.000000000,0.000000000,0.000000000,0.000000000,,,,,,,,
1696594848.260190,952245.000000000,1696594848.258546591,0.023000000,-0.024000000,0.000000000,0.000000000,0.000000000,0.000000000,,,,,,,,
1696594848.261876,,,,,,,,,269756.000000000,1696594848.260171652,31.642801513,-4.027244615,11.530342622,-1.223419451,-8.353826660,1.409730405
1696594848.262189,952246.000000000,1696594848.260548115,0.023000000,-0.023000000,0.000000000,0.000000000,0.000000000,0.000000000,,,,,,,,
1696594848.264180,952247.000000000,1696594848.262542963,0.024000000,-0.022000000,-0.001000000,0.000000000,0.000000000,0.000000000,,,,,,,,
1696594848.266148,952248.000000000,1696594848.264530659,0.024000000,-0.021000000,0.000000000,0.000000000,0.000000000,0.000000000,,,,,,,,
1696594848.268168,952249.000000000,1696594848.266544580,0.025000000,-0.020000000,-0.002000000,0.000000000,0.000000000,0.000000000,,,,,,,,
1696594848.270891,952250.000000000,1696594848.268549442,0.025000000,-0.019000000,-0.004000000,0.000000000,0.000000000,0.000000000,,,,,,,,
1696594848.270908,,,,,,,,,269757.000000000,1696594848.268163443,31.086790378,-5.790726131,11.037244236,-1.831026986,-8.096045967,1.367581222
1696594848.272153,952251.000000000,1696594848.270528793,0.024000000,-0.018000000,-0.005000000,0.000000000,0.000000000,0.000000000,,,,,,,,
1696594848.274300,952252.000000000,1696594848.272628307,0.023000000,-0.017000000,-0.007000000,0.000000000,0.000000000,0.000000000,,,,,,,,
1696594848.276135,952253.000000000,1696594848.274496794,0.022000000,-0.017000000,-0.009000000,0.000000000,0.000000000,0.000000000,,,,,,,,
1696594848.278481,,,,,,,,,269758.000000000,1696594848.276114702,31.449772829,-5.381344267,11.208653148,-1.684665158,-8.320548247,1.365814805
1696594848.279206,952254.000000000,1696594848.276599646,0.021000000,-0.015000000,-0.011000000,0.001000000,0.000000000,0.000000000,,,,,,,,
1696594848.280237,952255.000000000,1696594848.278503895,0.020000000,-0.014000000,-0.013000000,0.001000000,0.000000000,0.000000000,,,,,,,,
1696594848.282967,952256.000000000,1696594848.281203747,0.019000000,-0.013000000,-0.015000000,0.001000000,0.000000000,0.000000000,,,,,,,,
1696594848.284200,952257.000000000,1696594848.282501221,0.019000000,-0.012000000,-0.018000000,0.000000000,0.000000000,0.000000000,,,,,,,,
1696594848.286278,,,,,,,,,269759.000000000,1696594848.284097672,31.506806746,-5.361894322,11.572354341,-1.679189146,-8.308937305,1.407176278
1696594848.286615,952258.000000000,1696594848.284673452,0.019000000,-0.010000000,-0.019000000,0.000000000,0.000000000,0.001000000,,,,,,,,
1696594848.288188,952259.000000000,1696594848.286542177,0.020000000,-0.008000000,-0.021000000,0.000000000,0.000000000,0.001000000,,,,,,,,
1696594848.290757,952260.000000000,1696594848.288571835,0.020000000,-0.007000000,-0.024000000,0.000000000,0.000000000,0.001000000,,,,,,,,
1696594848.292131,952261.000000000,1696594848.290525675,0.020000000,-0.005000000,-0.027000000,0.000000000,0.000000000,0.001000000,,,,,,,,
1696594848.294096,,,,,,,,,269760.000000000,1696594848.292166233,31.033964105,-5.333353616,10.802647649,-1.677700762,-8.052604360,1.335737182
1696594848.294521,952262.000000000,1696594848.292544603,0.019000000,-0.004000000,-0.029000000,0.000000000,0.000000000,0.001000000,,,,,,,,
1696594848.296127,952263.000000000,1696594848.294543028,0.018000000,-0.003000000,-0.033000000,0.000000000,0.000000000,0.001000000,,,,,,,,
1696594848.298080,952264.000000000,1696594848.296522856,0.017000000,-0.001000000,-0.037000000,0.000000000,0.000000000,0.001000000,,,,,,,,
1696594848.300057,952265.000000000,1696594848.298506737,0.016000000,0.000000000,-0.039000000,0.000000000,0.000000000,0.001000000,,,,,,,,
1696594848.302131,952266.000000000,1696594848.300557852,0.015000000,0.001000000,-0.042000000,0.000000000,0.000000000,0.001000000,,,,,,,,
1696594848.302701,,,,,,,,,269761.000000000,1696594848.300112009,31.116579904,-5.736709248,11.778565587,-1.747241457,-8.173548036,1.381000465
1696594848.304542,952267.000000000,1696594848.302542448,0.014000000,0.002000000,-0.045000000,0.000000000,0.000000000,0.001000000,,,,,,,,
1696594848.306079,952268.000000000,1696594848.304530859,0.014000000,0.003000000,-0.046000000,0.000000000,0.000000000,0.001000000,,,,,,,,
1696594848.308082,952269.000000000,1696594848.306526661,0.014000000,0.005000000,-0.050000000,0.000000000,0.000000000,0.001000000,,,,,,,,
1696594848.310098,,,,,,,,,269762.000000000,1696594848.308120012,31.116171513,-5.349778137,10.631663690,-1.669013617,-8.090458465,1.308817379
