__time,/kms40_driver/wrench/header/seq,/kms40_driver/wrench/header/stamp,/kms40_driver/wrench/wrench/force/x,/kms40_driver/wrench/wrench/force/y,/kms40_driver/wrench/wrench/force/z,/kms40_driver/wrench/wrench/torque/x,/kms40_driver/wrench/wrench/torque/y,/kms40_driver/wrench/wrench/torque/z
1696853839.660081,4839753.000000000,1696853839.658338070,-0.103000000,-0.072000000,0.062000000,0.007000000,0.000000000,-0.007000000
1696853839.660473,4839754.000000000,1696853839.660233259,-0.103000000,-0.072000000,0.062000000,0.007000000,0.000000000,-0.007000000
1696853839.662794,4839755.000000000,1696853839.662201405,-0.103000000,-0.071000000,0.061000000,0.007000000,0.000000000,-0.007000000
1696853839.664092,4839756.000000000,1696853839.664192915,-0.103000000,-0.069000000,0.062000000,0.007000000,0.000000000,-0.007000000
1696853839.667133,4839757.000000000,1696853839.666288614,-0.104000000,-0.068000000,0.062000000,0.007000000,0.000000000,-0.007000000
1696853839.667975,4839758.000000000,1696853839.668165684,-0.104000000,-0.066000000,0.062000000,0.007000000,0.000000000,-0.007000000
1696853839.669987,4839759.000000000,1696853839.670197725,-0.104000000,-0.065000000,0.060000000,0.007000000,0.000000000,-0.007000000
1696853839.671974,4839760.000000000,1696853839.672185421,-0.105000000,-0.065000000,0.059000000,0.007000000,0.000000000,-0.007000000
1696853839.673981,4839761.000000000,1696853839.674205303,-0.105000000,-0.065000000,0.055000000,0.007000000,0.000000000,-0.007000000
1696853839.676163,4839762.000000000,1696853839.676220655,-0.105000000,-0.065000000,0.053000000,0.007000000,0.000000000,-0.007000000
1696853839.678136,4839763.000000000,1696853839.678202391,-0.105000000,-0.065000000,0.050000000,0.007000000,0.000000000,-0.007000000
1696853839.679973,4839764.000000000,1696853839.680182457,-0.105000000,-0.064000000,0.047000000,0.007000000,0.000000000,-0.007000000
1696853839.682135,4839765.000000000,1696853839.682227850,-0.105000000,-0.063000000,0.043000000,0.007000000,0.000000000,-0.007000000
1696853839.684055,4839766.000000000,1696853839.684168339,-0.106000000,-0.062000000,0.041000000,0.007000000,0.000000000,-0.007000000
1696853839.687105,4839767.000000000,1696853839.686554193,-0.106000000,-0.059000000,0.038000000,0.007000000,0.000000000,-0.007000000
1696853839.706870,4839777.000000000,1696853839.706188440,-0.108000000,-0.047000000,-0.001000000,0.007000000,0.000000000,-0.006000000
1696853839.718657,4839783.000000000,1696853839.718198299,-0.110000000,-0.038000000,-0.020000000,0.007000000,0.000000000,-0.005000000
1696853839.731077,4839789.000000000,1696853839.730198383,-0.109000000,-0.039000000,-0.029000000,0.007000000,0.000000000,-0.005000000
1696853839.750015,4839799.000000000,1696853839.750202656,-0.106000000,-0.047000000,-0.015000000,0.007000000,0.000000000,-0.005000000
1696853839.789358,4839818.000000000,1696853839.788199663,-0.097000000,-0.067000000,0.041000000,0.007000000,0.000000000,-0.007000000
1696853839.797722,4839822.000000000,1696853839.796187639,-0.096000000,-0.071000000,0.046000000,0.007000000,0.000000000,-0.007000000
1696853839.814387,4839831.000000000,1696853839.814240694,-0.097000000,-0.070000000,0.057000000,0.007000000,0.000000000,-0.007000000
1696853839.830648,4839839.000000000,1696853839.830193043,-0.098000000,-0.066000000,0.063000000,0.007000000,0.000000000,-0.007000000
1696853839.852780,4839850.000000000,1696853839.852179527,-0.100000000,-0.065000000,0.071000000,0.007000000,0.000000000,-0.007000000
1696853839.860587,4839854.000000000,1696853839.860164642,-0.101000000,-0.068000000,0.070000000,0.007000000,0.000000000,-0.007000000
1696853839.861958,4839855.000000000,1696853839.862178087,-0.100000000,-0.069000000,0.070000000,0.007000000,0.000000000,-0.007000000
1696853839.863982,4839856.000000000,1696853839.864180326,-0.100000000,-0.069000000,0.070000000,0.007000000,0.000000000,-0.007000000
1696853839.866016,4839857.000000000,1696853839.866184473,-0.100000000,-0.069000000,0.070000000,0.007000000,0.000000000,-0.007000000
1696853839.867906,4839858.000000000,1696853839.868164778,-0.100000000,-0.068000000,0.071000000,0.007000000,0.000000000,-0.007000000
1696853839.869956,4839859.000000000,1696853839.870189667,-0.101000000,-0.067000000,0.072000000,0.007000000,0.000000000,-0.007000000
1696853839.871972,4839860.000000000,1696853839.872190714,-0.101000000,-0.066000000,0.073000000,0.007000000,0.000000000,-0.007000000
1696853839.873948,4839861.000000000,1696853839.874192476,-0.101000000,-0.065000000,0.074000000,0.007000000,0.000000000,-0.008000000
1696853839.876457,4839862.000000000,1696853839.876181602,-0.101000000,-0.066000000,0.074000000,0.007000000,0.000000000,-0.008000000
1696853839.878155,4839863.000000000,1696853839.878186941,-0.101000000,-0.066000000,0.074000000,0.007000000,0.000000000,-0.008000000
1696853839.880000,4839864.000000000,1696853839.880209208,-0.101000000,-0.067000000,0.073000000,0.007000000,0.000000000,-0.008000000
1696853839.882006,4839865.000000000,1696853839.882204056,-0.101000000,-0.069000000,0.073000000,0.007000000,0.000000000,-0.008000000
1696853839.883992,4839866.000000000,1696853839.884193420,-0.101000000,-0.070000000,0.074000000,0.007000000,0.000000000,-0.008000000
1696853839.885986,4839867.000000000,1696853839.886203766,-0.101000000,-0.070000000,0.075000000,0.007000000,0.000000000,-0.008000000
1696853839.888065,4839868.000000000,1696853839.888202906,-0.100000000,-0.070000000,0.075000000,0.007000000,0.000000000,-0.008000000
1696853839.889990,4839869.000000000,1696853839.890199184,-0.100000000,-0.069000000,0.077000000,0.007000000,0.000000000,-0.008000000
1696853839.891975,4839870.000000000,1696853839.892180681,-0.100000000,-0.069000000,0.078000000,0.007000000,0.000000000,-0.008000000
1696853839.894011,4839871.000000000,1696853839.894198179,-0.101000000,-0.068000000,0.080000000,0.007000000,0.000000000,-0.008000000
1696853839.895999,4839872.000000000,1696853839.896190643,-0.101000000,-0.067000000,0.082000000,0.007000000,0.000000000,-0.008000000
1696853839.898062,4839873.000000000,1696853839.898184776,-0.101000000,-0.066000000,0.083000000,0.007000000,0.000000000,-0.008000000
1696853839.912829,4839880.000000000,1696853839.912205458,-0.100000000,-0.070000000,0.090000000,0.007000000,0.000000000,-0.008000000
1696853839.913998,4839881.000000000,1696853839.914210320,-0.101000000,-0.069000000,0.093000000,0.007000000,0.000000000,-0.008000000
1696853839.916015,4839882.000000000,1696853839.916196585,-0.101000000,-0.068000000,0.095000000,0.007000000,0.000000000,-0.008000000
1696853839.917998,4839883.000000000,1696853839.918209553,-0.100000000,-0.067000000,0.095000000,0.007000000,0.000000000,-0.008000000
1696853839.919938,4839884.000000000,1696853839.920177460,-0.101000000,-0.066000000,0.098000000,0.007000000,0.000000000,-0.008000000
1696853839.921981,4839885.000000000,1696853839.922195911,-0.101000000,-0.066000000,0.100000000,0.007000000,0.000000000,-0.008000000
1696853839.924234,4839886.000000000,1696853839.924217701,-0.100000000,-0.067000000,0.099000000,0.007000000,0.000000000,-0.008000000
1696853839.926064,4839887.000000000,1696853839.926193953,-0.100000000,-0.068000000,0.098000000,0.007000000,0.000000000,-0.008000000
1696853839.927976,4839888.000000000,1696853839.928189039,-0.100000000,-0.069000000,0.099000000,0.007000000,0.000000000,-0.008000000
1696853839.929988,4839889.000000000,1696853839.930202723,-0.100000000,-0.070000000,0.099000000,0.007000000,0.000000000,-0.008000000
1696853839.931992,4839890.000000000,1696853839.932186604,-0.100000000,-0.070000000,0.099000000,0.007000000,0.000000000,-0.008000000
1696853839.934078,4839891.000000000,1696853839.934278965,-0.099000000,-0.070000000,0.099000000,0.007000000,0.000000000,-0.008000000
1696853839.936053,4839892.000000000,1696853839.936178446,-0.099000000,-0.069000000,0.100000000,0.007000000,0.000000000,-0.008000000
1696853839.938029,4839893.000000000,1696853839.938217878,-0.099000000,-0.068000000,0.101000000,0.007000000,0.000000000,-0.008000000
1696853839.944392,4839896.000000000,1696853839.944196463,-0.099000000,-0.066000000,0.100000000,0.007000000,0.000000000,-0.008000000
1696853839.964472,4839906.000000000,1696853839.964207888,-0.099000000,-0.065000000,0.079000000,0.007000000,0.000000000,-0.008000000
1696853839.966112,4839907.000000000,1696853839.966260433,-0.099000000,-0.064000000,0.076000000,0.007000000,0.000000000,-0.008000000
1696853839.968072,4839908.000000000,1696853839.968260050,-0.099000000,-0.064000000,0.072000000,0.007000000,0.000000000,-0.007000000
1696853839.970012,4839909.000000000,1696853839.970206022,-0.099000000,-0.064000000,0.069000000,0.007000000,0.000000000,-0.007000000
1696853839.972119,4839910.000000000,1696853839.972242117,-0.099000000,-0.064000000,0.064000000,0.007000000,0.000000000,-0.007000000
1696853839.974998,4839911.000000000,1696853839.974248171,-0.099000000,-0.065000000,0.059000000,0.007000000,0.000000000,-0.007000000
1696853839.976560,4839912.000000000,1696853839.976190805,-0.099000000,-0.065000000,0.054000000,0.007000000,0.000000000,-0.007000000
1696853839.978002,4839913.000000000,1696853839.978220940,-0.099000000,-0.064000000,0.050000000,0.007000000,0.000000000,-0.007000000
1696853839.979994,4839914.000000000,1696853839.980201006,-0.099000000,-0.063000000,0.047000000,0.007000000,0.000000000,-0.007000000
1696853839.982007,4839915.000000000,1696853839.982226610,-0.099000000,-0.062000000,0.042000000,0.007000000,0.000000000,-0.007000000
1696853839.984061,4839916.000000000,1696853839.984250069,-0.100000000,-0.059000000,0.041000000,0.007000000,0.000000000,-0.007000000
1696853839.986001,4839917.000000000,1696853839.986208677,-0.100000000,-0.058000000,0.035000000,0.007000000,0.000000000,-0.007000000
1696853839.997906,4839922.000000000,1696853839.996193647,-0.101000000,-0.054000000,0.014000000,0.007000000,0.000000000,-0.006000000
1696853839.998135,4839923.000000000,1696853839.998182058,-0.100000000,-0.054000000,0.008000000,0.007000000,0.000000000,-0.006000000
1696853839.999959,4839924.000000000,1696853840.000182390,-0.100000000,-0.053000000,0.005000000,0.007000000,0.000000000,-0.006000000
1696853840.002018,4839925.000000000,1696853840.002205133,-0.101000000,-0.052000000,0.002000000,0.007000000,0.000000000,-0.006000000
1696853840.004068,4839926.000000000,1696853840.004183531,-0.100000000,-0.050000000,0.000000000,0.007000000,0.000000000,-0.006000000
1696853840.005989,4839927.000000000,1696853840.006202221,-0.101000000,-0.047000000,-0.002000000,0.007000000,0.000000000,-0.006000000
1696853840.008010,4839928.000000000,1696853840.008193731,-0.101000000,-0.045000000,-0.005000000,0.007000000,0.000000000,-0.006000000
1696853840.010097,4839929.000000000,1696853840.010211468,-0.101000000,-0.043000000,-0.007000000,0.007000000,0.000000000,-0.006000000
1696853840.012078,4839930.000000000,1696853840.012245178,-0.101000000,-0.042000000,-0.009000000,0.007000000,0.000000000,-0.006000000
1696853840.014148,4839931.000000000,1696853840.014230967,-0.101000000,-0.042000000,-0.012000000,0.007000000,0.000000000,-0.006000000
1696853840.016091,4839932.000000000,1696853840.016202211,-0.101000000,-0.042000000,-0.014000000,0.007000000,0.000000000,-0.006000000
1696853840.018132,4839933.000000000,1696853840.018233061,-0.100000000,-0.042000000,-0.015000000,0.007000000,0.000000000,-0.005000000
1696853840.020052,4839934.000000000,1696853840.020190716,-0.100000000,-0.042000000,-0.017000000,0.007000000,0.000000000,-0.005000000
1696853840.022071,4839935.000000000,1696853840.022211075,-0.099000000,-0.042000000,-0.018000000,0.007000000,0.000000000,-0.005000000
1696853840.024273,4839936.000000000,1696853840.024191380,-0.099000000,-0.042000000,-0.017000000,0.007000000,0.000000000,-0.005000000
1696853840.026534,4839937.000000000,1696853840.026193619,-0.098000000,-0.042000000,-0.018000000,0.007000000,0.000000000,-0.005000000
1696853840.028110,4839938.000000000,1696853840.028170586,-0.099000000,-0.041000000,-0.016000000,0.007000000,0.000000000,-0.005000000
1696853840.045752,4839946.000000000,1696853840.044200897,-0.095000000,-0.045000000,-0.002000000,0.007000000,0.000000000,-0.006000000
1696853840.046133,4839947.000000000,1696853840.046335220,-0.095000000,-0.046000000,0.001000000,0.007000000,0.000000000,-0.006000000
1696853840.048030,4839948.000000000,1696853840.048195839,-0.094000000,-0.047000000,0.004000000,0.007000000,0.000000000,-0.006000000
1696853840.050087,4839949.000000000,1696853840.050209999,-0.094000000,-0.048000000,0.008000000,0.007000000,0.000000000,-0.006000000
1696853840.052016,4839950.000000000,1696853840.052206039,-0.094000000,-0.048000000,0.012000000,0.007000000,0.000000000,-0.006000000
1696853840.064016,4839955.000000000,1696853840.062204599,-0.093000000,-0.054000000,0.031000000,0.007000000,0.000000000,-0.006000000
1696853840.064431,4839956.000000000,1696853840.064198494,-0.092000000,-0.057000000,0.035000000,0.007000000,0.000000000,-0.007000000
1696853840.066098,4839957.000000000,1696853840.066194534,-0.091000000,-0.060000000,0.036000000,0.007000000,0.000000000,-0.007000000
1696853840.068039,4839958.000000000,1696853840.068182468,-0.091000000,-0.062000000,0.040000000,0.007000000,0.000000000,-0.007000000
1696853840.070034,4839959.000000000,1696853840.070194244,-0.091000000,-0.063000000,0.044000000,0.007000000,0.000000000,-0.007000000
1696853840.092549,4839970.000000000,1696853840.092207193,-0.090000000,-0.076000000,0.069000000,0.007000000,0.000000000,-0.007000000
1696853840.094075,4839971.000000000,1696853840.094201565,-0.090000000,-0.076000000,0.071000000,0.007000000,0.000000000,-0.007000000
1696853840.096083,4839972.000000000,1696853840.096195221,-0.091000000,-0.076000000,0.073000000,0.007000000,0.000000000,-0.007000000
1696853840.098043,4839973.000000000,1696853840.098213434,-0.091000000,-0.075000000,0.074000000,0.007000000,0.000000000,-0.007000000
1696853840.100118,4839974.000000000,1696853840.100232363,-0.091000000,-0.074000000,0.075000000,0.007000000,0.000000000,-0.007000000
1696853840.102012,4839975.000000000,1696853840.102207422,-0.091000000,-0.074000000,0.076000000,0.007000000,0.000000000,-0.007000000
1696853840.104019,4839976.000000000,1696853840.104200363,-0.091000000,-0.074000000,0.077000000,0.007000000,0.000000000,-0.008000000
1696853840.106026,4839977.000000000,1696853840.106207371,-0.091000000,-0.075000000,0.078000000,0.007000000,0.000000000,-0.008000000
1696853840.108118,4839978.000000000,1696853840.108225107,-0.091000000,-0.076000000,0.076000000,0.007000000,0.000000000,-0.007000000
1696853840.110023,4839979.000000000,1696853840.110211849,-0.091000000,-0.077000000,0.076000000,0.007000000,0.000000000,-0.008000000
1696853840.112025,4839980.000000000,1696853840.112198114,-0.090000000,-0.079000000,0.073000000,0.007000000,0.000000000,-0.007000000
1696853840.114486,4839981.000000000,1696853840.114213943,-0.090000000,-0.079000000,0.073000000,0.007000000,0.000000000,-0.007000000
1696853840.129369,4839988.000000000,1696853840.128187895,-0.089000000,-0.074000000,0.071000000,0.007000000,0.000000000,-0.007000000
1696853840.129997,4839989.000000000,1696853840.130211115,-0.088000000,-0.075000000,0.070000000,0.007000000,0.000000000,-0.007000000
1696853840.131976,4839990.000000000,1696853840.132195473,-0.088000000,-0.076000000,0.068000000,0.007000000,0.000000000,-0.007000000
1696853840.134066,4839991.000000000,1696853840.134273291,-0.087000000,-0.077000000,0.066000000,0.007000000,0.000000000,-0.007000000
1696853840.135952,4839992.000000000,1696853840.136191845,-0.087000000,-0.077000000,0.065000000,0.007000000,0.000000000,-0.007000000
1696853840.137965,4839993.000000000,1696853840.138194323,-0.087000000,-0.078000000,0.065000000,0.007000000,0.000000000,-0.007000000
1696853840.139966,4839994.000000000,1696853840.140192270,-0.086000000,-0.077000000,0.064000000,0.007000000,0.000000000,-0.007000000
1696853840.142033,4839995.000000000,1696853840.142200232,-0.086000000,-0.076000000,0.064000000,0.007000000,0.000000000,-0.007000000
1696853840.144091,4839996.000000000,1696853840.144233465,-0.086000000,-0.075000000,0.065000000,0.007000000,0.000000000,-0.007000000
1696853840.146424,4839997.000000000,1696853840.146185398,-0.086000000,-0.074000000,0.064000000,0.007000000,0.000000000,-0.007000000
1696853840.148078,4839998.000000000,1696853840.148212433,-0.086000000,-0.073000000,0.063000000,0.007000000,0.000000000,-0.007000000
1696853840.150040,4839999.000000000,1696853840.150204182,-0.085000000,-0.073000000,0.062000000,0.007000000,0.000000000,-0.007000000
1696853840.151955,4840000.000000000,1696853840.152194738,-0.085000000,-0.073000000,0.062000000,0.007000000,0.000000000,-0.007000000
1696853840.154013,4840001.000000000,1696853840.154199123,-0.085000000,-0.074000000,0.061000000,0.007000000,0.000000000,-0.007000000
1696853840.155969,4840002.000000000,1696853840.156190634,-0.085000000,-0.075000000,0.061000000,0.007000000,0.000000000,-0.007000000
1696853840.158022,4840003.000000000,1696853840.158184052,-0.084000000,-0.076000000,0.060000000,0.007000000,0.000000000,-0.007000000
1696853840.178615,4840013.000000000,1696853840.178192616,-0.086000000,-0.075000000,0.067000000,0.007000000,0.000000000,-0.007000000
1696853840.200541,4840024.000000000,1696853840.200199127,-0.089000000,-0.077000000,0.076000000,0.007000000,0.000000000,-0.008000000
1696853840.222164,4840035.000000000,1696853840.222207785,-0.090000000,-0.078000000,0.072000000,0.007000000,0.000000000,-0.007000000
1696853840.231849,4840039.000000000,1696853840.230206013,-0.090000000,-0.081000000,0.064000000,0.007000000,0.000000000,-0.007000000
1696853840.236604,4840042.000000000,1696853840.236633301,-0.090000000,-0.079000000,0.061000000,0.007000000,0.000000000,-0.007000000
1696853840.238496,4840043.000000000,1696853840.238214254,-0.090000000,-0.078000000,0.058000000,0.007000000,0.000000000,-0.007000000
1696853840.240047,4840044.000000000,1696853840.240201712,-0.090000000,-0.077000000,0.057000000,0.007000000,0.000000000,-0.007000000
1696853840.241984,4840045.000000000,1696853840.242215395,-0.091000000,-0.077000000,0.056000000,0.007000000,0.000000000,-0.007000000
1696853840.244110,4840046.000000000,1696853840.244236708,-0.090000000,-0.078000000,0.052000000,0.007000000,0.000000000,-0.007000000
1696853840.246114,4840047.000000000,1696853840.246187210,-0.090000000,-0.079000000,0.050000000,0.007000000,0.000000000,-0.007000000
1696853840.258720,4840053.000000000,1696853840.258435726,-0.091000000,-0.077000000,0.039000000,0.007000000,0.000000000,-0.007000000
1696853840.260688,4840054.000000000,1696853840.260205746,-0.091000000,-0.075000000,0.038000000,0.007000000,0.000000000,-0.007000000
1696853840.262012,4840055.000000000,1696853840.262222290,-0.091000000,-0.074000000,0.035000000,0.007000000,0.000000000,-0.007000000
1696853840.264232,4840056.000000000,1696853840.264198303,-0.092000000,-0.074000000,0.033000000,0.007000000,0.000000000,-0.007000000
1696853840.266056,4840057.000000000,1696853840.266219854,-0.092000000,-0.073000000,0.030000000,0.007000000,0.000000000,-0.006000000
1696853840.267938,4840058.000000000,1696853840.268182755,-0.092000000,-0.074000000,0.028000000,0.007000000,0.000000000,-0.006000000
1696853840.270025,4840059.000000000,1696853840.270209551,-0.092000000,-0.074000000,0.024000000,0.007000000,0.000000000,-0.006000000
1696853840.272271,4840060.000000000,1696853840.272492886,-0.093000000,-0.074000000,0.022000000,0.007000000,0.000000000,-0.006000000
1696853840.274129,4840061.000000000,1696853840.274325609,-0.093000000,-0.073000000,0.022000000,0.007000000,0.000000000,-0.006000000
1696853840.277059,4840062.000000000,1696853840.276193142,-0.093000000,-0.072000000,0.018000000,0.007000000,0.000000000,-0.006000000
1696853840.278012,4840063.000000000,1696853840.278228045,-0.095000000,-0.071000000,0.018000000,0.007000000,0.000000000,-0.006000000
1696853840.280000,4840064.000000000,1696853840.280196667,-0.095000000,-0.069000000,0.016000000,0.007000000,0.000000000,-0.006000000
1696853840.282032,4840065.000000000,1696853840.282203913,-0.095000000,-0.067000000,0.015000000,0.007000000,0.000000000,-0.006000000
1696853840.284164,4840066.000000000,1696853840.284197569,-0.096000000,-0.065000000,0.013000000,0.007000000,0.000000000,-0.006000000
1696853840.286036,4840067.000000000,1696853840.286186934,-0.097000000,-0.063000000,0.011000000,0.007000000,0.000000000,-0.006000000
1696853840.288039,4840068.000000000,1696853840.288208723,-0.097000000,-0.063000000,0.008000000,0.007000000,0.000000000,-0.006000000
1696853840.299731,4840073.000000000,1696853840.298232079,-0.099000000,-0.061000000,-0.002000000,0.007000000,0.000000000,-0.006000000
1696853840.300525,4840074.000000000,1696853840.300197840,-0.100000000,-0.060000000,-0.003000000,0.007000000,0.000000000,-0.006000000
1696853840.313722,4840080.000000000,1696853840.312261343,-0.103000000,-0.053000000,-0.009000000,0.007000000,0.000000000,-0.006000000
1696853840.314139,4840081.000000000,1696853840.314233780,-0.103000000,-0.053000000,-0.011000000,0.007000000,0.000000000,-0.005000000
1696853840.316097,4840082.000000000,1696853840.316230059,-0.103000000,-0.054000000,-0.012000000,0.007000000,0.000000000,-0.005000000
1696853840.318033,4840083.000000000,1696853840.318229437,-0.103000000,-0.055000000,-0.013000000,0.007000000,0.000000000,-0.005000000
1696853840.320113,4840084.000000000,1696853840.320248604,-0.102000000,-0.055000000,-0.013000000,0.007000000,0.000000000,-0.005000000
1696853840.322070,4840085.000000000,1696853840.322238684,-0.103000000,-0.055000000,-0.011000000,0.007000000,0.000000000,-0.005000000
1696853840.324267,4840086.000000000,1696853840.324243546,-0.103000000,-0.055000000,-0.011000000,0.007000000,0.000000000,-0.005000000
1696853840.326034,4840087.000000000,1696853840.326229572,-0.102000000,-0.054000000,-0.010000000,0.007000000,0.000000000,-0.005000000
1696853840.328008,4840088.000000000,1696853840.328202486,-0.102000000,-0.053000000,-0.008000000,0.007000000,0.000000000,-0.005000000
1696853840.330000,4840089.000000000,1696853840.330211401,-0.102000000,-0.053000000,-0.007000000,0.007000000,0.000000000,-0.006000000
1696853840.338913,4840093.000000000,1696853840.338232994,-0.101000000,-0.058000000,-0.002000000,0.007000000,0.000000000,-0.006000000
1696853840.339978,4840094.000000000,1696853840.340207815,-0.100000000,-0.060000000,-0.001000000,0.007000000,0.000000000,-0.006000000
1696853840.342065,4840095.000000000,1696853840.342240572,-0.099000000,-0.061000000,0.000000000,0.007000000,0.000000000,-0.006000000
1696853840.343991,4840096.000000000,1696853840.344206095,-0.099000000,-0.062000000,0.003000000,0.007000000,0.000000000,-0.006000000
1696853840.345973,4840097.000000000,1696853840.346199512,-0.099000000,-0.063000000,0.006000000,0.007000000,0.000000000,-0.006000000
1696853840.348013,4840098.000000000,1696853840.348200798,-0.098000000,-0.063000000,0.009000000,0.007000000,0.000000000,-0.006000000
1696853840.350015,4840099.000000000,1696853840.350238562,-0.098000000,-0.063000000,0.013000000,0.007000000,0.000000000,-0.006000000
1696853840.352001,4840100.000000000,1696853840.352205515,-0.097000000,-0.064000000,0.016000000,0.007000000,0.000000000,-0.006000000
1696853840.353988,4840101.000000000,1696853840.354203701,-0.097000000,-0.064000000,0.018000000,0.007000000,0.000000000,-0.006000000
1696853840.355966,4840102.000000000,1696853840.356204748,-0.097000000,-0.066000000,0.022000000,0.007000000,0.000000000,-0.006000000
1696853840.358098,4840103.000000000,1696853840.358235598,-0.096000000,-0.068000000,0.024000000,0.007000000,0.000000000,-0.006000000
1696853840.360040,4840104.000000000,1696853840.360242128,-0.096000000,-0.070000000,0.027000000,0.007000000,0.000000000,-0.006000000
1696853840.362077,4840105.000000000,1696853840.362224102,-0.095000000,-0.072000000,0.030000000,0.007000000,0.000000000,-0.006000000
1696853840.364204,4840106.000000000,1696853840.364351273,-0.094000000,-0.074000000,0.030000000,0.007000000,0.000000000,-0.006000000
1696853840.366029,4840107.000000000,1696853840.366219997,-0.094000000,-0.075000000,0.034000000,0.007000000,0.000000000,-0.006000000
1696853840.368057,4840108.000000000,1696853840.368209839,-0.093000000,-0.076000000,0.037000000,0.007000000,0.000000000,-0.006000000
1696853840.370079,4840109.000000000,1696853840.370243549,-0.093000000,-0.076000000,0.041000000,0.007000000,0.000000000,-0.007000000
1696853840.381144,4840114.000000000,1696853840.380194902,-0.093000000,-0.078000000,0.055000000,0.007000000,0.000000000,-0.007000000
1696853840.390960,4840119.000000000,1696853840.390225649,-0.092000000,-0.083000000,0.064000000,0.007000000,0.000000000,-0.007000000
1696853840.392041,4840120.000000000,1696853840.392201900,-0.092000000,-0.083000000,0.066000000,0.007000000,0.000000000,-0.007000000
1696853840.393974,4840121.000000000,1696853840.394208908,-0.093000000,-0.082000000,0.069000000,0.007000000,0.000000000,-0.007000000
1696853840.396123,4840122.000000000,1696853840.396230698,-0.093000000,-0.081000000,0.071000000,0.007000000,0.000000000,-0.007000000
1696853840.398375,4840123.000000000,1696853840.398370504,-0.094000000,-0.080000000,0.074000000,0.007000000,0.000000000,-0.007000000
1696853840.400101,4840124.000000000,1696853840.400219679,-0.094000000,-0.080000000,0.076000000,0.007000000,0.000000000,-0.007000000
1696853840.402008,4840125.000000000,1696853840.402238607,-0.094000000,-0.080000000,0.075000000,0.007000000,0.000000000,-0.007000000
1696853840.404097,4840126.000000000,1696853840.404228210,-0.095000000,-0.081000000,0.076000000,0.007000000,0.000000000,-0.007000000
1696853840.406074,4840127.000000000,1696853840.406210899,-0.094000000,-0.082000000,0.077000000,0.007000000,0.000000000,-0.007000000
1696853840.408071,4840128.000000000,1696853840.408243895,-0.094000000,-0.083000000,0.077000000,0.007000000,0.000000000,-0.007000000
1696853840.409997,4840129.000000000,1696853840.410214663,-0.095000000,-0.083000000,0.078000000,0.007000000,0.000000000,-0.007000000
1696853840.412163,4840130.000000000,1696853840.412222385,-0.095000000,-0.083000000,0.081000000,0.007000000,0.000000000,-0.007000000
1696853840.414263,4840131.000000000,1696853840.414267540,-0.095000000,-0.083000000,0.081000000,0.007000000,0.000000000,-0.008000000
1696853840.416147,4840132.000000000,1696853840.416210651,-0.095000000,-0.082000000,0.084000000,0.007000000,0.000000000,-0.008000000
1696853840.418147,4840133.000000000,1696853840.418241739,-0.096000000,-0.081000000,0.085000000,0.007000000,0.000000000,-0.008000000
1696853840.420108,4840134.000000000,1696853840.420191765,-0.096000000,-0.079000000,0.087000000,0.007000000,0.000000000,-0.008000000
1696853840.422175,4840135.000000000,1696853840.422256231,-0.096000000,-0.079000000,0.088000000,0.007000000,0.000000000,-0.008000000
1696853840.434021,4840141.000000000,1696853840.434205294,-0.096000000,-0.082000000,0.089000000,0.007000000,0.000000000,-0.008000000
1696853840.448311,4840148.000000000,1696853840.448191404,-0.096000000,-0.079000000,0.093000000,0.007000000,0.000000000,-0.008000000
1696853840.464169,4840156.000000000,1696853840.464214802,-0.093000000,-0.081000000,0.090000000,0.007000000,0.000000000,-0.008000000
1696853840.466095,4840157.000000000,1696853840.466268301,-0.093000000,-0.080000000,0.090000000,0.007000000,0.000000000,-0.008000000
1696853840.468112,4840158.000000000,1696853840.468225956,-0.092000000,-0.080000000,0.089000000,0.007000000,0.000000000,-0.008000000
1696853840.470019,4840159.000000000,1696853840.470221996,-0.092000000,-0.080000000,0.089000000,0.007000000,0.000000000,-0.008000000
1696853840.472147,4840160.000000000,1696853840.472246885,-0.092000000,-0.081000000,0.088000000,0.007000000,0.000000000,-0.008000000
1696853840.474106,4840161.000000000,1696853840.474284172,-0.091000000,-0.083000000,0.087000000,0.007000000,0.000000000,-0.008000000
1696853840.492163,4840170.000000000,1696853840.492266893,-0.090000000,-0.081000000,0.085000000,0.007000000,0.000000000,-0.008000000
1696853840.500353,4840174.000000000,1696853840.500163794,-0.091000000,-0.083000000,0.081000000,0.007000000,0.000000000,-0.008000000
1696853840.502063,4840175.000000000,1696853840.502192497,-0.090000000,-0.083000000,0.081000000,0.007000000,0.000000000,-0.008000000
1696853840.504065,4840176.000000000,1696853840.504197598,-0.091000000,-0.083000000,0.081000000,0.007000000,0.000000000,-0.008000000
1696853840.506050,4840177.000000000,1696853840.506181002,-0.091000000,-0.082000000,0.082000000,0.007000000,0.000000000,-0.008000000
1696853840.508000,4840178.000000000,1696853840.508216381,-0.091000000,-0.081000000,0.082000000,0.007000000,0.000000000,-0.008000000
1696853840.510148,4840179.000000000,1696853840.510256529,-0.092000000,-0.079000000,0.083000000,0.007000000,0.000000000,-0.008000000
1696853840.512113,4840180.000000000,1696853840.512218475,-0.092000000,-0.078000000,0.083000000,0.007000000,0.000000000,-0.008000000
1696853840.514147,4840181.000000000,1696853840.514246702,-0.093000000,-0.078000000,0.084000000,0.007000000,0.000000000,-0.008000000
1696853840.516129,4840182.000000000,1696853840.516227484,-0.094000000,-0.077000000,0.083000000,0.007000000,0.000000000,-0.008000000
1696853840.518123,4840183.000000000,1696853840.518250465,-0.094000000,-0.078000000,0.083000000,0.007000000,0.000000000,-0.008000000
1696853840.520009,4840184.000000000,1696853840.520201683,-0.094000000,-0.078000000,0.082000000,0.007000000,0.000000000,-0.008000000
1696853840.522014,4840185.000000000,1696853840.522222281,-0.095000000,-0.079000000,0.082000000,0.007000000,0.000000000,-0.008000000
1696853840.524201,4840186.000000000,1696853840.524324656,-0.095000000,-0.079000000,0.081000000,0.007000000,0.000000000,-0.008000000
1696853840.526151,4840187.000000000,1696853840.526282310,-0.095000000,-0.079000000,0.081000000,0.007000000,0.000000000,-0.008000000
1696853840.528136,4840188.000000000,1696853840.528221607,-0.096000000,-0.078000000,0.081000000,0.007000000,0.000000000,-0.008000000
1696853840.530028,4840189.000000000,1696853840.530244827,-0.096000000,-0.077000000,0.081000000,0.007000000,0.000000000,-0.008000000
1696853840.531991,4840190.000000000,1696853840.532208681,-0.097000000,-0.075000000,0.081000000,0.007000000,0.000000000,-0.008000000
1696853840.534049,4840191.000000000,1696853840.534240723,-0.097000000,-0.074000000,0.080000000,0.007000000,0.000000000,-0.008000000
1696853840.536001,4840192.000000000,1696853840.536218643,-0.099000000,-0.072000000,0.080000000,0.007000000,0.000000000,-0.008000000
1696853840.538170,4840193.000000000,1696853840.538288593,-0.099000000,-0.072000000,0.079000000,0.007000000,0.000000000,-0.008000000
1696853840.540228,4840194.000000000,1696853840.540378571,-0.100000000,-0.072000000,0.078000000,0.007000000,0.000000000,-0.008000000
1696853840.542035,4840195.000000000,1696853840.542227745,-0.100000000,-0.073000000,0.075000000,0.007000000,0.000000000,-0.008000000
1696853840.543985,4840196.000000000,1696853840.544204473,-0.100000000,-0.073000000,0.073000000,0.007000000,0.000000000,-0.008000000
1696853840.545960,4840197.000000000,1696853840.546188116,-0.101000000,-0.073000000,0.071000000,0.007000000,0.000000000,-0.008000000
1696853840.548101,4840198.000000000,1696853840.548221588,-0.101000000,-0.072000000,0.069000000,0.007000000,0.000000000,-0.008000000
1696853840.550012,4840199.000000000,1696853840.550224781,-0.102000000,-0.072000000,0.067000000,0.007000000,0.000000000,-0.007000000
1696853840.552081,4840200.000000000,1696853840.552232265,-0.102000000,-0.070000000,0.065000000,0.007000000,0.000000000,-0.007000000
1696853840.553989,4840201.000000000,1696853840.554204702,-0.103000000,-0.068000000,0.063000000,0.007000000,0.000000000,-0.007000000
1696853840.555990,4840202.000000000,1696853840.556216717,-0.103000000,-0.066000000,0.061000000,0.007000000,0.000000000,-0.007000000
1696853840.558078,4840203.000000000,1696853840.558283567,-0.104000000,-0.064000000,0.059000000,0.007000000,0.000000000,-0.007000000
1696853840.561199,4840204.000000000,1696853840.561408043,-0.105000000,-0.063000000,0.055000000,0.007000000,0.000000000,-0.007000000
1696853840.562460,4840205.000000000,1696853840.562623739,-0.105000000,-0.062000000,0.050000000,0.007000000,0.000000000,-0.007000000
1696853840.564327,4840206.000000000,1696853840.564365387,-0.105000000,-0.062000000,0.048000000,0.007000000,0.000000000,-0.007000000
1696853840.566440,4840207.000000000,1696853840.566231728,-0.105000000,-0.062000000,0.043000000,0.007000000,0.000000000,-0.007000000
1696853840.568138,4840208.000000000,1696853840.568208933,-0.105000000,-0.062000000,0.039000000,0.007000000,0.000000000,-0.007000000
1696853840.570252,4840209.000000000,1696853840.570351362,-0.105000000,-0.061000000,0.034000000,0.007000000,0.000000000,-0.007000000
1696853840.572222,4840210.000000000,1696853840.572221994,-0.106000000,-0.060000000,0.031000000,0.007000000,0.000000000,-0.007000000
1696853840.574327,4840211.000000000,1696853840.574260950,-0.106000000,-0.058000000,0.028000000,0.007000000,0.000000000,-0.007000000
1696853840.576158,4840212.000000000,1696853840.576250553,-0.106000000,-0.056000000,0.024000000,0.007000000,0.000000000,-0.006000000
1696853840.578120,4840213.000000000,1696853840.578240395,-0.107000000,-0.054000000,0.021000000,0.007000000,0.000000000,-0.006000000
1696853840.580169,4840214.000000000,1696853840.580222368,-0.107000000,-0.052000000,0.018000000,0.007000000,0.000000000,-0.006000000
1696853840.582169,4840215.000000000,1696853840.582234621,-0.107000000,-0.050000000,0.015000000,0.007000000,0.000000000,-0.006000000
1696853840.584299,4840216.000000000,1696853840.584268570,-0.107000000,-0.049000000,0.011000000,0.007000000,0.000000000,-0.006000000
1696853840.586296,4840217.000000000,1696853840.586377621,-0.107000000,-0.049000000,0.007000000,0.007000000,0.000000000,-0.006000000
1696853840.588116,4840218.000000000,1696853840.588224173,-0.107000000,-0.049000000,0.004000000,0.007000000,0.000000000,-0.006000000
1696853840.590095,4840219.000000000,1696853840.590225220,-0.107000000,-0.049000000,0.001000000,0.007000000,0.000000000,-0.006000000
1696853840.592050,4840220.000000000,1696853840.592222452,-0.107000000,-0.049000000,-0.002000000,0.007000000,0.000000000,-0.006000000
1696853840.594109,4840221.000000000,1696853840.594232321,-0.107000000,-0.048000000,-0.004000000,0.007000000,0.000000000,-0.006000000
1696853840.596043,4840222.000000000,1696853840.596220255,-0.107000000,-0.047000000,-0.005000000,0.007000000,0.000000000,-0.006000000
1696853840.598065,4840223.000000000,1696853840.598221302,-0.106000000,-0.046000000,-0.008000000,0.007000000,0.000000000,-0.006000000
1696853840.600028,4840224.000000000,1696853840.600219250,-0.107000000,-0.044000000,-0.008000000,0.007000000,0.000000000,-0.006000000
1696853840.602087,4840225.000000000,1696853840.602236271,-0.107000000,-0.043000000,-0.008000000,0.007000000,0.000000000,-0.006000000
1696853840.604143,4840226.000000000,1696853840.604223967,-0.107000000,-0.042000000,-0.008000000,0.007000000,0.000000000,-0.006000000
1696853840.606102,4840227.000000000,1696853840.606256723,-0.107000000,-0.042000000,-0.008000000,0.007000000,0.000000000,-0.006000000
1696853840.608021,4840228.000000000,1696853840.608225584,-0.107000000,-0.042000000,-0.010000000,0.007000000,0.000000000,-0.005000000
1696853840.610031,4840229.000000000,1696853840.610239744,-0.107000000,-0.043000000,-0.010000000,0.007000000,0.000000000,-0.005000000
1696853840.612119,4840230.000000000,1696853840.612224579,-0.106000000,-0.045000000,-0.010000000,0.007000000,0.000000000,-0.005000000
1696853840.614168,4840231.000000000,1696853840.614245176,-0.106000000,-0.046000000,-0.010000000,0.007000000,0.000000000,-0.006000000
1696853840.616093,4840232.000000000,1696853840.616263151,-0.105000000,-0.047000000,-0.009000000,0.007000000,0.000000000,-0.006000000
1696853840.618100,4840233.000000000,1696853840.618239641,-0.105000000,-0.048000000,-0.008000000,0.007000000,0.000000000,-0.006000000
1696853840.620082,4840234.000000000,1696853840.620208979,-0.105000000,-0.048000000,-0.005000000,0.007000000,0.000000000,-0.006000000
1696853840.622051,4840235.000000000,1696853840.622222900,-0.105000000,-0.048000000,-0.003000000,0.007000000,0.000000000,-0.006000000
1696853840.624238,4840236.000000000,1696853840.624213696,-0.105000000,-0.048000000,0.000000000,0.007000000,0.000000000,-0.006000000
1696853840.626131,4840237.000000000,1696853840.626235723,-0.105000000,-0.048000000,0.001000000,0.007000000,0.000000000,-0.006000000
1696853840.628068,4840238.000000000,1696853840.628239155,-0.105000000,-0.049000000,0.004000000,0.007000000,0.000000000,-0.006000000
1696853840.630036,4840239.000000000,1696853840.630217075,-0.105000000,-0.050000000,0.006000000,0.007000000,0.000000000,-0.006000000
1696853840.632133,4840240.000000000,1696853840.632293224,-0.105000000,-0.052000000,0.009000000,0.007000000,0.000000000,-0.006000000
1696853840.634350,4840241.000000000,1696853840.634311914,-0.105000000,-0.055000000,0.011000000,0.007000000,0.000000000,-0.006000000
1696853840.636091,4840242.000000000,1696853840.636238575,-0.105000000,-0.057000000,0.013000000,0.007000000,0.000000000,-0.006000000
1696853840.638078,4840243.000000000,1696853840.638230801,-0.104000000,-0.059000000,0.016000000,0.007000000,0.000000000,-0.006000000
1696853840.640076,4840244.000000000,1696853840.640219450,-0.105000000,-0.061000000,0.019000000,0.007000000,0.000000000,-0.006000000
1696853840.642098,4840245.000000000,1696853840.642232656,-0.104000000,-0.061000000,0.022000000,0.007000000,0.000000000,-0.006000000
1696853840.644102,4840246.000000000,1696853840.644242764,-0.104000000,-0.062000000,0.025000000,0.007000000,0.000000000,-0.006000000
1696853840.646030,4840247.000000000,1696853840.646224499,-0.104000000,-0.062000000,0.028000000,0.007000000,0.000000000,-0.006000000
1696853840.648020,4840248.000000000,1696853840.648218870,-0.105000000,-0.063000000,0.032000000,0.007000000,0.000000000,-0.007000000
1696853840.650061,4840249.000000000,1696853840.650274754,-0.105000000,-0.063000000,0.034000000,0.007000000,0.000000000,-0.007000000
1696853840.652031,4840250.000000000,1696853840.652222872,-0.105000000,-0.064000000,0.038000000,0.007000000,0.000000000,-0.007000000
1696853840.654403,4840251.000000000,1696853840.654255867,-0.105000000,-0.066000000,0.039000000,0.007000000,0.000000000,-0.007000000
1696853840.656209,4840252.000000000,1696853840.656220436,-0.105000000,-0.068000000,0.041000000,0.007000000,0.000000000,-0.007000000
1696853840.658065,4840253.000000000,1696853840.658262253,-0.105000000,-0.070000000,0.043000000,0.007000000,0.000000000,-0.007000000
1696853840.660047,4840254.000000000,1696853840.660240650,-0.105000000,-0.071000000,0.044000000,0.007000000,0.000000000,-0.007000000
1696853840.662028,4840255.000000000,1696853840.662231445,-0.105000000,-0.073000000,0.046000000,0.007000000,0.000000000,-0.007000000
1696853840.664006,4840256.000000000,1696853840.664169312,-0.104000000,-0.074000000,0.048000000,0.007000000,0.000000000,-0.007000000
1696853840.665981,4840257.000000000,1696853840.666166067,-0.105000000,-0.073000000,0.051000000,0.007000000,0.000000000,-0.007000000
1696853840.668079,4840258.000000000,1696853840.668257952,-0.105000000,-0.073000000,0.052000000,0.007000000,0.000000000,-0.007000000
1696853840.670148,4840259.000000000,1696853840.670228243,-0.105000000,-0.072000000,0.054000000,0.007000000,0.000000000,-0.007000000
1696853840.672078,4840260.000000000,1696853840.672257185,-0.105000000,-0.072000000,0.056000000,0.007000000,0.000000000,-0.007000000
1696853840.674035,4840261.000000000,1696853840.674226522,-0.105000000,-0.072000000,0.057000000,0.007000000,0.000000000,-0.007000000
1696853840.676108,4840262.000000000,1696853840.676212072,-0.105000000,-0.073000000,0.057000000,0.007000000,0.000000000,-0.007000000
1696853840.678099,4840263.000000000,1696853840.678223848,-0.105000000,-0.074000000,0.058000000,0.007000000,0.000000000,-0.007000000
1696853840.680103,4840264.000000000,1696853840.680214643,-0.105000000,-0.075000000,0.059000000,0.007000000,0.000000000,-0.007000000
1696853840.682126,4840265.000000000,1696853840.682233334,-0.104000000,-0.076000000,0.058000000,0.007000000,0.000000000,-0.007000000
1696853840.684064,4840266.000000000,1696853840.684207439,-0.104000000,-0.077000000,0.059000000,0.007000000,0.000000000,-0.007000000
1696853840.686677,4840267.000000000,1696853840.686239243,-0.104000000,-0.077000000,0.059000000,0.007000000,0.000000000,-0.007000000
1696853840.688163,4840268.000000000,1696853840.688205242,-0.104000000,-0.076000000,0.060000000,0.007000000,0.000000000,-0.007000000
1696853840.690112,4840269.000000000,1696853840.690224171,-0.104000000,-0.075000000,0.062000000,0.007000000,0.000000000,-0.007000000
1696853840.692044,4840270.000000000,1696853840.692217827,-0.103000000,-0.074000000,0.063000000,0.007000000,0.000000000,-0.007000000
1696853840.694083,4840271.000000000,1696853840.694248676,-0.104000000,-0.073000000,0.064000000,0.007000000,0.000000000,-0.007000000
1696853840.696103,4840272.000000000,1696853840.696213484,-0.103000000,-0.072000000,0.064000000,0.007000000,0.000000000,-0.007000000
1696853840.698081,4840273.000000000,1696853840.698214769,-0.103000000,-0.073000000,0.064000000,0.007000000,0.000000000,-0.007000000
1696853840.700074,4840274.000000000,1696853840.700217247,-0.103000000,-0.073000000,0.064000000,0.007000000,0.000000000,-0.007000000
1696853840.702200,4840275.000000000,1696853840.702208996,-0.102000000,-0.074000000,0.063000000,0.007000000,0.000000000,-0.007000000
1696853840.704222,4840276.000000000,1696853840.704207659,-0.102000000,-0.075000000,0.063000000,0.007000000,0.000000000,-0.007000000
1696853840.706167,4840277.000000000,1696853840.706219673,-0.101000000,-0.076000000,0.062000000,0.007000000,0.000000000,-0.007000000
1696853840.708146,4840278.000000000,1696853840.708228588,-0.101000000,-0.076000000,0.063000000,0.007000000,0.000000000,-0.007000000
1696853840.710057,4840279.000000000,1696853840.710210800,-0.100000000,-0.076000000,0.063000000,0.007000000,0.000000000,-0.007000000
1696853840.712068,4840280.000000000,1696853840.712215662,-0.100000000,-0.075000000,0.064000000,0.007000000,0.000000000,-0.007000000
1696853840.714024,4840281.000000000,1696853840.714221478,-0.100000000,-0.074000000,0.065000000,0.007000000,0.000000000,-0.007000000
1696853840.716122,4840282.000000000,1696853840.716274023,-0.100000000,-0.073000000,0.066000000,0.007000000,0.000000000,-0.007000000
1696853840.718043,4840283.000000000,1696853840.718228817,-0.100000000,-0.072000000,0.066000000,0.007000000,0.000000000,-0.007000000
1696853840.720026,4840284.000000000,1696853840.720214367,-0.099000000,-0.072000000,0.066000000,0.007000000,0.000000000,-0.007000000
1696853840.722172,4840285.000000000,1696853840.722295046,-0.099000000,-0.073000000,0.066000000,0.007000000,0.000000000,-0.007000000
1696853840.724262,4840286.000000000,1696853840.724220514,-0.099000000,-0.074000000,0.066000000,0.007000000,0.000000000,-0.007000000
1696853840.726195,4840287.000000000,1696853840.726327658,-0.099000000,-0.075000000,0.066000000,0.007000000,0.000000000,-0.007000000
1696853840.728116,4840288.000000000,1696853840.728223562,-0.098000000,-0.076000000,0.066000000,0.007000000,0.000000000,-0.007000000
1696853840.730099,4840289.000000000,1696853840.730235577,-0.098000000,-0.077000000,0.065000000,0.007000000,0.000000000,-0.007000000
1696853840.732171,4840290.000000000,1696853840.732214928,-0.098000000,-0.077000000,0.065000000,0.007000000,0.000000000,-0.007000000
1696853840.734120,4840291.000000000,1696853840.734213591,-0.097000000,-0.076000000,0.066000000,0.007000000,0.000000000,-0.007000000
1696853840.736124,4840292.000000000,1696853840.736221790,-0.097000000,-0.075000000,0.067000000,0.007000000,0.000000000,-0.007000000
1696853840.738324,4840293.000000000,1696853840.738269091,-0.097000000,-0.074000000,0.068000000,0.007000000,0.000000000,-0.007000000
1696853840.740117,4840294.000000000,1696853840.740216970,-0.098000000,-0.074000000,0.068000000,0.007000000,0.000000000,-0.007000000
1696853840.742086,4840295.000000000,1696853840.742226124,-0.097000000,-0.073000000,0.068000000,0.007000000,0.000000000,-0.007000000
1696853840.744101,4840296.000000000,1696853840.744208336,-0.098000000,-0.073000000,0.069000000,0.007000000,0.000000000,-0.007000000
1696853840.746167,4840297.000000000,1696853840.746222734,-0.098000000,-0.074000000,0.070000000,0.007000000,0.000000000,-0.007000000
1696853840.748149,4840298.000000000,1696853840.748211145,-0.098000000,-0.075000000,0.069000000,0.007000000,0.000000000,-0.007000000
1696853840.750099,4840299.000000000,1696853840.750217199,-0.098000000,-0.076000000,0.069000000,0.007000000,0.000000000,-0.007000000
1696853840.752132,4840300.000000000,1696853840.752219915,-0.097000000,-0.077000000,0.068000000,0.007000000,0.000000000,-0.007000000
1696853840.754116,4840301.000000000,1696853840.754236698,-0.097000000,-0.077000000,0.069000000,0.007000000,0.000000000,-0.007000000
1696853840.756125,4840302.000000000,1696853840.756211281,-0.097000000,-0.077000000,0.070000000,0.007000000,0.000000000,-0.007000000
1696853840.758181,4840303.000000000,1696853840.758263350,-0.097000000,-0.075000000,0.071000000,0.007000000,0.000000000,-0.007000000
1696853840.760973,4840304.000000000,1696853840.760241985,-0.098000000,-0.074000000,0.072000000,0.007000000,0.000000000,-0.008000000
1696853840.762226,4840305.000000000,1696853840.762250185,-0.098000000,-0.073000000,0.074000000,0.007000000,0.000000000,-0.008000000
1696853840.764223,4840306.000000000,1696853840.764221668,-0.098000000,-0.072000000,0.075000000,0.007000000,0.000000000,-0.008000000
1696853840.766366,4840307.000000000,1696853840.766239405,-0.099000000,-0.072000000,0.076000000,0.007000000,0.000000000,-0.008000000
1696853840.768253,4840308.000000000,1696853840.768226624,-0.098000000,-0.073000000,0.076000000,0.007000000,0.000000000,-0.008000000
1696853840.770180,4840309.000000000,1696853840.770234108,-0.098000000,-0.073000000,0.076000000,0.007000000,0.000000000,-0.008000000
1696853840.772162,4840310.000000000,1696853840.772238255,-0.099000000,-0.074000000,0.077000000,0.007000000,0.000000000,-0.008000000
1696853840.774439,4840311.000000000,1696853840.774222136,-0.098000000,-0.075000000,0.077000000,0.007000000,0.000000000,-0.008000000
1696853840.776005,4840312.000000000,1696853840.776197195,-0.098000000,-0.075000000,0.078000000,0.007000000,0.000000000,-0.008000000
1696853840.778123,4840313.000000000,1696853840.778225422,-0.098000000,-0.074000000,0.079000000,0.007000000,0.000000000,-0.008000000
1696853840.780048,4840314.000000000,1696853840.780211210,-0.098000000,-0.074000000,0.081000000,0.007000000,0.000000000,-0.008000000
1696853840.782184,4840315.000000000,1696853840.782240152,-0.098000000,-0.072000000,0.081000000,0.007000000,0.000000000,-0.008000000
1696853840.784090,4840316.000000000,1696853840.784214735,-0.098000000,-0.071000000,0.083000000,0.007000000,0.000000000,-0.008000000
1696853840.786100,4840317.000000000,1696853840.786233664,-0.098000000,-0.070000000,0.085000000,0.007000000,0.000000000,-0.008000000
1696853840.788243,4840318.000000000,1696853840.788217068,-0.099000000,-0.070000000,0.085000000,0.007000000,0.000000000,-0.008000000
1696853840.790122,4840319.000000000,1696853840.790247917,-0.099000000,-0.070000000,0.086000000,0.007000000,0.000000000,-0.008000000
1696853840.792126,4840320.000000000,1696853840.792222977,-0.099000000,-0.070000000,0.086000000,0.007000000,0.000000000,-0.008000000
1696853840.794090,4840321.000000000,1696853840.794219255,-0.098000000,-0.071000000,0.086000000,0.007000000,0.000000000,-0.008000000
1696853840.796180,4840322.000000000,1696853840.796223402,-0.098000000,-0.072000000,0.086000000,0.007000000,0.000000000,-0.008000000
1696853840.798090,4840323.000000000,1696853840.798217535,-0.098000000,-0.073000000,0.086000000,0.007000000,0.000000000,-0.008000000
1696853840.800081,4840324.000000000,1696853840.800209522,-0.098000000,-0.073000000,0.087000000,0.007000000,0.000000000,-0.008000000
1696853840.802135,4840325.000000000,1696853840.802239895,-0.098000000,-0.072000000,0.087000000,0.007000000,0.000000000,-0.008000000
1696853840.804126,4840326.000000000,1696853840.804247379,-0.098000000,-0.071000000,0.089000000,0.007000000,0.000000000,-0.008000000
1696853840.806418,4840327.000000000,1696853840.806215286,-0.098000000,-0.071000000,0.090000000,0.007000000,0.000000000,-0.008000000
1696853840.808061,4840328.000000000,1696853840.808213472,-0.098000000,-0.070000000,0.090000000,0.007000000,0.000000000,-0.008000000
1696853840.810152,4840329.000000000,1696853840.810229063,-0.099000000,-0.069000000,0.091000000,0.007000000,0.000000000,-0.008000000
1696853840.812190,4840330.000000000,1696853840.812235594,-0.099000000,-0.069000000,0.091000000,0.007000000,0.000000000,-0.008000000
1696853840.814134,4840331.000000000,1696853840.814224958,-0.099000000,-0.070000000,0.091000000,0.007000000,0.000000000,-0.008000000
1696853840.816140,4840332.000000000,1696853840.816238165,-0.099000000,-0.071000000,0.091000000,0.007000000,0.000000000,-0.008000000
1696853840.818094,4840333.000000000,1696853840.818235159,-0.100000000,-0.072000000,0.091000000,0.007000000,0.000000000,-0.008000000
1696853840.820129,4840334.000000000,1696853840.820220709,-0.100000000,-0.073000000,0.090000000,0.007000000,0.000000000,-0.008000000
1696853840.822082,4840335.000000000,1696853840.822238684,-0.100000000,-0.074000000,0.089000000,0.007000000,0.000000000,-0.008000000
1696853840.824311,4840336.000000000,1696853840.824228287,-0.100000000,-0.074000000,0.088000000,0.007000000,0.000000000,-0.008000000
1696853840.826150,4840337.000000000,1696853840.826294899,-0.101000000,-0.073000000,0.089000000,0.007000000,0.000000000,-0.008000000
1696853840.828103,4840338.000000000,1696853840.828232288,-0.101000000,-0.072000000,0.089000000,0.007000000,0.000000000,-0.008000000
1696853840.830070,4840339.000000000,1696853840.830268621,-0.102000000,-0.071000000,0.089000000,0.007000000,0.000000000,-0.008000000
1696853840.832032,4840340.000000000,1696853840.832225561,-0.103000000,-0.070000000,0.088000000,0.007000000,0.000000000,-0.008000000
1696853840.834098,4840341.000000000,1696853840.834292173,-0.104000000,-0.070000000,0.087000000,0.007000000,0.000000000,-0.008000000
1696853840.836064,4840342.000000000,1696853840.836218357,-0.105000000,-0.070000000,0.086000000,0.007000000,0.000000000,-0.008000000
1696853840.838053,4840343.000000000,1696853840.838264227,-0.105000000,-0.070000000,0.084000000,0.007000000,0.000000000,-0.008000000
1696853840.840028,4840344.000000000,1696853840.840223551,-0.106000000,-0.071000000,0.082000000,0.007000000,0.000000000,-0.008000000
1696853840.842082,4840345.000000000,1696853840.842236042,-0.107000000,-0.071000000,0.080000000,0.007000000,0.000000000,-0.008000000
1696853840.844036,4840346.000000000,1696853840.844232082,-0.107000000,-0.071000000,0.077000000,0.007000000,0.000000000,-0.008000000
1696853840.846118,4840347.000000000,1696853840.846243143,-0.109000000,-0.070000000,0.075000000,0.007000000,0.000000000,-0.008000000
1696853840.848073,4840348.000000000,1696853840.848252773,-0.109000000,-0.069000000,0.073000000,0.007000000,0.000000000,-0.008000000
1696853840.850032,4840349.000000000,1696853840.850239038,-0.110000000,-0.067000000,0.072000000,0.007000000,0.000000000,-0.008000000
1696853840.853397,4840350.000000000,1696853840.853204012,-0.111000000,-0.065000000,0.067000000,0.007000000,0.000000000,-0.007000000
1696853840.854500,4840351.000000000,1696853840.854644060,-0.112000000,-0.064000000,0.063000000,0.007000000,0.000000000,-0.007000000
1696853840.855999,4840352.000000000,1696853840.856194735,-0.112000000,-0.062000000,0.061000000,0.007000000,0.000000000,-0.007000000
1696853840.858330,4840353.000000000,1696853840.858437300,-0.113000000,-0.061000000,0.056000000,0.007000000,0.000000000,-0.007000000
1696853840.860112,4840354.000000000,1696853840.860226870,-0.114000000,-0.061000000,0.052000000,0.007000000,0.000000000,-0.007000000
1696853840.862119,4840355.000000000,1696853840.862238169,-0.114000000,-0.061000000,0.047000000,0.007000000,0.000000000,-0.007000000
1696853840.864164,4840356.000000000,1696853840.864230156,-0.114000000,-0.061000000,0.043000000,0.007000000,0.000000000,-0.007000000
1696853840.866513,4840357.000000000,1696853840.866253853,-0.115000000,-0.060000000,0.037000000,0.007000000,0.000000000,-0.007000000
1696853840.868136,4840358.000000000,1696853840.868229866,-0.115000000,-0.060000000,0.032000000,0.007000000,0.000000000,-0.007000000
1696853840.870183,4840359.000000000,1696853840.870276928,-0.115000000,-0.058000000,0.028000000,0.007000000,0.000000000,-0.006000000
1696853840.872163,4840360.000000000,1696853840.872238636,-0.115000000,-0.056000000,0.024000000,0.007000000,0.000000000,-0.006000000
1696853840.874074,4840361.000000000,1696853840.874216795,-0.115000000,-0.054000000,0.020000000,0.007000000,0.000000000,-0.006000000
1696853840.876099,4840362.000000000,1696853840.876229048,-0.115000000,-0.052000000,0.015000000,0.007000000,0.000000000,-0.006000000
1696853840.878200,4840363.000000000,1696853840.878218174,-0.115000000,-0.051000000,0.010000000,0.007000000,0.000000000,-0.006000000
1696853840.880132,4840364.000000000,1696853840.880205393,-0.115000000,-0.050000000,0.005000000,0.007000000,0.000000000,-0.006000000
1696853840.882207,4840365.000000000,1696853840.882245064,-0.115000000,-0.049000000,0.000000000,0.007000000,0.000000000,-0.006000000
1696853840.884285,4840366.000000000,1696853840.884222746,-0.114000000,-0.049000000,-0.004000000,0.007000000,0.000000000,-0.006000000
1696853840.886894,4840367.000000000,1696853840.886270046,-0.114000000,-0.050000000,-0.010000000,0.007000000,0.000000000,-0.005000000
1696853840.888261,4840368.000000000,1696853840.888269424,-0.113000000,-0.051000000,-0.014000000,0.007000000,0.000000000,-0.005000000
1696853840.891696,4840369.000000000,1696853840.890259027,-0.112000000,-0.050000000,-0.019000000,0.007000000,0.000000000,-0.005000000
1696853840.892177,4840370.000000000,1696853840.892295837,-0.112000000,-0.050000000,-0.022000000,0.007000000,0.000000000,-0.005000000
1696853840.894185,4840371.000000000,1696853840.894259453,-0.111000000,-0.050000000,-0.025000000,0.007000000,0.000000000,-0.005000000
1696853840.896104,4840372.000000000,1696853840.896237135,-0.110000000,-0.048000000,-0.026000000,0.007000000,0.000000000,-0.005000000
1696853840.898117,4840373.000000000,1696853840.898241043,-0.109000000,-0.047000000,-0.028000000,0.007000000,0.000000000,-0.005000000
1696853840.900101,4840374.000000000,1696853840.900236845,-0.109000000,-0.047000000,-0.031000000,0.007000000,0.000000000,-0.005000000
1696853840.902186,4840375.000000000,1696853840.902228117,-0.108000000,-0.047000000,-0.032000000,0.007000000,0.000000000,-0.005000000
1696853840.904205,4840376.000000000,1696853840.904246807,-0.107000000,-0.048000000,-0.034000000,0.007000000,0.000000000,-0.005000000
1696853840.906100,4840377.000000000,1696853840.906213045,-0.106000000,-0.049000000,-0.035000000,0.007000000,0.000000000,-0.005000000
1696853840.908144,4840378.000000000,1696853840.908229589,-0.105000000,-0.051000000,-0.036000000,0.007000000,0.000000000,-0.005000000
1696853840.910168,4840379.000000000,1696853840.910262585,-0.104000000,-0.053000000,-0.037000000,0.007000000,0.000000000,-0.005000000
1696853840.912181,4840380.000000000,1696853840.912244558,-0.103000000,-0.055000000,-0.036000000,0.007000000,0.000000000,-0.005000000
1696853840.914491,4840381.000000000,1696853840.914266825,-0.101000000,-0.056000000,-0.035000000,0.007000000,0.000000000,-0.005000000
1696853840.916204,4840382.000000000,1696853840.916245937,-0.101000000,-0.056000000,-0.033000000,0.007000000,0.000000000,-0.005000000
1696853840.918181,4840383.000000000,1696853840.918243885,-0.100000000,-0.057000000,-0.031000000,0.007000000,0.000000000,-0.005000000
1696853840.920246,4840384.000000000,1696853840.920238256,-0.099000000,-0.057000000,-0.028000000,0.007000000,0.000000000,-0.005000000
1696853840.922161,4840385.000000000,1696853840.922239542,-0.098000000,-0.057000000,-0.025000000,0.007000000,0.000000000,-0.005000000
1696853840.924307,4840386.000000000,1696853840.924338579,-0.097000000,-0.058000000,-0.021000000,0.007000000,0.000000000,-0.005000000
1696853840.926358,4840387.000000000,1696853840.926252127,-0.096000000,-0.059000000,-0.019000000,0.007000000,0.000000000,-0.005000000
1696853840.928279,4840388.000000000,1696853840.928232908,-0.096000000,-0.061000000,-0.015000000,0.007000000,0.000000000,-0.005000000
1696853840.930198,4840389.000000000,1696853840.930251122,-0.095000000,-0.063000000,-0.012000000,0.007000000,0.000000000,-0.005000000
1696853840.932247,4840390.000000000,1696853840.932232141,-0.094000000,-0.065000000,-0.009000000,0.007000000,0.000000000,-0.005000000
1696853840.934167,4840391.000000000,1696853840.934277296,-0.093000000,-0.067000000,-0.005000000,0.007000000,0.000000000,-0.005000000
1696853840.936153,4840392.000000000,1696853840.936261415,-0.093000000,-0.069000000,-0.001000000,0.007000000,0.000000000,-0.006000000
1696853840.938170,4840393.000000000,1696853840.938248396,-0.092000000,-0.070000000,0.003000000,0.007000000,0.000000000,-0.006000000
1696853840.940169,4840394.000000000,1696853840.940241575,-0.091000000,-0.070000000,0.007000000,0.007000000,0.000000000,-0.006000000
1696853840.942199,4840395.000000000,1696853840.942303419,-0.091000000,-0.070000000,0.013000000,0.007000000,0.000000000,-0.006000000
1696853840.944097,4840396.000000000,1696853840.944220304,-0.091000000,-0.070000000,0.019000000,0.007000000,0.000000000,-0.006000000
1696853840.946165,4840397.000000000,1696853840.946225882,-0.090000000,-0.070000000,0.021000000,0.007000000,0.000000000,-0.006000000
1696853840.948209,4840398.000000000,1696853840.948223114,-0.090000000,-0.071000000,0.026000000,0.007000000,0.000000000,-0.006000000
1696853840.950147,4840399.000000000,1696853840.950246572,-0.090000000,-0.072000000,0.031000000,0.007000000,0.000000000,-0.006000000
1696853840.952134,4840400.000000000,1696853840.952225685,-0.090000000,-0.073000000,0.035000000,0.007000000,0.000000000,-0.006000000
1696853840.954172,4840401.000000000,1696853840.954249144,-0.090000000,-0.075000000,0.039000000,0.007000000,0.000000000,-0.006000000
1696853840.956156,4840402.000000000,1696853840.956224203,-0.090000000,-0.076000000,0.042000000,0.007000000,0.000000000,-0.007000000
1696853840.958248,4840403.000000000,1696853840.958369493,-0.089000000,-0.076000000,0.046000000,0.007000000,0.000000000,-0.007000000
1696853840.960152,4840404.000000000,1696853840.960188150,-0.089000000,-0.077000000,0.049000000,0.007000000,0.000000000,-0.007000000
1696853840.962163,4840405.000000000,1696853840.962200165,-0.089000000,-0.076000000,0.053000000,0.007000000,0.000000000,-0.007000000
1696853840.964191,4840406.000000000,1696853840.964235783,-0.089000000,-0.076000000,0.056000000,0.007000000,0.000000000,-0.007000000
1696853840.967575,4840407.000000000,1696853840.966391563,-0.090000000,-0.074000000,0.061000000,0.007000000,0.000000000,-0.007000000
1696853840.968359,4840408.000000000,1696853840.968229532,-0.090000000,-0.073000000,0.064000000,0.007000000,0.000000000,-0.007000000
1696853840.970139,4840409.000000000,1696853840.970259190,-0.090000000,-0.073000000,0.066000000,0.007000000,0.000000000,-0.007000000
1696853840.972136,4840410.000000000,1696853840.972226381,-0.090000000,-0.072000000,0.069000000,0.007000000,0.000000000,-0.007000000
1696853840.974220,4840411.000000000,1696853840.974309683,-0.090000000,-0.073000000,0.071000000,0.007000000,0.000000000,-0.007000000
1696853840.976227,4840412.000000000,1696853840.976253271,-0.091000000,-0.073000000,0.073000000,0.007000000,0.000000000,-0.007000000
1696853840.978182,4840413.000000000,1696853840.978241682,-0.091000000,-0.074000000,0.074000000,0.007000000,0.000000000,-0.007000000
1696853840.980254,4840414.000000000,1696853840.980257750,-0.091000000,-0.074000000,0.075000000,0.007000000,0.000000000,-0.007000000
1696853840.982193,4840415.000000000,1696853840.982242346,-0.091000000,-0.074000000,0.079000000,0.007000000,0.000000000,-0.007000000
1696853840.984157,4840416.000000000,1696853840.984228849,-0.092000000,-0.073000000,0.081000000,0.007000000,0.000000000,-0.007000000
