__time,/kms40_driver/wrench/header/seq,/kms40_driver/wrench/header/stamp,/kms40_driver/wrench/wrench/force/x,/kms40_driver/wrench/wrench/force/y,/kms40_driver/wrench/wrench/force/z,/kms40_driver/wrench/wrench/torque/x,/kms40_driver/wrench/wrench/torque/y,/kms40_driver/wrench/wrench/torque/z
1696856195.222148,147060.000000000,1696856195.221189260,0.114000000,-0.099000000,-0.139000000,-0.005000000,0.002000000,0.000000000
1696856195.224135,147061.000000000,1696856195.223120451,0.114000000,-0.097000000,-0.139000000,-0.005000000,0.002000000,0.000000000
1696856195.226043,147062.000000000,1696856195.225117445,0.114000000,-0.095000000,-0.137000000,-0.005000000,0.002000000,0.000000000
1696856195.228043,147063.000000000,1696856195.227102280,0.114000000,-0.094000000,-0.136000000,-0.005000000,0.002000000,0.000000000
1696856195.230101,147064.000000000,1696856195.229131937,0.113000000,-0.095000000,-0.134000000,-0.005000000,0.002000000,0.000000000
1696856195.232069,147065.000000000,1696856195.231111050,0.114000000,-0.096000000,-0.134000000,-0.005000000,0.002000000,0.000000000
1696856195.234042,147066.000000000,1696856195.233116627,0.114000000,-0.098000000,-0.134000000,-0.005000000,0.002000000,0.000000000
1696856195.236010,147067.000000000,1696856195.235119820,0.114000000,-0.101000000,-0.133000000,-0.005000000,0.002000000,0.000000000
1696856195.238288,147068.000000000,1696856195.237143993,0.115000000,-0.103000000,-0.133000000,-0.005000000,0.002000000,0.000000000
1696856195.240655,147069.000000000,1696856195.239140034,0.115000000,-0.104000000,-0.132000000,-0.005000000,0.002000000,0.000000000
1696856195.242078,147070.000000000,1696856195.241111517,0.115000000,-0.104000000,-0.131000000,-0.005000000,0.002000000,0.000000000
1696856195.244056,147071.000000000,1696856195.243140697,0.115000000,-0.104000000,-0.131000000,-0.005000000,0.002000000,0.000000000
1696856195.247110,147072.000000000,1696856195.245154858,0.115000000,-0.102000000,-0.129000000,-0.005000000,0.002000000,0.000000000
1696856195.248043,147073.000000000,1696856195.247116327,0.115000000,-0.100000000,-0.127000000,-0.005000000,0.002000000,0.000000000
1696856195.250094,147074.000000000,1696856195.249134779,0.115000000,-0.099000000,-0.127000000,-0.005000000,0.002000000,0.000000000
1696856195.252054,147075.000000000,1696856195.251106262,0.115000000,-0.099000000,-0.127000000,-0.005000000,0.002000000,0.000000000
1696856195.254094,147076.000000000,1696856195.253144264,0.115000000,-0.100000000,-0.126000000,-0.005000000,0.002000000,0.000000000
1696856195.256181,147077.000000000,1696856195.255177736,0.115000000,-0.103000000,-0.127000000,-0.005000000,0.002000000,0.000000000
1696856195.258149,147078.000000000,1696856195.257154703,0.116000000,-0.105000000,-0.127000000,-0.005000000,0.002000000,0.000000000
1696856195.260519,147079.000000000,1696856195.259134769,0.116000000,-0.108000000,-0.127000000,-0.005000000,0.002000000,0.000000000
1696856195.262620,147080.000000000,1696856195.261287451,0.117000000,-0.109000000,-0.128000000,-0.005000000,0.002000000,0.000000000
1696856195.264423,147081.000000000,1696856195.263289690,0.117000000,-0.110000000,-0.128000000,-0.005000000,0.002000000,0.000000000
1696856195.266102,147082.000000000,1696856195.265192032,0.118000000,-0.109000000,-0.128000000,-0.005000000,0.002000000,0.000000000
1696856195.268046,147083.000000000,1696856195.267117023,0.117000000,-0.108000000,-0.128000000,-0.005000000,0.002000000,0.000000000
1696856195.270128,147084.000000000,1696856195.269185543,0.117000000,-0.106000000,-0.127000000,-0.005000000,0.002000000,0.000000000
1696856195.272067,147085.000000000,1696856195.271093130,0.117000000,-0.104000000,-0.127000000,-0.005000000,0.002000000,0.000000000
1696856195.274109,147086.000000000,1696856195.273103714,0.118000000,-0.104000000,-0.129000000,-0.005000000,0.002000000,0.000000000
1696856195.276143,147087.000000000,1696856195.275119066,0.118000000,-0.104000000,-0.129000000,-0.005000000,0.002000000,0.000000000
1696856195.279756,147088.000000000,1696856195.277107477,0.118000000,-0.106000000,-0.131000000,-0.005000000,0.002000000,0.000000000
1696856195.281211,147089.000000000,1696856195.279079437,0.119000000,-0.108000000,-0.132000000,-0.005000000,0.002000000,0.000000000
1696856195.282095,147090.000000000,1696856195.281102896,0.120000000,-0.111000000,-0.133000000,-0.005000000,0.002000000,0.000000000
1696856195.284177,147091.000000000,1696856195.283121824,0.121000000,-0.112000000,-0.136000000,-0.005000000,0.002000000,0.000000000
1696856195.286121,147092.000000000,1696856195.285124302,0.122000000,-0.113000000,-0.137000000,-0.005000000,0.002000000,0.000000000
1696856195.288090,147093.000000000,1696856195.287160158,0.122000000,-0.113000000,-0.138000000,-0.005000000,0.002000000,0.000000000
1696856195.290457,147094.000000000,1696856195.289108515,0.123000000,-0.111000000,-0.138000000,-0.005000000,0.002000000,0.000000000
1696856195.292171,147095.000000000,1696856195.291126251,0.123000000,-0.109000000,-0.139000000,-0.005000000,0.002000000,0.000000000
1696856195.294097,147096.000000000,1696856195.293138266,0.124000000,-0.107000000,-0.140000000,-0.005000000,0.002000000,0.000000000
1696856195.296037,147097.000000000,1696856195.295106411,0.124000000,-0.105000000,-0.141000000,-0.005000000,0.001000000,0.000000000
1696856195.298069,147098.000000000,1696856195.297111034,0.124000000,-0.105000000,-0.142000000,-0.005000000,0.001000000,0.000000000
1696856195.300760,147099.000000000,1696856195.299139261,0.125000000,-0.106000000,-0.143000000,-0.005000000,0.001000000,0.000000000
1696856195.302542,147100.000000000,1696856195.301303387,0.126000000,-0.107000000,-0.144000000,-0.005000000,0.001000000,0.000000000
1696856195.304189,147101.000000000,1696856195.303122759,0.126000000,-0.109000000,-0.146000000,-0.005000000,0.001000000,0.000000000
1696856195.306494,147102.000000000,1696856195.305182457,0.127000000,-0.111000000,-0.147000000,-0.005000000,0.001000000,0.000000000
1696856195.308241,147103.000000000,1696856195.307150841,0.128000000,-0.111000000,-0.148000000,-0.005000000,0.002000000,0.000000000
1696856195.310265,147104.000000000,1696856195.309201717,0.129000000,-0.111000000,-0.149000000,-0.005000000,0.002000000,0.000000000
1696856195.312132,147105.000000000,1696856195.311117887,0.129000000,-0.109000000,-0.149000000,-0.005000000,0.002000000,0.000000000
1696856195.314134,147106.000000000,1696856195.313138008,0.129000000,-0.106000000,-0.149000000,-0.005000000,0.001000000,0.000000000
1696856195.316259,147107.000000000,1696856195.315112114,0.129000000,-0.103000000,-0.149000000,-0.005000000,0.001000000,0.000000000
1696856195.318176,147108.000000000,1696856195.317168951,0.129000000,-0.101000000,-0.149000000,-0.005000000,0.001000000,0.000000000
1696856195.320547,147109.000000000,1696856195.319123745,0.128000000,-0.099000000,-0.150000000,-0.005000000,0.001000000,0.000000000
1696856195.322067,147110.000000000,1696856195.321131229,0.128000000,-0.099000000,-0.150000000,-0.005000000,0.001000000,0.000000000
1696856195.324129,147111.000000000,1696856195.323119164,0.128000000,-0.099000000,-0.152000000,-0.005000000,0.001000000,0.000000000
1696856195.326091,147112.000000000,1696856195.325141191,0.128000000,-0.101000000,-0.152000000,-0.005000000,0.001000000,0.000000000
1696856195.328094,147113.000000000,1696856195.327158451,0.128000000,-0.102000000,-0.153000000,-0.005000000,0.001000000,0.000000000
1696856195.330151,147114.000000000,1696856195.329136133,0.129000000,-0.102000000,-0.154000000,-0.005000000,0.001000000,0.000000000
1696856195.332076,147115.000000000,1696856195.331142664,0.128000000,-0.101000000,-0.155000000,-0.005000000,0.001000000,0.000000000
1696856195.334146,147116.000000000,1696856195.333143950,0.128000000,-0.099000000,-0.156000000,-0.005000000,0.002000000,0.000000000
1696856195.337438,147117.000000000,1696856195.336363077,0.127000000,-0.096000000,-0.156000000,-0.005000000,0.002000000,0.000000000
1696856195.339798,147118.000000000,1696856195.337450981,0.126000000,-0.092000000,-0.157000000,-0.005000000,0.001000000,0.000000000
1696856195.341232,147119.000000000,1696856195.339266062,0.124000000,-0.089000000,-0.155000000,-0.005000000,0.001000000,0.000000000
1696856195.342377,147120.000000000,1696856195.341181755,0.123000000,-0.086000000,-0.157000000,-0.006000000,0.001000000,0.000000000
1696856195.344047,147121.000000000,1696856195.343118191,0.122000000,-0.084000000,-0.159000000,-0.006000000,0.001000000,0.000000000
1696856195.346077,147122.000000000,1696856195.345138073,0.121000000,-0.084000000,-0.159000000,-0.005000000,0.001000000,0.000000000
1696856195.348057,147123.000000000,1696856195.347101927,0.120000000,-0.084000000,-0.161000000,-0.005000000,0.001000000,0.000000000
1696856195.350350,147124.000000000,1696856195.349182606,0.120000000,-0.085000000,-0.163000000,-0.005000000,0.002000000,0.000000000
1696856195.352061,147125.000000000,1696856195.351108551,0.119000000,-0.085000000,-0.164000000,-0.005000000,0.002000000,0.000000000
1696856195.354097,147126.000000000,1696856195.353157282,0.118000000,-0.084000000,-0.166000000,-0.005000000,0.002000000,0.000000000
1696856195.356046,147127.000000000,1696856195.355107307,0.117000000,-0.083000000,-0.166000000,-0.005000000,0.002000000,0.000000000
1696856195.358207,147128.000000000,1696856195.357154369,0.116000000,-0.079000000,-0.168000000,-0.005000000,0.002000000,0.000000000
1696856195.360300,147129.000000000,1696856195.359140158,0.114000000,-0.076000000,-0.168000000,-0.005000000,0.002000000,0.000000000
1696856195.362134,147130.000000000,1696856195.361186743,0.113000000,-0.072000000,-0.169000000,-0.005000000,0.002000000,0.000000000
1696856195.364049,147131.000000000,1696856195.363118887,0.112000000,-0.069000000,-0.169000000,-0.006000000,0.002000000,0.000000000
1696856195.366079,147132.000000000,1696856195.365150213,0.110000000,-0.067000000,-0.171000000,-0.006000000,0.002000000,0.000000000
1696856195.368079,147133.000000000,1696856195.367086649,0.109000000,-0.067000000,-0.172000000,-0.006000000,0.002000000,0.000000000
1696856195.370167,147134.000000000,1696856195.369135618,0.109000000,-0.067000000,-0.174000000,-0.005000000,0.002000000,0.001000000
1696856195.372118,147135.000000000,1696856195.371114731,0.108000000,-0.068000000,-0.174000000,-0.005000000,0.002000000,0.001000000
1696856195.374153,147136.000000000,1696856195.373116970,0.107000000,-0.070000000,-0.176000000,-0.005000000,0.002000000,0.001000000
1696856195.376091,147137.000000000,1696856195.375121593,0.107000000,-0.070000000,-0.176000000,-0.005000000,0.002000000,0.001000000
1696856195.378094,147138.000000000,1696856195.377143383,0.106000000,-0.070000000,-0.177000000,-0.005000000,0.002000000,0.001000000
1696856195.381731,147139.000000000,1696856195.379131794,0.105000000,-0.068000000,-0.176000000,-0.005000000,0.002000000,0.001000000
1696856195.383363,147140.000000000,1696856195.381146431,0.105000000,-0.066000000,-0.176000000,-0.005000000,0.002000000,0.001000000
1696856195.384173,147141.000000000,1696856195.383141279,0.104000000,-0.063000000,-0.175000000,-0.005000000,0.002000000,0.001000000
1696856195.386132,147142.000000000,1696856195.385142803,0.103000000,-0.061000000,-0.174000000,-0.006000000,0.002000000,0.001000000
1696856195.388098,147143.000000000,1696856195.387119770,0.102000000,-0.060000000,-0.174000000,-0.006000000,0.002000000,0.001000000
1696856195.390109,147144.000000000,1696856195.389121294,0.102000000,-0.060000000,-0.174000000,-0.006000000,0.002000000,0.001000000
1696856195.392227,147145.000000000,1696856195.391097784,0.102000000,-0.062000000,-0.173000000,-0.005000000,0.002000000,0.001000000
1696856195.394085,147146.000000000,1696856195.393109560,0.102000000,-0.065000000,-0.173000000,-0.005000000,0.002000000,0.000000000
1696856195.396138,147147.000000000,1696856195.395092010,0.102000000,-0.067000000,-0.171000000,-0.005000000,0.002000000,0.000000000
1696856195.398232,147148.000000000,1696856195.397162914,0.103000000,-0.069000000,-0.171000000,-0.005000000,0.002000000,0.000000000
1696856195.400792,147149.000000000,1696856195.399158478,0.103000000,-0.071000000,-0.169000000,-0.005000000,0.002000000,0.000000000
1696856195.402516,147150.000000000,1696856195.401140451,0.103000000,-0.071000000,-0.168000000,-0.005000000,0.002000000,0.000000000
1696856195.404271,147151.000000000,1696856195.403178930,0.103000000,-0.071000000,-0.165000000,-0.005000000,0.002000000,0.000000000
1696856195.406260,147152.000000000,1696856195.405160189,0.102000000,-0.069000000,-0.162000000,-0.005000000,0.002000000,0.000000000
1696856195.408161,147153.000000000,1696856195.407142639,0.102000000,-0.068000000,-0.159000000,-0.005000000,0.002000000,0.000000000
1696856195.410233,147154.000000000,1696856195.409201860,0.102000000,-0.068000000,-0.157000000,-0.005000000,0.002000000,0.000000000
1696856195.412114,147155.000000000,1696856195.411119699,0.102000000,-0.069000000,-0.155000000,-0.005000000,0.002000000,0.000000000
1696856195.414201,147156.000000000,1696856195.413161039,0.102000000,-0.071000000,-0.153000000,-0.005000000,0.002000000,0.000000000
1696856195.416234,147157.000000000,1696856195.415133238,0.103000000,-0.074000000,-0.151000000,-0.005000000,0.002000000,0.000000000
1696856195.418128,147158.000000000,1696856195.417174578,0.103000000,-0.078000000,-0.150000000,-0.005000000,0.002000000,0.000000000
1696856195.420179,147159.000000000,1696856195.419170141,0.104000000,-0.081000000,-0.148000000,-0.005000000,0.002000000,0.000000000
1696856195.422163,147160.000000000,1696856195.421171665,0.105000000,-0.083000000,-0.147000000,-0.005000000,0.002000000,0.000000000
1696856195.424172,147161.000000000,1696856195.423190117,0.105000000,-0.084000000,-0.145000000,-0.005000000,0.002000000,0.000000000
1696856195.426096,147162.000000000,1696856195.425129652,0.105000000,-0.085000000,-0.143000000,-0.005000000,0.002000000,0.000000000
1696856195.428102,147163.000000000,1696856195.427124262,0.105000000,-0.084000000,-0.140000000,-0.005000000,0.002000000,0.000000000
1696856195.430155,147164.000000000,1696856195.429128885,0.105000000,-0.083000000,-0.138000000,-0.005000000,0.002000000,0.000000000
1696856195.432175,147165.000000000,1696856195.431127071,0.105000000,-0.082000000,-0.137000000,-0.005000000,0.002000000,0.000000000
1696856195.434480,147166.000000000,1696856195.433145046,0.105000000,-0.082000000,-0.136000000,-0.005000000,0.002000000,0.000000000
1696856195.436157,147167.000000000,1696856195.435142994,0.105000000,-0.084000000,-0.135000000,-0.005000000,0.002000000,0.000000000
1696856195.438220,147168.000000000,1696856195.437134027,0.105000000,-0.086000000,-0.134000000,-0.005000000,0.002000000,0.000000000
1696856195.440660,147169.000000000,1696856195.439127207,0.106000000,-0.090000000,-0.134000000,-0.005000000,0.002000000,0.000000000
1696856195.442188,147170.000000000,1696856195.441167116,0.106000000,-0.093000000,-0.134000000,-0.005000000,0.002000000,0.000000000
1696856195.444138,147171.000000000,1696856195.443120480,0.107000000,-0.095000000,-0.133000000,-0.005000000,0.002000000,0.000000000
1696856195.446769,147172.000000000,1696856195.445172787,0.107000000,-0.096000000,-0.133000000,-0.005000000,0.002000000,0.000000000
1696856195.448157,147173.000000000,1696856195.447128296,0.107000000,-0.096000000,-0.135000000,-0.005000000,0.002000000,0.000000000
1696856195.450171,147174.000000000,1696856195.449157953,0.107000000,-0.095000000,-0.133000000,-0.005000000,0.002000000,0.000000000
1696856195.452217,147175.000000000,1696856195.451147079,0.107000000,-0.094000000,-0.132000000,-0.005000000,0.002000000,0.000000000
1696856195.454275,147176.000000000,1696856195.453158379,0.107000000,-0.093000000,-0.133000000,-0.005000000,0.002000000,0.000000000
1696856195.456168,147177.000000000,1696856195.455126762,0.107000000,-0.091000000,-0.133000000,-0.005000000,0.002000000,0.000000000
1696856195.458216,147178.000000000,1696856195.457163095,0.107000000,-0.092000000,-0.135000000,-0.005000000,0.002000000,0.000000000
1696856195.460395,147179.000000000,1696856195.459166765,0.107000000,-0.093000000,-0.135000000,-0.005000000,0.002000000,0.000000000
1696856195.462452,147180.000000000,1696856195.461144209,0.108000000,-0.096000000,-0.136000000,-0.005000000,0.002000000,0.000000000
1696856195.464169,147181.000000000,1696856195.463157415,0.109000000,-0.098000000,-0.138000000,-0.005000000,0.002000000,0.000000000
1696856195.466151,147182.000000000,1696856195.465142488,0.109000000,-0.100000000,-0.138000000,-0.005000000,0.002000000,0.000000000
1696856195.468120,147183.000000000,1696856195.467131376,0.110000000,-0.102000000,-0.142000000,-0.005000000,0.002000000,0.000000000
1696856195.470175,147184.000000000,1696856195.469144583,0.110000000,-0.102000000,-0.143000000,-0.005000000,0.002000000,0.000000000
1696856195.472118,147185.000000000,1696856195.471109867,0.110000000,-0.101000000,-0.144000000,-0.005000000,0.002000000,0.000000000
1696856195.474145,147186.000000000,1696856195.473164797,0.110000000,-0.099000000,-0.143000000,-0.005000000,0.002000000,0.000000000
1696856195.476118,147187.000000000,1696856195.475118399,0.110000000,-0.097000000,-0.144000000,-0.005000000,0.001000000,0.000000000
1696856195.478468,147188.000000000,1696856195.477176666,0.110000000,-0.096000000,-0.145000000,-0.005000000,0.001000000,0.000000000
1696856195.481054,147189.000000000,1696856195.479117393,0.110000000,-0.095000000,-0.145000000,-0.005000000,0.001000000,0.000000000
1696856195.483209,147190.000000000,1696856195.481265306,0.111000000,-0.096000000,-0.148000000,-0.005000000,0.001000000,0.000000000
1696856195.484288,147191.000000000,1696856195.483115435,0.112000000,-0.098000000,-0.149000000,-0.005000000,0.001000000,0.000000000
1696856195.486187,147192.000000000,1696856195.485199451,0.112000000,-0.100000000,-0.149000000,-0.005000000,0.001000000,0.000000000
1696856195.488076,147193.000000000,1696856195.487110615,0.113000000,-0.103000000,-0.151000000,-0.005000000,0.001000000,0.000000000
1696856195.490227,147194.000000000,1696856195.489161253,0.113000000,-0.105000000,-0.152000000,-0.005000000,0.001000000,0.000000000
1696856195.492159,147195.000000000,1696856195.491161108,0.114000000,-0.105000000,-0.154000000,-0.005000000,0.001000000,0.000000000
1696856195.495104,147196.000000000,1696856195.493172884,0.114000000,-0.104000000,-0.154000000,-0.005000000,0.001000000,0.000000000
1696856195.496232,147197.000000000,1696856195.495135546,0.115000000,-0.103000000,-0.154000000,-0.005000000,0.001000000,0.000000000
1696856195.498084,147198.000000000,1696856195.497121334,0.115000000,-0.101000000,-0.154000000,-0.005000000,0.001000000,0.000000000
1696856195.500613,147199.000000000,1696856195.499159098,0.115000000,-0.099000000,-0.153000000,-0.005000000,0.001000000,0.000000000
1696856195.502231,147200.000000000,1696856195.501137495,0.115000000,-0.098000000,-0.153000000,-0.005000000,0.001000000,0.000000000
1696856195.504180,147201.000000000,1696856195.503123999,0.115000000,-0.099000000,-0.155000000,-0.005000000,0.001000000,0.000000000
1696856195.506173,147202.000000000,1696856195.505116463,0.115000000,-0.100000000,-0.154000000,-0.005000000,0.001000000,0.000000000
1696856195.508233,147203.000000000,1696856195.507190466,0.116000000,-0.103000000,-0.156000000,-0.005000000,0.001000000,0.000000000
1696856195.510267,147204.000000000,1696856195.509145021,0.117000000,-0.105000000,-0.156000000,-0.005000000,0.001000000,0.000000000
1696856195.512167,147205.000000000,1696856195.511129856,0.117000000,-0.107000000,-0.156000000,-0.005000000,0.001000000,0.000000000
1696856195.514172,147206.000000000,1696856195.513127089,0.118000000,-0.108000000,-0.156000000,-0.005000000,0.001000000,0.000000000
1696856195.516393,147207.000000000,1696856195.515158176,0.118000000,-0.108000000,-0.156000000,-0.005000000,0.001000000,0.000000000
1696856195.518239,147208.000000000,1696856195.517148972,0.118000000,-0.107000000,-0.155000000,-0.005000000,0.001000000,0.000000000
1696856195.520329,147209.000000000,1696856195.519128323,0.118000000,-0.105000000,-0.154000000,-0.005000000,0.001000000,0.000000000
1696856195.522885,147210.000000000,1696856195.521110296,0.118000000,-0.103000000,-0.152000000,-0.005000000,0.001000000,0.000000000
1696856195.524221,147211.000000000,1696856195.523190737,0.118000000,-0.102000000,-0.152000000,-0.005000000,0.001000000,0.000000000
1696856195.526178,147212.000000000,1696856195.525154114,0.117000000,-0.102000000,-0.152000000,-0.005000000,0.001000000,0.000000000
1696856195.528101,147213.000000000,1696856195.527154207,0.118000000,-0.103000000,-0.152000000,-0.005000000,0.001000000,0.000000000
1696856195.530134,147214.000000000,1696856195.529179096,0.118000000,-0.105000000,-0.151000000,-0.005000000,0.001000000,0.000000000
1696856195.532097,147215.000000000,1696856195.531148434,0.118000000,-0.107000000,-0.152000000,-0.005000000,0.001000000,0.000000000
1696856195.534181,147216.000000000,1696856195.533156395,0.119000000,-0.109000000,-0.152000000,-0.005000000,0.002000000,0.000000000
1696856195.536063,147217.000000000,1696856195.535112619,0.119000000,-0.110000000,-0.152000000,-0.005000000,0.002000000,0.000000000
1696856195.538078,147218.000000000,1696856195.537137270,0.119000000,-0.111000000,-0.152000000,-0.005000000,0.002000000,0.000000000
1696856195.540403,147219.000000000,1696856195.539148569,0.119000000,-0.110000000,-0.151000000,-0.005000000,0.002000000,0.000000000
1696856195.543523,147220.000000000,1696856195.541202545,0.119000000,-0.108000000,-0.149000000,-0.005000000,0.002000000,0.000000000
1696856195.544827,147221.000000000,1696856195.543142319,0.119000000,-0.106000000,-0.148000000,-0.005000000,0.002000000,0.000000000
1696856195.546194,147222.000000000,1696856195.545147181,0.118000000,-0.104000000,-0.147000000,-0.005000000,0.002000000,0.000000000
1696856195.548229,147223.000000000,1696856195.547106981,0.118000000,-0.103000000,-0.147000000,-0.005000000,0.002000000,0.000000000
1696856195.550269,147224.000000000,1696856195.549129963,0.118000000,-0.103000000,-0.146000000,-0.005000000,0.002000000,0.000000000
1696856195.552274,147225.000000000,1696856195.551142931,0.118000000,-0.105000000,-0.147000000,-0.005000000,0.002000000,0.000000000
1696856195.554317,147226.000000000,1696856195.553155184,0.118000000,-0.107000000,-0.146000000,-0.005000000,0.002000000,0.000000000
1696856195.556304,147227.000000000,1696856195.555188656,0.119000000,-0.109000000,-0.146000000,-0.005000000,0.002000000,0.000000000
1696856195.558299,147228.000000000,1696856195.557176352,0.119000000,-0.110000000,-0.146000000,-0.005000000,0.002000000,0.000000000
1696856195.560524,147229.000000000,1696856195.559132814,0.119000000,-0.111000000,-0.146000000,-0.005000000,0.002000000,0.000000000
1696856195.562227,147230.000000000,1696856195.561172962,0.119000000,-0.110000000,-0.146000000,-0.005000000,0.002000000,0.000000000
1696856195.564141,147231.000000000,1696856195.563121319,0.118000000,-0.108000000,-0.144000000,-0.005000000,0.002000000,0.000000000
1696856195.566475,147232.000000000,1696856195.565159082,0.118000000,-0.106000000,-0.144000000,-0.005000000,0.002000000,0.000000000
1696856195.568216,147233.000000000,1696856195.567126274,0.117000000,-0.104000000,-0.142000000,-0.005000000,0.002000000,0.000000000
1696856195.570254,147234.000000000,1696856195.569146156,0.117000000,-0.102000000,-0.142000000,-0.005000000,0.002000000,0.000000000
1696856195.572218,147235.000000000,1696856195.571115494,0.116000000,-0.102000000,-0.142000000,-0.005000000,0.002000000,0.000000000
1696856195.574587,147236.000000000,1696856195.573256731,0.116000000,-0.103000000,-0.143000000,-0.005000000,0.002000000,0.000000000
1696856195.576234,147237.000000000,1696856195.575120687,0.116000000,-0.104000000,-0.141000000,-0.005000000,0.002000000,0.000000000
1696856195.578282,147238.000000000,1696856195.577161551,0.115000000,-0.106000000,-0.141000000,-0.005000000,0.002000000,0.000000000
1696856195.580620,147239.000000000,1696856195.579121590,0.116000000,-0.108000000,-0.141000000,-0.005000000,0.002000000,0.000000000
1696856195.582653,147240.000000000,1696856195.581263065,0.115000000,-0.108000000,-0.141000000,-0.005000000,0.002000000,0.000000000
1696856195.585356,147241.000000000,1696856195.583146095,0.115000000,-0.108000000,-0.141000000,-0.005000000,0.002000000,0.000000000
1696856195.586344,147242.000000000,1696856195.585156441,0.114000000,-0.107000000,-0.139000000,-0.005000000,0.002000000,0.000000000
1696856195.588255,147243.000000000,1696856195.587125540,0.113000000,-0.104000000,-0.138000000,-0.005000000,0.002000000,0.000000000
1696856195.590394,147244.000000000,1696856195.589133024,0.112000000,-0.102000000,-0.137000000,-0.005000000,0.002000000,0.000000000
1696856195.592447,147245.000000000,1696856195.591150045,0.112000000,-0.100000000,-0.136000000,-0.005000000,0.002000000,0.000000000
1696856195.594293,147246.000000000,1696856195.593146324,0.110000000,-0.099000000,-0.135000000,-0.005000000,0.002000000,0.000000000
1696856195.596195,147247.000000000,1696856195.595156431,0.110000000,-0.099000000,-0.135000000,-0.005000000,0.002000000,0.000000000
1696856195.598207,147248.000000000,1696856195.597185612,0.109000000,-0.101000000,-0.135000000,-0.005000000,0.002000000,0.000000000
1696856195.600860,147249.000000000,1696856195.599228382,0.109000000,-0.102000000,-0.135000000,-0.005000000,0.002000000,0.000000000
1696856195.602177,147250.000000000,1696856195.601154089,0.108000000,-0.104000000,-0.135000000,-0.005000000,0.002000000,0.000000000
1696856195.604131,147251.000000000,1696856195.603130579,0.108000000,-0.105000000,-0.136000000,-0.005000000,0.002000000,0.000000000
1696856195.606202,147252.000000000,1696856195.605168819,0.107000000,-0.105000000,-0.135000000,-0.005000000,0.002000000,0.000000000
1696856195.608148,147253.000000000,1696856195.607144356,0.107000000,-0.104000000,-0.136000000,-0.005000000,0.002000000,0.000000000
1696856195.610209,147254.000000000,1696856195.609189749,0.105000000,-0.102000000,-0.134000000,-0.005000000,0.002000000,0.000000000
1696856195.612143,147255.000000000,1696856195.611141205,0.104000000,-0.099000000,-0.134000000,-0.005000000,0.002000000,0.000000000
1696856195.615039,147256.000000000,1696856195.613190889,0.103000000,-0.097000000,-0.134000000,-0.006000000,0.002000000,0.000000000
1696856195.616658,147257.000000000,1696856195.615162611,0.102000000,-0.095000000,-0.136000000,-0.006000000,0.001000000,0.000000000
1696856195.618485,147258.000000000,1696856195.617351532,0.102000000,-0.095000000,-0.137000000,-0.006000000,0.001000000,0.000000000
1696856195.620912,147259.000000000,1696856195.619135380,0.101000000,-0.095000000,-0.138000000,-0.006000000,0.001000000,0.000000000
1696856195.622343,147260.000000000,1696856195.621151924,0.100000000,-0.097000000,-0.139000000,-0.005000000,0.002000000,0.000000000
1696856195.624374,147261.000000000,1696856195.623242140,0.100000000,-0.098000000,-0.142000000,-0.005000000,0.002000000,0.000000000
1696856195.626262,147262.000000000,1696856195.625146151,0.100000000,-0.099000000,-0.144000000,-0.005000000,0.002000000,0.000000000
1696856195.628703,147263.000000000,1696856195.627143860,0.099000000,-0.099000000,-0.147000000,-0.005000000,0.002000000,0.000000000
1696856195.630746,147264.000000000,1696856195.629549980,0.099000000,-0.098000000,-0.150000000,-0.005000000,0.002000000,0.000000000
1696856195.632571,147265.000000000,1696856195.631336451,0.098000000,-0.096000000,-0.153000000,-0.005000000,0.002000000,0.000000000
1696856195.634234,147266.000000000,1696856195.633156776,0.098000000,-0.093000000,-0.155000000,-0.005000000,0.002000000,0.000000000
1696856195.636152,147267.000000000,1696856195.635133505,0.097000000,-0.090000000,-0.157000000,-0.005000000,0.002000000,0.000000000
1696856195.638231,147268.000000000,1696856195.637109041,0.097000000,-0.087000000,-0.159000000,-0.006000000,0.002000000,0.000000000
1696856195.640442,147269.000000000,1696856195.639228106,0.096000000,-0.086000000,-0.163000000,-0.006000000,0.002000000,0.001000000
1696856195.642226,147270.000000000,1696856195.641106844,0.096000000,-0.086000000,-0.167000000,-0.006000000,0.002000000,0.001000000
1696856195.644114,147271.000000000,1696856195.643077850,0.096000000,-0.087000000,-0.171000000,-0.005000000,0.002000000,0.001000000
1696856195.646290,147272.000000000,1696856195.645123959,0.096000000,-0.088000000,-0.175000000,-0.005000000,0.002000000,0.001000000
1696856195.648221,147273.000000000,1696856195.647121668,0.097000000,-0.089000000,-0.180000000,-0.005000000,0.002000000,0.001000000
1696856195.650301,147274.000000000,1696856195.649133205,0.097000000,-0.090000000,-0.184000000,-0.005000000,0.002000000,0.001000000
1696856195.652584,147275.000000000,1696856195.651106596,0.097000000,-0.089000000,-0.188000000,-0.005000000,0.002000000,0.001000000
1696856195.654282,147276.000000000,1696856195.653145313,0.098000000,-0.087000000,-0.191000000,-0.005000000,0.002000000,0.001000000
1696856195.656185,147277.000000000,1696856195.655116558,0.098000000,-0.085000000,-0.193000000,-0.005000000,0.002000000,0.001000000
1696856195.658540,147278.000000000,1696856195.657247782,0.098000000,-0.082000000,-0.197000000,-0.005000000,0.002000000,0.001000000
1696856195.660414,147279.000000000,1696856195.659263134,0.098000000,-0.079000000,-0.199000000,-0.005000000,0.002000000,0.001000000
1696856195.662534,147280.000000000,1696856195.661183596,0.098000000,-0.078000000,-0.203000000,-0.005000000,0.002000000,0.002000000
1696856195.664072,147281.000000000,1696856195.663121223,0.098000000,-0.078000000,-0.205000000,-0.005000000,0.002000000,0.002000000
1696856195.666183,147282.000000000,1696856195.665138245,0.099000000,-0.079000000,-0.208000000,-0.005000000,0.002000000,0.002000000
1696856195.668179,147283.000000000,1696856195.667141676,0.100000000,-0.081000000,-0.211000000,-0.005000000,0.002000000,0.002000000
1696856195.670166,147284.000000000,1696856195.669154644,0.100000000,-0.082000000,-0.213000000,-0.005000000,0.002000000,0.002000000
1696856195.672205,147285.000000000,1696856195.671144962,0.101000000,-0.084000000,-0.215000000,-0.005000000,0.002000000,0.002000000
1696856195.674425,147286.000000000,1696856195.673199415,0.102000000,-0.084000000,-0.217000000,-0.005000000,0.002000000,0.002000000
1696856195.676172,147287.000000000,1696856195.675150633,0.103000000,-0.084000000,-0.218000000,-0.005000000,0.002000000,0.002000000
1696856195.678261,147288.000000000,1696856195.677172661,0.103000000,-0.083000000,-0.218000000,-0.005000000,0.002000000,0.002000000
1696856195.680589,147289.000000000,1696856195.679133892,0.104000000,-0.080000000,-0.217000000,-0.005000000,0.002000000,0.002000000
1696856195.682085,147290.000000000,1696856195.681149483,0.103000000,-0.079000000,-0.215000000,-0.005000000,0.002000000,0.002000000
1696856195.684196,147291.000000000,1696856195.683183193,0.104000000,-0.078000000,-0.214000000,-0.005000000,0.002000000,0.002000000
1696856195.686147,147292.000000000,1696856195.685166121,0.104000000,-0.078000000,-0.214000000,-0.005000000,0.002000000,0.002000000
1696856195.688051,147293.000000000,1696856195.687124491,0.105000000,-0.079000000,-0.213000000,-0.005000000,0.002000000,0.002000000
1696856195.690104,147294.000000000,1696856195.689166546,0.105000000,-0.082000000,-0.212000000,-0.005000000,0.002000000,0.002000000
1696856195.692213,147295.000000000,1696856195.691152334,0.106000000,-0.084000000,-0.209000000,-0.005000000,0.002000000,0.002000000
1696856195.694163,147296.000000000,1696856195.693161011,0.107000000,-0.087000000,-0.207000000,-0.005000000,0.002000000,0.002000000
1696856195.696202,147297.000000000,1696856195.695127010,0.107000000,-0.088000000,-0.205000000,-0.005000000,0.002000000,0.002000000
1696856195.698088,147298.000000000,1696856195.697137594,0.107000000,-0.089000000,-0.202000000,-0.005000000,0.002000000,0.001000000
1696856195.700483,147299.000000000,1696856195.699184418,0.108000000,-0.088000000,-0.198000000,-0.005000000,0.002000000,0.001000000
1696856195.702136,147300.000000000,1696856195.701160669,0.108000000,-0.087000000,-0.193000000,-0.005000000,0.002000000,0.001000000
1696856195.704085,147301.000000000,1696856195.703145027,0.107000000,-0.085000000,-0.189000000,-0.005000000,0.002000000,0.001000000
1696856195.706143,147302.000000000,1696856195.705182314,0.107000000,-0.084000000,-0.185000000,-0.005000000,0.002000000,0.001000000
1696856195.708149,147303.000000000,1696856195.707170725,0.107000000,-0.085000000,-0.182000000,-0.005000000,0.002000000,0.001000000
1696856195.710365,147304.000000000,1696856195.709155321,0.107000000,-0.086000000,-0.178000000,-0.005000000,0.002000000,0.001000000
1696856195.712118,147305.000000000,1696856195.711127043,0.107000000,-0.088000000,-0.174000000,-0.005000000,0.002000000,0.001000000
1696856195.714199,147306.000000000,1696856195.713140011,0.108000000,-0.091000000,-0.171000000,-0.005000000,0.002000000,0.001000000
1696856195.716412,147307.000000000,1696856195.715203047,0.108000000,-0.093000000,-0.168000000,-0.005000000,0.002000000,0.001000000
1696856195.718220,147308.000000000,1696856195.717141390,0.108000000,-0.095000000,-0.165000000,-0.005000000,0.002000000,0.001000000
1696856195.721543,147309.000000000,1696856195.719138384,0.108000000,-0.096000000,-0.160000000,-0.005000000,0.002000000,0.001000000
1696856195.722222,147310.000000000,1696856195.721204042,0.108000000,-0.096000000,-0.157000000,-0.005000000,0.002000000,0.000000000
1696856195.724439,147311.000000000,1696856195.723118544,0.108000000,-0.095000000,-0.153000000,-0.005000000,0.002000000,0.000000000
1696856195.726272,147312.000000000,1696856195.725168705,0.108000000,-0.093000000,-0.148000000,-0.005000000,0.002000000,0.000000000
1696856195.728197,147313.000000000,1696856195.727151871,0.107000000,-0.091000000,-0.143000000,-0.005000000,0.002000000,0.000000000
1696856195.730189,147314.000000000,1696856195.729154110,0.107000000,-0.091000000,-0.141000000,-0.005000000,0.002000000,0.000000000
1696856195.732180,147315.000000000,1696856195.731140852,0.107000000,-0.091000000,-0.138000000,-0.005000000,0.002000000,0.000000000
1696856195.734312,147316.000000000,1696856195.733188868,0.107000000,-0.093000000,-0.136000000,-0.005000000,0.002000000,0.000000000
1696856195.736072,147317.000000000,1696856195.735123873,0.107000000,-0.095000000,-0.133000000,-0.005000000,0.002000000,0.000000000
1696856195.738211,147318.000000000,1696856195.737149954,0.107000000,-0.098000000,-0.131000000,-0.005000000,0.002000000,0.000000000
1696856195.740668,147319.000000000,1696856195.739189148,0.107000000,-0.100000000,-0.129000000,-0.005000000,0.002000000,0.000000000
1696856195.742193,147320.000000000,1696856195.741169453,0.108000000,-0.101000000,-0.128000000,-0.005000000,0.002000000,0.000000000
1696856195.744145,147321.000000000,1696856195.743153095,0.107000000,-0.100000000,-0.125000000,-0.005000000,0.002000000,0.000000000
1696856195.746131,147322.000000000,1696856195.745144844,0.107000000,-0.099000000,-0.124000000,-0.005000000,0.002000000,0.000000000
1696856195.748131,147323.000000000,1696856195.747140884,0.107000000,-0.097000000,-0.120000000,-0.005000000,0.002000000,0.000000000
1696856195.750475,147324.000000000,1696856195.749253988,0.107000000,-0.095000000,-0.119000000,-0.005000000,0.002000000,0.000000000
1696856195.752088,147325.000000000,1696856195.751121998,0.106000000,-0.094000000,-0.116000000,-0.006000000,0.002000000,0.000000000
1696856195.754080,147326.000000000,1696856195.753150463,0.106000000,-0.094000000,-0.116000000,-0.006000000,0.001000000,0.000000000
1696856195.756093,147327.000000000,1696856195.755147696,0.107000000,-0.095000000,-0.115000000,-0.006000000,0.001000000,0.000000000
1696856195.758554,147328.000000000,1696856195.757170677,0.107000000,-0.097000000,-0.115000000,-0.005000000,0.001000000,0.000000000
1696856195.760595,147329.000000000,1696856195.759139538,0.107000000,-0.099000000,-0.114000000,-0.005000000,0.002000000,0.000000000
1696856195.762178,147330.000000000,1696856195.761151314,0.108000000,-0.101000000,-0.114000000,-0.005000000,0.002000000,0.000000000
1696856195.764146,147331.000000000,1696856195.763146639,0.108000000,-0.102000000,-0.113000000,-0.005000000,0.002000000,0.000000000
1696856195.766202,147332.000000000,1696856195.765189409,0.109000000,-0.103000000,-0.112000000,-0.005000000,0.002000000,0.000000000
1696856195.768150,147333.000000000,1696856195.767134905,0.109000000,-0.102000000,-0.112000000,-0.005000000,0.002000000,0.000000000
1696856195.770146,147334.000000000,1696856195.769134283,0.109000000,-0.101000000,-0.111000000,-0.005000000,0.002000000,0.000000000
1696856195.772145,147335.000000000,1696856195.771155357,0.109000000,-0.098000000,-0.109000000,-0.005000000,0.002000000,0.000000000
1696856195.774194,147336.000000000,1696856195.773169756,0.109000000,-0.097000000,-0.108000000,-0.005000000,0.002000000,0.000000000
1696856195.776073,147337.000000000,1696856195.775123119,0.110000000,-0.096000000,-0.108000000,-0.006000000,0.001000000,0.000000000
1696856195.778107,147338.000000000,1696856195.777162552,0.110000000,-0.097000000,-0.108000000,-0.005000000,0.001000000,0.000000000
1696856195.780956,147339.000000000,1696856195.779171467,0.111000000,-0.098000000,-0.108000000,-0.005000000,0.001000000,0.000000000
1696856195.782332,147340.000000000,1696856195.781177521,0.111000000,-0.101000000,-0.109000000,-0.005000000,0.002000000,0.000000000
1696856195.784062,147341.000000000,1696856195.783136368,0.112000000,-0.103000000,-0.109000000,-0.005000000,0.002000000,0.000000000
1696856195.786082,147342.000000000,1696856195.785109758,0.113000000,-0.105000000,-0.109000000,-0.005000000,0.002000000,0.000000000
1696856195.788237,147343.000000000,1696856195.787159204,0.114000000,-0.106000000,-0.110000000,-0.005000000,0.002000000,0.000000000
1696856195.790134,147344.000000000,1696856195.789154530,0.114000000,-0.105000000,-0.109000000,-0.005000000,0.002000000,0.000000000
1696856195.792122,147345.000000000,1696856195.791154623,0.115000000,-0.104000000,-0.109000000,-0.005000000,0.002000000,0.000000000
1696856195.794095,147346.000000000,1696856195.793183327,0.115000000,-0.102000000,-0.108000000,-0.005000000,0.002000000,0.000000000
1696856195.796139,147347.000000000,1696856195.795156479,0.115000000,-0.100000000,-0.107000000,-0.005000000,0.002000000,0.000000000
1696856195.798128,147348.000000000,1696856195.797168970,0.115000000,-0.099000000,-0.107000000,-0.005000000,0.002000000,0.000000000
1696856195.800260,147349.000000000,1696856195.799174309,0.116000000,-0.099000000,-0.108000000,-0.005000000,0.002000000,0.000000000
1696856195.802750,147350.000000000,1696856195.801166058,0.117000000,-0.100000000,-0.109000000,-0.005000000,0.001000000,0.000000000
1696856195.804109,147351.000000000,1696856195.803166628,0.117000000,-0.102000000,-0.110000000,-0.005000000,0.002000000,0.000000000
1696856195.806124,147352.000000000,1696856195.805141926,0.118000000,-0.104000000,-0.111000000,-0.005000000,0.002000000,0.000000000
1696856195.808158,147353.000000000,1696856195.807130814,0.119000000,-0.106000000,-0.111000000,-0.005000000,0.002000000,0.000000000
1696856195.810122,147354.000000000,1696856195.809118271,0.120000000,-0.107000000,-0.112000000,-0.005000000,0.002000000,0.000000000
1696856195.812083,147355.000000000,1696856195.811095715,0.120000000,-0.107000000,-0.113000000,-0.005000000,0.002000000,0.000000000
1696856195.814176,147356.000000000,1696856195.813128948,0.121000000,-0.106000000,-0.114000000,-0.005000000,0.002000000,0.000000000
1696856195.816335,147357.000000000,1696856195.815204144,0.121000000,-0.105000000,-0.114000000,-0.005000000,0.002000000,0.000000000
1696856195.818216,147358.000000000,1696856195.817150116,0.121000000,-0.102000000,-0.113000000,-0.005000000,0.002000000,0.000000000
1696856195.820605,147359.000000000,1696856195.819162607,0.121000000,-0.101000000,-0.113000000,-0.005000000,0.002000000,0.000000000
1696856195.822289,147360.000000000,1696856195.821194649,0.121000000,-0.100000000,-0.114000000,-0.005000000,0.002000000,0.000000000
1696856195.824374,147361.000000000,1696856195.823164940,0.121000000,-0.101000000,-0.115000000,-0.005000000,0.001000000,0.000000000
1696856195.826459,147362.000000000,1696856195.825147152,0.122000000,-0.102000000,-0.116000000,-0.005000000,0.001000000,0.000000000
1696856195.828335,147363.000000000,1696856195.827196121,0.122000000,-0.105000000,-0.117000000,-0.005000000,0.002000000,0.000000000
1696856195.830260,147364.000000000,1696856195.829175472,0.122000000,-0.107000000,-0.118000000,-0.005000000,0.002000000,0.000000000
1696856195.832213,147365.000000000,1696856195.831141233,0.123000000,-0.108000000,-0.119000000,-0.005000000,0.002000000,0.000000000
1696856195.834196,147366.000000000,1696856195.833143950,0.123000000,-0.109000000,-0.120000000,-0.005000000,0.002000000,0.000000000
1696856195.836373,147367.000000000,1696856195.835163593,0.123000000,-0.108000000,-0.120000000,-0.005000000,0.002000000,0.000000000
1696856195.838279,147368.000000000,1696856195.837218761,0.123000000,-0.106000000,-0.119000000,-0.005000000,0.002000000,0.000000000
1696856195.840630,147369.000000000,1696856195.839173794,0.123000000,-0.104000000,-0.119000000,-0.005000000,0.002000000,0.000000000
1696856195.842386,147370.000000000,1696856195.841290712,0.123000000,-0.102000000,-0.119000000,-0.005000000,0.002000000,0.000000000
1696856195.844702,147371.000000000,1696856195.843298197,0.123000000,-0.101000000,-0.119000000,-0.005000000,0.001000000,0.000000000
1696856195.846199,147372.000000000,1696856195.845121622,0.123000000,-0.101000000,-0.118000000,-0.005000000,0.001000000,0.000000000
1696856195.848148,147373.000000000,1696856195.847104073,0.122000000,-0.102000000,-0.119000000,-0.005000000,0.001000000,0.000000000
1696856195.851575,147374.000000000,1696856195.849117279,0.123000000,-0.104000000,-0.120000000,-0.005000000,0.001000000,0.000000000
1696856195.852275,147375.000000000,1696856195.851110458,0.123000000,-0.107000000,-0.120000000,-0.005000000,0.002000000,0.000000000
1696856195.854198,147376.000000000,1696856195.853124142,0.124000000,-0.108000000,-0.120000000,-0.005000000,0.002000000,0.000000000
1696856195.856160,147377.000000000,1696856195.855129004,0.124000000,-0.109000000,-0.120000000,-0.005000000,0.002000000,0.000000000
1696856195.858223,147378.000000000,1696856195.857152224,0.124000000,-0.109000000,-0.121000000,-0.005000000,0.002000000,0.000000000
1696856195.860576,147379.000000000,1696856195.859189510,0.123000000,-0.107000000,-0.119000000,-0.005000000,0.002000000,0.000000000
1696856195.862250,147380.000000000,1696856195.861154318,0.123000000,-0.105000000,-0.118000000,-0.005000000,0.002000000,0.000000000
1696856195.864217,147381.000000000,1696856195.863179922,0.123000000,-0.103000000,-0.117000000,-0.005000000,0.002000000,0.000000000
1696856195.866177,147382.000000000,1696856195.865163088,0.122000000,-0.101000000,-0.116000000,-0.005000000,0.001000000,0.000000000
1696856195.868337,147383.000000000,1696856195.867190838,0.122000000,-0.100000000,-0.116000000,-0.005000000,0.001000000,0.000000000
1696856195.870876,147384.000000000,1696856195.869185686,0.122000000,-0.101000000,-0.116000000,-0.005000000,0.001000000,0.000000000
1696856195.872069,147385.000000000,1696856195.871158123,0.122000000,-0.103000000,-0.116000000,-0.005000000,0.001000000,0.000000000
1696856195.874459,147386.000000000,1696856195.873186588,0.122000000,-0.104000000,-0.116000000,-0.005000000,0.001000000,0.000000000
1696856195.876075,147387.000000000,1696856195.875157595,0.123000000,-0.106000000,-0.117000000,-0.005000000,0.002000000,0.000000000
1696856195.878171,147388.000000000,1696856195.877218246,0.123000000,-0.107000000,-0.116000000,-0.005000000,0.002000000,0.000000000
1696856195.880704,147389.000000000,1696856195.879135847,0.123000000,-0.107000000,-0.117000000,-0.005000000,0.002000000,0.000000000
1696856195.882364,147390.000000000,1696856195.881178856,0.123000000,-0.106000000,-0.115000000,-0.005000000,0.002000000,0.000000000
1696856195.884078,147391.000000000,1696856195.883145332,0.123000000,-0.104000000,-0.115000000,-0.005000000,0.002000000,0.000000000
1696856195.886179,147392.000000000,1696856195.885171652,0.122000000,-0.102000000,-0.114000000,-0.005000000,0.002000000,0.000000000
1696856195.888072,147393.000000000,1696856195.887137175,0.122000000,-0.100000000,-0.114000000,-0.006000000,0.001000000,0.000000000
1696856195.890110,147394.000000000,1696856195.889178276,0.122000000,-0.098000000,-0.114000000,-0.006000000,0.001000000,0.000000000
1696856195.892800,147395.000000000,1696856195.891160727,0.121000000,-0.098000000,-0.116000000,-0.006000000,0.001000000,0.000000000
1696856195.894129,147396.000000000,1696856195.893170834,0.122000000,-0.099000000,-0.117000000,-0.005000000,0.001000000,0.000000000
1696856195.896138,147397.000000000,1696856195.895156384,0.122000000,-0.101000000,-0.118000000,-0.005000000,0.001000000,0.000000000
1696856195.898987,147398.000000000,1696856195.897192717,0.122000000,-0.102000000,-0.120000000,-0.005000000,0.001000000,0.000000000
1696856195.901162,147399.000000000,1696856195.899180889,0.123000000,-0.103000000,-0.122000000,-0.005000000,0.002000000,0.000000000
1696856195.902573,147400.000000000,1696856195.901181936,0.123000000,-0.104000000,-0.124000000,-0.005000000,0.002000000,0.000000000
1696856195.904117,147401.000000000,1696856195.903184414,0.123000000,-0.103000000,-0.126000000,-0.005000000,0.002000000,0.000000000
1696856195.906181,147402.000000000,1696856195.905148268,0.123000000,-0.101000000,-0.127000000,-0.005000000,0.002000000,0.000000000
1696856195.908140,147403.000000000,1696856195.907179356,0.123000000,-0.098000000,-0.129000000,-0.005000000,0.002000000,0.000000000
1696856195.910195,147404.000000000,1696856195.909141302,0.123000000,-0.095000000,-0.130000000,-0.005000000,0.002000000,0.000000000
1696856195.912091,147405.000000000,1696856195.911159277,0.123000000,-0.093000000,-0.133000000,-0.005000000,0.001000000,0.000000000
1696856195.914050,147406.000000000,1696856195.913105488,0.123000000,-0.092000000,-0.137000000,-0.005000000,0.001000000,0.000000000
1696856195.916097,147407.000000000,1696856195.915133476,0.123000000,-0.092000000,-0.140000000,-0.005000000,0.001000000,0.000000000
1696856195.918119,147408.000000000,1696856195.917168379,0.123000000,-0.094000000,-0.144000000,-0.005000000,0.002000000,0.000000000
1696856195.921012,147409.000000000,1696856195.919952869,0.124000000,-0.095000000,-0.149000000,-0.005000000,0.002000000,0.000000000
1696856195.922128,147410.000000000,1696856195.921172380,0.125000000,-0.096000000,-0.153000000,-0.005000000,0.002000000,0.000000000
1696856195.924493,147411.000000000,1696856195.923295736,0.126000000,-0.097000000,-0.159000000,-0.005000000,0.002000000,0.000000000
1696856195.926176,147412.000000000,1696856195.925225735,0.126000000,-0.096000000,-0.162000000,-0.005000000,0.002000000,0.001000000
1696856195.928159,147413.000000000,1696856195.927141428,0.126000000,-0.094000000,-0.166000000,-0.005000000,0.002000000,0.001000000
1696856195.930112,147414.000000000,1696856195.929170370,0.126000000,-0.091000000,-0.170000000,-0.005000000,0.002000000,0.001000000
1696856195.932193,147415.000000000,1696856195.931175947,0.127000000,-0.088000000,-0.176000000,-0.005000000,0.002000000,0.001000000
1696856195.934105,147416.000000000,1696856195.933161974,0.126000000,-0.086000000,-0.179000000,-0.005000000,0.002000000,0.001000000
1696856195.936062,147417.000000000,1696856195.935127735,0.126000000,-0.084000000,-0.184000000,-0.005000000,0.002000000,0.001000000
1696856195.938087,147418.000000000,1696856195.937160254,0.127000000,-0.084000000,-0.189000000,-0.005000000,0.002000000,0.001000000
1696856195.940761,147419.000000000,1696856195.939143896,0.128000000,-0.085000000,-0.195000000,-0.005000000,0.002000000,0.001000000
1696856195.942140,147420.000000000,1696856195.941159248,0.128000000,-0.086000000,-0.200000000,-0.005000000,0.002000000,0.002000000
1696856195.944040,147421.000000000,1696856195.943132162,0.129000000,-0.087000000,-0.205000000,-0.005000000,0.002000000,0.002000000
1696856195.946067,147422.000000000,1696856195.945145130,0.130000000,-0.088000000,-0.211000000,-0.005000000,0.002000000,0.002000000
1696856195.948171,147423.000000000,1696856195.947242260,0.131000000,-0.088000000,-0.216000000,-0.005000000,0.002000000,0.002000000
1696856195.950097,147424.000000000,1696856195.949156523,0.132000000,-0.087000000,-0.220000000,-0.005000000,0.002000000,0.002000000
1696856195.952080,147425.000000000,1696856195.951142311,0.132000000,-0.085000000,-0.223000000,-0.005000000,0.002000000,0.002000000
1696856195.954734,147426.000000000,1696856195.953162432,0.132000000,-0.083000000,-0.226000000,-0.005000000,0.002000000,0.002000000
1696856195.956189,147427.000000000,1696856195.955181360,0.132000000,-0.081000000,-0.228000000,-0.005000000,0.002000000,0.002000000
1696856195.958216,147428.000000000,1696856195.957220078,0.132000000,-0.080000000,-0.232000000,-0.005000000,0.002000000,0.002000000
1696856195.960880,147429.000000000,1696856195.959148884,0.133000000,-0.079000000,-0.235000000,-0.005000000,0.002000000,0.002000000
1696856195.962123,147430.000000000,1696856195.961156368,0.133000000,-0.080000000,-0.237000000,-0.005000000,0.002000000,0.002000000
1696856195.964338,147431.000000000,1696856195.963160276,0.134000000,-0.082000000,-0.239000000,-0.005000000,0.002000000,0.002000000
1696856195.966571,147432.000000000,1696856195.965186357,0.134000000,-0.085000000,-0.241000000,-0.005000000,0.002000000,0.003000000
1696856195.968134,147433.000000000,1696856195.967152834,0.135000000,-0.087000000,-0.243000000,-0.005000000,0.002000000,0.003000000
1696856195.970125,147434.000000000,1696856195.969208002,0.135000000,-0.088000000,-0.244000000,-0.005000000,0.002000000,0.002000000
1696856195.972064,147435.000000000,1696856195.971154213,0.135000000,-0.088000000,-0.244000000,-0.005000000,0.002000000,0.002000000
1696856195.974158,147436.000000000,1696856195.973179102,0.135000000,-0.088000000,-0.244000000,-0.005000000,0.002000000,0.003000000
1696856195.976007,147437.000000000,1696856195.975086927,0.135000000,-0.086000000,-0.242000000,-0.005000000,0.002000000,0.003000000
1696856195.977994,147438.000000000,1696856195.977074385,0.135000000,-0.085000000,-0.241000000,-0.005000000,0.002000000,0.003000000
1696856195.980504,147439.000000000,1696856195.979068995,0.134000000,-0.084000000,-0.238000000,-0.005000000,0.002000000,0.002000000
1696856195.982046,147440.000000000,1696856195.981085539,0.134000000,-0.084000000,-0.236000000,-0.005000000,0.002000000,0.002000000
1696856195.983994,147441.000000000,1696856195.983067989,0.134000000,-0.086000000,-0.235000000,-0.005000000,0.002000000,0.002000000
1696856195.986122,147442.000000000,1696856195.985152483,0.134000000,-0.088000000,-0.232000000,-0.005000000,0.002000000,0.002000000
1696856195.988020,147443.000000000,1696856195.987096071,0.134000000,-0.092000000,-0.230000000,-0.005000000,0.002000000,0.002000000
1696856195.990121,147444.000000000,1696856195.989148855,0.134000000,-0.094000000,-0.227000000,-0.005000000,0.002000000,0.002000000
1696856195.992109,147445.000000000,1696856195.991143465,0.134000000,-0.097000000,-0.224000000,-0.005000000,0.002000000,0.002000000
1696856195.994091,147446.000000000,1696856195.993120909,0.133000000,-0.098000000,-0.220000000,-0.005000000,0.002000000,0.002000000
1696856195.996132,147447.000000000,1696856195.995126247,0.133000000,-0.098000000,-0.216000000,-0.005000000,0.002000000,0.002000000
1696856195.998300,147448.000000000,1696856195.997153044,0.132000000,-0.097000000,-0.211000000,-0.005000000,0.002000000,0.002000000
1696856196.001033,147449.000000000,1696856195.999176741,0.131000000,-0.096000000,-0.206000000,-0.005000000,0.002000000,0.002000000
1696856196.002094,147450.000000000,1696856196.001141310,0.131000000,-0.095000000,-0.201000000,-0.005000000,0.002000000,0.002000000
1696856196.004185,147451.000000000,1696856196.003179312,0.130000000,-0.095000000,-0.198000000,-0.005000000,0.002000000,0.001000000
1696856196.006094,147452.000000000,1696856196.005158663,0.129000000,-0.096000000,-0.193000000,-0.005000000,0.002000000,0.001000000
1696856196.008125,147453.000000000,1696856196.007134914,0.129000000,-0.098000000,-0.189000000,-0.005000000,0.002000000,0.001000000
1696856196.010329,147454.000000000,1696856196.009165049,0.128000000,-0.101000000,-0.186000000,-0.005000000,0.002000000,0.001000000
1696856196.012198,147455.000000000,1696856196.011156559,0.128000000,-0.104000000,-0.181000000,-0.005000000,0.002000000,0.001000000
1696856196.014177,147456.000000000,1696856196.013230324,0.128000000,-0.106000000,-0.180000000,-0.005000000,0.002000000,0.001000000
1696856196.016340,147457.000000000,1696856196.015187740,0.128000000,-0.107000000,-0.175000000,-0.005000000,0.002000000,0.001000000
1696856196.018119,147458.000000000,1696856196.017178059,0.128000000,-0.107000000,-0.171000000,-0.005000000,0.002000000,0.001000000
1696856196.020489,147459.000000000,1696856196.019157648,0.127000000,-0.106000000,-0.167000000,-0.005000000,0.002000000,0.001000000
1696856196.022132,147460.000000000,1696856196.021178961,0.127000000,-0.104000000,-0.163000000,-0.005000000,0.002000000,0.001000000
1696856196.024259,147461.000000000,1696856196.023253202,0.126000000,-0.103000000,-0.160000000,-0.005000000,0.002000000,0.001000000
1696856196.026089,147462.000000000,1696856196.025143147,0.125000000,-0.102000000,-0.157000000,-0.005000000,0.002000000,0.000000000
1696856196.028199,147463.000000000,1696856196.027149916,0.125000000,-0.102000000,-0.155000000,-0.005000000,0.001000000,0.000000000
1696856196.030155,147464.000000000,1696856196.029204369,0.125000000,-0.103000000,-0.153000000,-0.005000000,0.001000000,0.000000000
1696856196.032113,147465.000000000,1696856196.031147718,0.125000000,-0.104000000,-0.151000000,-0.005000000,0.001000000,0.000000000
1696856196.034109,147466.000000000,1696856196.033171654,0.126000000,-0.107000000,-0.150000000,-0.005000000,0.002000000,0.000000000
1696856196.036211,147467.000000000,1696856196.035235643,0.126000000,-0.109000000,-0.150000000,-0.005000000,0.002000000,0.000000000
1696856196.038157,147468.000000000,1696856196.037204742,0.127000000,-0.110000000,-0.149000000,-0.005000000,0.002000000,0.000000000
1696856196.040409,147469.000000000,1696856196.039168358,0.127000000,-0.110000000,-0.148000000,-0.005000000,0.002000000,0.000000000
1696856196.042180,147470.000000000,1696856196.041172028,0.127000000,-0.109000000,-0.146000000,-0.005000000,0.002000000,0.000000000
1696856196.044336,147471.000000000,1696856196.043193340,0.127000000,-0.107000000,-0.145000000,-0.005000000,0.002000000,0.000000000
1696856196.046321,147472.000000000,1696856196.045197487,0.127000000,-0.105000000,-0.145000000,-0.005000000,0.002000000,0.000000000
1696856196.048164,147473.000000000,1696856196.047144890,0.127000000,-0.103000000,-0.144000000,-0.005000000,0.002000000,0.000000000
1696856196.050292,147474.000000000,1696856196.049239635,0.128000000,-0.103000000,-0.144000000,-0.005000000,0.001000000,0.000000000
1696856196.052289,147475.000000000,1696856196.051165342,0.127000000,-0.103000000,-0.143000000,-0.005000000,0.001000000,0.000000000
1696856196.054225,147476.000000000,1696856196.053177118,0.128000000,-0.104000000,-0.143000000,-0.005000000,0.001000000,0.000000000
1696856196.056194,147477.000000000,1696856196.055154800,0.129000000,-0.106000000,-0.145000000,-0.005000000,0.002000000,0.000000000
1696856196.059478,147478.000000000,1696856196.057228327,0.130000000,-0.109000000,-0.147000000,-0.005000000,0.002000000,0.000000000
1696856196.061078,147479.000000000,1696856196.059195995,0.130000000,-0.110000000,-0.146000000,-0.005000000,0.002000000,0.000000000
1696856196.062260,147480.000000000,1696856196.061189413,0.131000000,-0.111000000,-0.146000000,-0.005000000,0.002000000,0.000000000
1696856196.064183,147481.000000000,1696856196.063156366,0.132000000,-0.110000000,-0.147000000,-0.005000000,0.002000000,0.000000000
1696856196.066201,147482.000000000,1696856196.065166950,0.132000000,-0.109000000,-0.147000000,-0.005000000,0.002000000,0.000000000
1696856196.068323,147483.000000000,1696856196.067160368,0.132000000,-0.107000000,-0.146000000,-0.005000000,0.002000000,0.000000000
1696856196.070245,147484.000000000,1696856196.069180489,0.132000000,-0.105000000,-0.145000000,-0.005000000,0.002000000,0.000000000
1696856196.072154,147485.000000000,1696856196.071143627,0.132000000,-0.104000000,-0.145000000,-0.005000000,0.002000000,0.000000000
1696856196.074214,147486.000000000,1696856196.073145151,0.132000000,-0.104000000,-0.145000000,-0.005000000,0.002000000,0.000000000
1696856196.076097,147487.000000000,1696856196.075131893,0.132000000,-0.105000000,-0.146000000,-0.005000000,0.002000000,0.000000000
1696856196.078192,147488.000000000,1696856196.077131987,0.132000000,-0.108000000,-0.145000000,-0.005000000,0.002000000,0.000000000
1696856196.080765,147489.000000000,1696856196.079140186,0.133000000,-0.110000000,-0.146000000,-0.005000000,0.002000000,0.000000000
1696856196.082309,147490.000000000,1696856196.081113815,0.133000000,-0.111000000,-0.146000000,-0.005000000,0.002000000,0.000000000
1696856196.084188,147491.000000000,1696856196.083160877,0.133000000,-0.113000000,-0.146000000,-0.005000000,0.002000000,0.000000000
1696856196.086298,147492.000000000,1696856196.085183144,0.134000000,-0.112000000,-0.145000000,-0.005000000,0.002000000,0.000000000
1696856196.088185,147493.000000000,1696856196.087156534,0.134000000,-0.111000000,-0.145000000,-0.005000000,0.002000000,0.000000000
1696856196.090344,147494.000000000,1696856196.089151859,0.133000000,-0.109000000,-0.143000000,-0.005000000,0.002000000,0.000000000
1696856196.092206,147495.000000000,1696856196.091157913,0.133000000,-0.107000000,-0.141000000,-0.005000000,0.002000000,0.000000000
1696856196.094249,147496.000000000,1696856196.093155384,0.132000000,-0.106000000,-0.141000000,-0.005000000,0.002000000,0.000000000
1696856196.096260,147497.000000000,1696856196.095142603,0.132000000,-0.105000000,-0.140000000,-0.005000000,0.002000000,0.000000000
1696856196.098179,147498.000000000,1696856196.097136736,0.132000000,-0.106000000,-0.140000000,-0.005000000,0.002000000,0.000000000
1696856196.101083,147499.000000000,1696856196.099289417,0.132000000,-0.107000000,-0.140000000,-0.005000000,0.002000000,0.000000000
1696856196.102282,147500.000000000,1696856196.101197481,0.131000000,-0.109000000,-0.139000000,-0.005000000,0.002000000,0.000000000
1696856196.104181,147501.000000000,1696856196.103144884,0.131000000,-0.111000000,-0.138000000,-0.005000000,0.002000000,0.000000000
1696856196.106381,147502.000000000,1696856196.105301619,0.131000000,-0.112000000,-0.137000000,-0.005000000,0.002000000,0.000000000
1696856196.108507,147503.000000000,1696856196.107325792,0.131000000,-0.112000000,-0.138000000,-0.005000000,0.002000000,0.000000000
1696856196.110296,147504.000000000,1696856196.109188318,0.131000000,-0.111000000,-0.136000000,-0.005000000,0.002000000,0.000000000
1696856196.112193,147505.000000000,1696856196.111159563,0.130000000,-0.109000000,-0.135000000,-0.005000000,0.002000000,0.000000000
1696856196.114177,147506.000000000,1696856196.113147974,0.129000000,-0.107000000,-0.133000000,-0.005000000,0.002000000,0.000000000
1696856196.116276,147507.000000000,1696856196.115200758,0.129000000,-0.104000000,-0.132000000,-0.005000000,0.002000000,0.000000000
1696856196.118254,147508.000000000,1696856196.117150307,0.128000000,-0.103000000,-0.132000000,-0.005000000,0.002000000,0.000000000
1696856196.120405,147509.000000000,1696856196.119159222,0.128000000,-0.102000000,-0.131000000,-0.005000000,0.002000000,0.000000000
1696856196.122424,147510.000000000,1696856196.121160984,0.128000000,-0.103000000,-0.130000000,-0.005000000,0.002000000,0.000000000
1696856196.124503,147511.000000000,1696856196.123326540,0.127000000,-0.105000000,-0.130000000,-0.005000000,0.002000000,0.000000000
1696856196.126245,147512.000000000,1696856196.125180960,0.128000000,-0.106000000,-0.130000000,-0.005000000,0.002000000,0.000000000
1696856196.128192,147513.000000000,1696856196.127162457,0.127000000,-0.107000000,-0.130000000,-0.005000000,0.002000000,0.000000000
1696856196.130231,147514.000000000,1696856196.129184961,0.127000000,-0.108000000,-0.130000000,-0.005000000,0.002000000,0.000000000
