__time,/kms40_driver/wrench/header/seq,/kms40_driver/wrench/header/stamp,/kms40_driver/wrench/wrench/force/x,/kms40_driver/wrench/wrench/force/y,/kms40_driver/wrench/wrench/force/z,/kms40_driver/wrench/wrench/torque/x,/kms40_driver/wrench/wrench/torque/y,/kms40_driver/wrench/wrench/torque/z
1696857896.065568,983926.000000000,1696857896.063544273,-0.025000000,-0.030000000,0.024000000,0.000000000,0.000000000,0.000000000
1696857896.067290,983927.000000000,1696857896.065550804,-0.025000000,-0.032000000,0.028000000,0.000000000,0.000000000,0.000000000
1696857896.069151,983928.000000000,1696857896.067558765,-0.025000000,-0.034000000,0.029000000,0.000000000,0.000000000,0.000000000
1696857896.071366,983929.000000000,1696857896.069514036,-0.025000000,-0.035000000,0.033000000,0.000000000,0.000000000,0.000000000
1696857896.079257,983932.000000000,1696857896.075507641,-0.026000000,-0.033000000,0.042000000,0.000000000,0.000000000,0.000000000
1696857896.081273,983933.000000000,1696857896.077555895,-0.025000000,-0.032000000,0.044000000,0.000000000,0.000000000,0.000000000
1696857896.083496,983935.000000000,1696857896.081511497,-0.026000000,-0.031000000,0.048000000,0.000000000,0.000000000,0.000000000
1696857896.103823,983944.000000000,1696857896.099543810,-0.023000000,-0.029000000,0.058000000,0.000000000,0.000000000,-0.001000000
1696857896.104816,983945.000000000,1696857896.101536751,-0.023000000,-0.028000000,0.059000000,0.000000000,0.000000000,-0.001000000
1696857896.105805,983946.000000000,1696857896.103548765,-0.023000000,-0.027000000,0.059000000,0.000000000,0.000000000,-0.001000000
1696857896.110308,983948.000000000,1696857896.107533216,-0.022000000,-0.027000000,0.059000000,0.000000000,0.000000000,-0.001000000
1696857896.111938,983949.000000000,1696857896.109534979,-0.022000000,-0.028000000,0.060000000,0.000000000,0.000000000,-0.001000000
1696857896.114403,983950.000000000,1696857896.111564875,-0.021000000,-0.029000000,0.059000000,0.000000000,0.000000000,-0.001000000
1696857896.115224,983951.000000000,1696857896.113566399,-0.020000000,-0.030000000,0.059000000,0.000000000,0.000000000,-0.001000000
1696857896.117085,983952.000000000,1696857896.115517139,-0.020000000,-0.029000000,0.060000000,0.000000000,0.000000000,-0.001000000
1696857896.120739,983953.000000000,1696857896.117520094,-0.020000000,-0.028000000,0.061000000,0.000000000,0.000000000,-0.001000000
1696857896.121200,983954.000000000,1696857896.119550705,-0.020000000,-0.027000000,0.062000000,0.000000000,0.000000000,-0.001000000
1696857896.123125,983955.000000000,1696857896.121556759,-0.020000000,-0.025000000,0.063000000,0.000000000,0.000000000,-0.001000000
1696857896.125304,983956.000000000,1696857896.123525143,-0.020000000,-0.023000000,0.065000000,0.000000000,0.000000000,-0.001000000
1696857896.149436,983968.000000000,1696857896.147526503,-0.021000000,-0.025000000,0.065000000,0.000000000,0.000000000,-0.001000000
1696857896.151431,983969.000000000,1696857896.149533272,-0.022000000,-0.025000000,0.065000000,0.000000000,0.000000000,-0.001000000
1696857896.153326,983970.000000000,1696857896.151541710,-0.021000000,-0.027000000,0.064000000,0.000000000,0.000000000,-0.001000000
1696857896.155116,983971.000000000,1696857896.153533459,-0.022000000,-0.029000000,0.064000000,0.000000000,0.000000000,-0.001000000
1696857896.157033,983972.000000000,1696857896.155542612,-0.021000000,-0.030000000,0.063000000,0.000000000,0.000000000,-0.001000000
1696857896.161439,983973.000000000,1696857896.157542229,-0.021000000,-0.033000000,0.061000000,0.000000000,0.000000000,-0.001000000
1696857896.162606,983974.000000000,1696857896.159533024,-0.021000000,-0.034000000,0.061000000,0.000000000,0.000000000,-0.001000000
1696857896.163074,983975.000000000,1696857896.161520958,-0.021000000,-0.035000000,0.059000000,0.000000000,0.000000000,-0.001000000
1696857896.173347,983976.000000000,1696857896.163511753,-0.021000000,-0.035000000,0.060000000,0.000000000,0.000000000,-0.001000000
1696857896.174345,983980.000000000,1696857896.171545267,-0.022000000,-0.034000000,0.060000000,0.000000000,0.000000000,-0.001000000
1696857896.187957,983986.000000000,1696857896.183531761,-0.020000000,-0.044000000,0.056000000,0.000000000,0.000000000,-0.001000000
1696857896.188325,983987.000000000,1696857896.185515881,-0.020000000,-0.044000000,0.057000000,0.000000000,0.000000000,-0.001000000
1696857896.195918,983989.000000000,1696857896.189563751,-0.020000000,-0.043000000,0.058000000,0.000000000,0.000000000,-0.001000000
1696857896.196389,983990.000000000,1696857896.191544056,-0.019000000,-0.042000000,0.059000000,0.000000000,0.000000000,-0.001000000
1696857896.196449,983991.000000000,1696857896.193533897,-0.020000000,-0.041000000,0.059000000,0.000000000,0.000000000,-0.001000000
1696857896.197157,983992.000000000,1696857896.195565224,-0.020000000,-0.042000000,0.059000000,0.000000000,0.000000000,-0.001000000
1696857896.201521,983993.000000000,1696857896.197535276,-0.019000000,-0.042000000,0.059000000,0.000000000,0.000000000,-0.001000000
1696857896.201867,983994.000000000,1696857896.199587107,-0.019000000,-0.044000000,0.059000000,0.000000000,0.000000000,-0.001000000
1696857896.204330,983995.000000000,1696857896.201525450,-0.019000000,-0.046000000,0.059000000,0.000000000,0.000000000,-0.001000000
1696857896.205975,983996.000000000,1696857896.203517199,-0.018000000,-0.047000000,0.058000000,0.000000000,0.000000000,-0.001000000
1696857896.208193,983997.000000000,1696857896.205575943,-0.018000000,-0.048000000,0.059000000,0.000000000,0.000000000,-0.001000000
1696857896.210341,983998.000000000,1696857896.207569599,-0.017000000,-0.048000000,0.059000000,0.000000000,0.000000000,-0.001000000
1696857896.213998,984000.000000000,1696857896.211519480,-0.017000000,-0.045000000,0.061000000,0.000000000,0.000000000,-0.001000000
1696857896.216559,984001.000000000,1696857896.213548183,-0.017000000,-0.044000000,0.062000000,0.000000000,0.000000000,-0.001000000
1696857896.218329,984002.000000000,1696857896.215571165,-0.016000000,-0.042000000,0.062000000,0.000000000,0.000000000,-0.001000000
1696857896.234233,984010.000000000,1696857896.231629133,-0.014000000,-0.042000000,0.058000000,0.000000000,0.000000000,-0.001000000
1696857896.235031,984011.000000000,1696857896.233539104,-0.014000000,-0.040000000,0.059000000,0.000000000,0.000000000,-0.001000000
1696857896.238621,984012.000000000,1696857896.235525131,-0.014000000,-0.038000000,0.059000000,0.000000000,0.000000000,-0.001000000
1696857896.240097,984013.000000000,1696857896.237535000,-0.014000000,-0.036000000,0.058000000,0.000000000,0.000000000,-0.001000000
1696857896.245035,984015.000000000,1696857896.241525412,-0.014000000,-0.033000000,0.054000000,0.000000000,0.000000000,-0.001000000
1696857896.245339,984016.000000000,1696857896.243565798,-0.014000000,-0.033000000,0.052000000,0.000000000,0.000000000,-0.001000000
1696857896.247366,984017.000000000,1696857896.245810032,-0.014000000,-0.033000000,0.049000000,0.000000000,0.000000000,-0.001000000
1696857896.249237,984018.000000000,1696857896.247527122,-0.014000000,-0.034000000,0.046000000,0.000000000,0.000000000,-0.001000000
1696857896.251094,984019.000000000,1696857896.249585390,-0.013000000,-0.034000000,0.043000000,0.000000000,0.000000000,-0.001000000
1696857896.255615,984020.000000000,1696857896.251526594,-0.013000000,-0.034000000,0.040000000,0.000000000,0.000000000,-0.001000000
1696857896.256119,984021.000000000,1696857896.253629684,-0.014000000,-0.033000000,0.038000000,0.000000000,0.000000000,-0.001000000
1696857896.258146,984022.000000000,1696857896.255518436,-0.014000000,-0.031000000,0.034000000,0.000000000,0.000000000,-0.001000000
1696857896.259071,984023.000000000,1696857896.257545710,-0.014000000,-0.028000000,0.032000000,0.000000000,0.000000000,0.000000000
1696857896.263910,984025.000000000,1696857896.261531115,-0.016000000,-0.024000000,0.026000000,0.000000000,0.000000000,0.000000000
1696857896.278168,984032.000000000,1696857896.275525331,-0.019000000,-0.024000000,-0.003000000,0.000000000,0.000000000,0.000000000
1696857896.280025,984033.000000000,1696857896.277520895,-0.019000000,-0.022000000,-0.007000000,0.000000000,0.000000000,0.000000000
1696857896.281927,984034.000000000,1696857896.279554844,-0.020000000,-0.020000000,-0.009000000,0.000000000,0.000000000,0.000000000
1696857896.287548,984036.000000000,1696857896.283498526,-0.022000000,-0.016000000,-0.015000000,0.000000000,0.000000000,0.000000000
1696857896.287711,984037.000000000,1696857896.285570145,-0.023000000,-0.015000000,-0.019000000,0.000000000,0.000000000,0.000000000
1696857896.289906,984038.000000000,1696857896.287563562,-0.024000000,-0.015000000,-0.022000000,0.000000000,0.000000000,0.000000000
1696857896.292397,984039.000000000,1696857896.289600611,-0.025000000,-0.016000000,-0.025000000,0.000000000,0.000000000,0.000000000
1696857896.295727,984041.000000000,1696857896.293576479,-0.026000000,-0.019000000,-0.030000000,0.000000000,0.000000000,0.000000000
1696857896.297090,984042.000000000,1696857896.295529366,-0.026000000,-0.020000000,-0.033000000,0.000000000,0.000000000,0.000000000
1696857896.299170,984043.000000000,1696857896.297550440,-0.026000000,-0.020000000,-0.035000000,0.000000000,0.000000000,0.000000000
1696857896.303739,984045.000000000,1696857896.301546335,-0.028000000,-0.019000000,-0.035000000,0.000000000,0.000000000,0.000000000
1696857896.306931,984046.000000000,1696857896.303514957,-0.029000000,-0.018000000,-0.034000000,0.000000000,0.000000000,0.000000000
1696857896.325826,984056.000000000,1696857896.323513746,-0.032000000,-0.025000000,-0.014000000,0.000000000,0.000000000,0.000000000
1696857896.343990,984065.000000000,1696857896.341542006,-0.031000000,-0.031000000,0.024000000,0.000000000,0.000000000,0.000000000
1696857896.360402,984073.000000000,1696857896.357520342,-0.030000000,-0.029000000,0.056000000,0.000000000,0.000000000,-0.001000000
1696857896.361900,984074.000000000,1696857896.359543562,-0.029000000,-0.031000000,0.057000000,0.000000000,0.000000000,-0.001000000
1696857896.376903,984081.000000000,1696857896.373540163,-0.026000000,-0.032000000,0.069000000,0.000000000,0.000000000,-0.001000000
1696857896.382593,984083.000000000,1696857896.377554178,-0.026000000,-0.031000000,0.071000000,0.000000000,0.000000000,-0.001000000
1696857896.382978,984084.000000000,1696857896.379536629,-0.025000000,-0.032000000,0.070000000,0.000000000,0.000000000,-0.001000000
1696857896.393256,984089.000000000,1696857896.389687061,-0.023000000,-0.039000000,0.066000000,0.000000000,0.000000000,-0.001000000
1696857896.393775,984090.000000000,1696857896.391588449,-0.022000000,-0.040000000,0.065000000,0.000000000,0.000000000,-0.001000000
1696857896.396957,984091.000000000,1696857896.393513203,-0.022000000,-0.039000000,0.063000000,0.000000000,0.000000000,-0.001000000
1696857896.397228,984092.000000000,1696857896.395521879,-0.023000000,-0.038000000,0.064000000,0.000000000,0.000000000,-0.001000000
1696857896.399537,984093.000000000,1696857896.397564173,-0.023000000,-0.037000000,0.066000000,0.000000000,0.000000000,-0.001000000
1696857896.405642,984096.000000000,1696857896.403532743,-0.022000000,-0.038000000,0.062000000,0.000000000,0.000000000,-0.001000000
1696857896.407766,984097.000000000,1696857896.405538797,-0.022000000,-0.041000000,0.061000000,0.000000000,0.000000000,-0.001000000
1696857896.427852,984107.000000000,1696857896.425529957,-0.020000000,-0.041000000,0.058000000,0.000000000,0.000000000,-0.001000000
1696857896.429253,984108.000000000,1696857896.427655220,-0.020000000,-0.042000000,0.058000000,0.000000000,0.000000000,-0.001000000
1696857896.431076,984109.000000000,1696857896.429534674,-0.019000000,-0.044000000,0.056000000,0.000000000,0.000000000,-0.001000000
1696857896.437152,984111.000000000,1696857896.433530569,-0.019000000,-0.046000000,0.057000000,0.000000000,0.000000000,-0.001000000
1696857896.439289,984112.000000000,1696857896.435516357,-0.018000000,-0.045000000,0.056000000,0.000000000,0.000000000,-0.001000000
1696857896.439460,984113.000000000,1696857896.437528610,-0.018000000,-0.045000000,0.058000000,0.000000000,0.000000000,-0.001000000
1696857896.442872,984114.000000000,1696857896.439675093,-0.018000000,-0.043000000,0.058000000,0.000000000,0.000000000,-0.001000000
1696857896.443148,984115.000000000,1696857896.441561937,-0.018000000,-0.041000000,0.059000000,0.000000000,0.000000000,-0.001000000
1696857896.445915,984116.000000000,1696857896.443526745,-0.018000000,-0.039000000,0.061000000,0.000000000,0.000000000,-0.001000000
1696857896.448384,984117.000000000,1696857896.445566654,-0.019000000,-0.038000000,0.061000000,0.000000000,0.000000000,-0.001000000
1696857896.450368,984118.000000000,1696857896.447585821,-0.018000000,-0.038000000,0.061000000,0.000000000,0.000000000,-0.001000000
1696857896.467472,984126.000000000,1696857896.463569641,-0.016000000,-0.037000000,0.065000000,0.000000000,0.000000000,-0.001000000
1696857896.477776,984132.000000000,1696857896.475528955,-0.016000000,-0.035000000,0.069000000,0.000000000,0.000000000,-0.001000000
1696857896.493372,984138.000000000,1696857896.487562418,-0.016000000,-0.031000000,0.072000000,0.000000000,0.000000000,-0.001000000
1696857896.511602,984149.000000000,1696857896.509538651,-0.019000000,-0.031000000,0.071000000,0.000000000,0.000000000,-0.001000000
1696857896.527677,984155.000000000,1696857896.521878719,-0.022000000,-0.032000000,0.066000000,0.000000000,0.000000000,-0.001000000
1696857896.527901,984156.000000000,1696857896.523833513,-0.022000000,-0.033000000,0.067000000,0.000000000,0.000000000,-0.001000000
1696857896.527907,984157.000000000,1696857896.525532007,-0.022000000,-0.034000000,0.064000000,0.000000000,0.000000000,-0.001000000
1696857896.529487,984158.000000000,1696857896.527563334,-0.023000000,-0.034000000,0.062000000,0.000000000,0.000000000,-0.001000000
1696857896.531311,984159.000000000,1696857896.529592514,-0.023000000,-0.032000000,0.061000000,0.000000000,0.000000000,-0.001000000
1696857896.534595,984160.000000000,1696857896.531539917,-0.024000000,-0.031000000,0.061000000,0.000000000,0.000000000,-0.001000000
1696857896.535182,984161.000000000,1696857896.533563375,-0.025000000,-0.028000000,0.060000000,0.000000000,0.000000000,-0.001000000
1696857896.538851,984162.000000000,1696857896.535552502,-0.026000000,-0.027000000,0.059000000,0.000000000,0.000000000,-0.001000000
1696857896.539330,984163.000000000,1696857896.537539244,-0.026000000,-0.026000000,0.057000000,0.000000000,0.000000000,-0.001000000
1696857896.541276,984164.000000000,1696857896.539534807,-0.026000000,-0.027000000,0.054000000,0.000000000,0.000000000,-0.001000000
1696857896.544832,984165.000000000,1696857896.541586161,-0.027000000,-0.027000000,0.052000000,0.000000000,0.000000000,-0.001000000
1696857896.545126,984166.000000000,1696857896.543549776,-0.026000000,-0.028000000,0.048000000,0.000000000,0.000000000,-0.001000000
1696857896.547078,984167.000000000,1696857896.545550585,-0.027000000,-0.029000000,0.045000000,0.000000000,0.000000000,-0.001000000
1696857896.549059,984168.000000000,1696857896.547523260,-0.027000000,-0.029000000,0.042000000,0.000000000,0.000000000,-0.001000000
1696857896.551138,984169.000000000,1696857896.549557447,-0.027000000,-0.029000000,0.039000000,0.000000000,0.000000000,-0.001000000
1696857896.554616,984170.000000000,1696857896.551596403,-0.027000000,-0.027000000,0.036000000,0.000000000,0.000000000,0.000000000
1696857896.580443,984183.000000000,1696857896.577533484,-0.026000000,-0.012000000,-0.021000000,0.000000000,0.000000000,0.000000000
1696857896.581603,984184.000000000,1696857896.579570293,-0.025000000,-0.010000000,-0.026000000,0.000000000,0.000000000,0.000000000
1696857896.584583,984185.000000000,1696857896.581630945,-0.025000000,-0.008000000,-0.030000000,0.000000000,0.000000000,0.000000000
1696857896.585638,984186.000000000,1696857896.583544016,-0.025000000,-0.007000000,-0.034000000,0.000000000,0.000000000,0.000000000
1696857896.587026,984187.000000000,1696857896.585524082,-0.025000000,-0.007000000,-0.039000000,0.000000000,0.000000000,0.000000000
1696857896.589027,984188.000000000,1696857896.587526321,-0.024000000,-0.007000000,-0.043000000,0.000000000,0.000000000,0.000000000
1696857896.591295,984189.000000000,1696857896.589684963,-0.024000000,-0.008000000,-0.047000000,0.000000000,0.000000000,0.000000000
1696857896.593054,984190.000000000,1696857896.591548681,-0.023000000,-0.009000000,-0.051000000,0.000000000,0.000000000,0.001000000
1696857896.595191,984191.000000000,1696857896.593534946,-0.023000000,-0.010000000,-0.055000000,0.000000000,0.000000000,0.001000000
1696857896.602680,984193.000000000,1696857896.597541094,-0.022000000,-0.008000000,-0.058000000,0.000000000,0.000000000,0.001000000
1696857896.633803,984210.000000000,1696857896.631549835,-0.024000000,-0.014000000,-0.025000000,0.000000000,0.000000000,0.000000000
1696857896.644964,984215.000000000,1696857896.641573668,-0.024000000,-0.023000000,-0.002000000,0.000000000,0.000000000,0.000000000
1696857896.659765,984223.000000000,1696857896.657547951,-0.026000000,-0.027000000,0.032000000,0.000000000,0.000000000,0.000000000
1696857896.661126,984224.000000000,1696857896.659568787,-0.026000000,-0.028000000,0.036000000,0.000000000,0.000000000,0.000000000
1696857896.663122,984225.000000000,1696857896.661589146,-0.026000000,-0.029000000,0.038000000,0.000000000,0.000000000,0.000000000
1696857896.665214,984226.000000000,1696857896.663553238,-0.025000000,-0.030000000,0.041000000,0.000000000,0.000000000,-0.001000000
1696857896.667077,984227.000000000,1696857896.665546179,-0.025000000,-0.029000000,0.044000000,0.000000000,0.000000000,-0.001000000
1696857896.669102,984228.000000000,1696857896.667526245,-0.025000000,-0.029000000,0.047000000,0.000000000,0.000000000,-0.001000000
1696857896.671992,984229.000000000,1696857896.669569016,-0.026000000,-0.027000000,0.051000000,0.000000000,0.000000000,-0.001000000
1696857896.673143,984230.000000000,1696857896.671558857,-0.026000000,-0.025000000,0.053000000,0.000000000,0.000000000,-0.001000000
1696857896.675281,984231.000000000,1696857896.673579931,-0.026000000,-0.025000000,0.055000000,0.000000000,0.000000000,-0.001000000
1696857896.677082,984232.000000000,1696857896.675529957,-0.026000000,-0.024000000,0.057000000,0.000000000,0.000000000,-0.001000000
1696857896.679297,984233.000000000,1696857896.677633762,-0.025000000,-0.025000000,0.057000000,0.000000000,0.000000000,-0.001000000
1696857896.681348,984234.000000000,1696857896.679611683,-0.025000000,-0.026000000,0.058000000,0.000000000,0.000000000,-0.001000000
1696857896.683178,984235.000000000,1696857896.681607246,-0.024000000,-0.028000000,0.058000000,0.000000000,0.000000000,-0.001000000
1696857896.685185,984236.000000000,1696857896.683582306,-0.024000000,-0.029000000,0.059000000,0.000000000,0.000000000,-0.001000000
1696857896.689894,984238.000000000,1696857896.687557697,-0.023000000,-0.029000000,0.059000000,0.000000000,0.000000000,-0.001000000
1696857896.715241,984251.000000000,1696857896.713541985,-0.021000000,-0.024000000,0.064000000,0.000000000,0.000000000,-0.001000000
1696857896.717058,984252.000000000,1696857896.715555906,-0.021000000,-0.022000000,0.065000000,0.000000000,0.000000000,-0.001000000
1696857896.722436,984253.000000000,1696857896.717555046,-0.021000000,-0.021000000,0.064000000,0.000000000,0.000000000,-0.001000000
1696857896.722672,984254.000000000,1696857896.719562769,-0.021000000,-0.020000000,0.064000000,0.000000000,0.000000000,-0.001000000
1696857896.723909,984255.000000000,1696857896.721582651,-0.021000000,-0.021000000,0.064000000,0.000000000,0.000000000,-0.001000000
1696857896.726499,984256.000000000,1696857896.723579407,-0.021000000,-0.021000000,0.062000000,0.000000000,0.000000000,-0.001000000
1696857896.728064,984257.000000000,1696857896.725597858,-0.020000000,-0.023000000,0.061000000,0.000000000,0.000000000,-0.001000000
1696857896.729616,984258.000000000,1696857896.727686167,-0.020000000,-0.025000000,0.060000000,0.000000000,0.000000000,-0.001000000
1696857896.731310,984259.000000000,1696857896.729533672,-0.020000000,-0.025000000,0.059000000,0.000000000,0.000000000,-0.001000000
1696857896.752953,984269.000000000,1696857896.749601364,-0.019000000,-0.024000000,0.048000000,0.000000000,0.000000000,-0.001000000
1696857896.754029,984270.000000000,1696857896.751575947,-0.019000000,-0.025000000,0.046000000,0.000000000,0.000000000,-0.001000000
1696857896.759945,984273.000000000,1696857896.757546902,-0.018000000,-0.025000000,0.042000000,0.000000000,0.000000000,-0.001000000
1696857896.761375,984274.000000000,1696857896.759577751,-0.019000000,-0.023000000,0.042000000,0.000000000,0.000000000,-0.001000000
1696857896.764454,984275.000000000,1696857896.761545658,-0.019000000,-0.021000000,0.042000000,0.000000000,0.000000000,-0.001000000
1696857896.765070,984276.000000000,1696857896.763542891,-0.019000000,-0.020000000,0.042000000,0.000000000,0.000000000,-0.001000000
1696857896.767767,984277.000000000,1696857896.765695810,-0.019000000,-0.019000000,0.040000000,0.000000000,0.000000000,0.000000000
1696857896.769358,984278.000000000,1696857896.767716646,-0.019000000,-0.019000000,0.039000000,0.000000000,0.000000000,0.000000000
1696857896.771191,984279.000000000,1696857896.769568443,-0.019000000,-0.021000000,0.038000000,0.000000000,0.000000000,0.000000000
1696857896.777460,984280.000000000,1696857896.771583796,-0.018000000,-0.022000000,0.037000000,0.000000000,0.000000000,0.000000000
1696857896.791333,984288.000000000,1696857896.787552357,-0.018000000,-0.018000000,0.037000000,0.000000000,0.000000000,0.000000000
1696857896.791999,984289.000000000,1696857896.789587021,-0.017000000,-0.018000000,0.038000000,0.000000000,0.000000000,0.000000000
1696857896.794593,984290.000000000,1696857896.791584253,-0.017000000,-0.019000000,0.038000000,0.000000000,0.000000000,0.000000000
1696857896.795118,984291.000000000,1696857896.793576479,-0.017000000,-0.021000000,0.038000000,0.000000000,0.000000000,0.000000000
1696857896.798998,984292.000000000,1696857896.795566797,-0.016000000,-0.022000000,0.038000000,0.000000000,0.000000000,0.000000000
1696857896.799126,984293.000000000,1696857896.797556639,-0.016000000,-0.023000000,0.037000000,0.000000000,0.000000000,0.000000000
1696857896.801588,984294.000000000,1696857896.799578190,-0.015000000,-0.024000000,0.038000000,0.000000000,0.000000000,0.000000000
1696857896.803125,984295.000000000,1696857896.801541328,-0.015000000,-0.024000000,0.040000000,0.000000000,0.000000000,0.000000000
1696857896.805603,984296.000000000,1696857896.803539038,-0.015000000,-0.023000000,0.041000000,0.000000000,0.000000000,0.000000000
1696857896.810686,984298.000000000,1696857896.807568312,-0.015000000,-0.021000000,0.044000000,0.000000000,0.000000000,0.000000000
1696857896.811119,984299.000000000,1696857896.809557438,-0.015000000,-0.019000000,0.046000000,0.000000000,0.000000000,-0.001000000
1696857896.813061,984300.000000000,1696857896.811528683,-0.015000000,-0.019000000,0.047000000,0.000000000,0.000000000,-0.001000000
1696857896.815353,984301.000000000,1696857896.813593626,-0.015000000,-0.020000000,0.047000000,0.000000000,0.000000000,-0.001000000
1696857896.817158,984302.000000000,1696857896.815594435,-0.014000000,-0.021000000,0.047000000,0.000000000,0.000000000,-0.001000000
1696857896.821356,984303.000000000,1696857896.817573309,-0.014000000,-0.023000000,0.049000000,0.000000000,0.000000000,-0.001000000
1696857896.841095,984313.000000000,1696857896.837593555,-0.014000000,-0.019000000,0.053000000,0.000000000,0.000000000,-0.001000000
1696857896.844551,984315.000000000,1696857896.841564417,-0.015000000,-0.021000000,0.051000000,0.000000000,0.000000000,-0.001000000
1696857896.845074,984316.000000000,1696857896.843582153,-0.015000000,-0.021000000,0.048000000,0.000000000,0.000000000,-0.001000000
1696857896.847052,984317.000000000,1696857896.845562696,-0.015000000,-0.021000000,0.047000000,0.000000000,0.000000000,-0.001000000
1696857896.849057,984318.000000000,1696857896.847562551,-0.015000000,-0.019000000,0.045000000,0.000000000,0.000000000,-0.001000000
1696857896.851099,984319.000000000,1696857896.849543333,-0.016000000,-0.017000000,0.045000000,0.000000000,0.000000000,-0.001000000
1696857896.855518,984321.000000000,1696857896.853610992,-0.017000000,-0.012000000,0.041000000,0.000000000,0.000000000,-0.001000000
1696857896.858773,984322.000000000,1696857896.856286049,-0.019000000,-0.010000000,0.039000000,0.000000000,0.000000000,-0.001000000
1696857896.859616,984323.000000000,1696857896.857535124,-0.019000000,-0.009000000,0.035000000,0.000000000,0.000000000,0.000000000
1696857896.862455,984324.000000000,1696857896.859590769,-0.020000000,-0.008000000,0.032000000,0.000000000,0.000000000,0.000000000
1696857896.864506,984325.000000000,1696857896.861560106,-0.021000000,-0.008000000,0.028000000,0.000000000,0.000000000,0.000000000
1696857896.881717,984334.000000000,1696857896.879574060,-0.027000000,0.005000000,-0.006000000,0.000000000,0.000000000,0.000000000
1696857896.883129,984335.000000000,1696857896.881584167,-0.027000000,0.006000000,-0.010000000,0.000000000,0.000000000,0.000000000
1696857896.893270,984340.000000000,1696857896.891541243,-0.027000000,0.005000000,-0.032000000,0.000000000,0.000000000,0.000000000
1696857896.895178,984341.000000000,1696857896.893559217,-0.027000000,0.006000000,-0.034000000,0.000000000,0.000000000,0.000000000
1696857896.897061,984342.000000000,1696857896.895554066,-0.027000000,0.008000000,-0.036000000,0.000000000,0.000000000,0.000000000
1696857896.899103,984343.000000000,1696857896.897554636,-0.027000000,0.010000000,-0.038000000,0.000000000,0.000000000,0.000000000
1696857896.903755,984344.000000000,1696857896.899561405,-0.028000000,0.011000000,-0.040000000,0.000000000,0.000000000,0.000000000
1696857896.904127,984345.000000000,1696857896.901564360,-0.028000000,0.012000000,-0.041000000,0.000000000,0.000000000,0.000000000
1696857896.907454,984346.000000000,1696857896.903593063,-0.027000000,0.012000000,-0.042000000,0.000000000,0.000000000,0.000000000
1696857896.908464,984347.000000000,1696857896.905551434,-0.027000000,0.011000000,-0.043000000,0.000000000,0.000000000,0.000000000
1696857896.926043,984355.000000000,1696857896.921602249,-0.021000000,0.005000000,-0.036000000,0.000000000,0.000000000,0.000000000
1696857896.926604,984356.000000000,1696857896.923545837,-0.021000000,0.005000000,-0.033000000,0.000000000,0.000000000,0.000000000
1696857896.927142,984357.000000000,1696857896.925607443,-0.020000000,0.004000000,-0.030000000,0.000000000,0.000000000,0.000000000
1696857896.933762,984358.000000000,1696857896.927558422,-0.019000000,0.003000000,-0.026000000,0.000000000,0.000000000,0.000000000
1696857896.933769,984359.000000000,1696857896.929560661,-0.018000000,0.001000000,-0.024000000,0.000000000,0.000000000,0.000000000
1696857896.933820,984360.000000000,1696857896.931541443,-0.017000000,-0.001000000,-0.021000000,0.000000000,0.000000000,0.000000000
1696857896.936186,984361.000000000,1696857896.933567524,-0.016000000,-0.003000000,-0.018000000,0.000000000,0.000000000,0.000000000
1696857896.939126,984362.000000000,1696857896.935545683,-0.015000000,-0.005000000,-0.015000000,0.000000000,0.000000000,0.000000000
1696857896.939326,984363.000000000,1696857896.937552214,-0.014000000,-0.006000000,-0.011000000,0.000000000,0.000000000,0.000000000
1696857896.941198,984364.000000000,1696857896.939560890,-0.013000000,-0.007000000,-0.005000000,0.000000000,0.000000000,0.000000000
1696857896.945885,984366.000000000,1696857896.943629026,-0.012000000,-0.006000000,0.003000000,0.000000000,0.000000000,0.000000000
1696857896.949838,984367.000000000,1696857896.945549250,-0.012000000,-0.005000000,0.008000000,0.000000000,0.000000000,0.000000000
1696857896.950210,984368.000000000,1696857896.947602510,-0.011000000,-0.005000000,0.012000000,0.000000000,0.000000000,0.000000000
1696857896.951191,984369.000000000,1696857896.949562788,-0.011000000,-0.006000000,0.016000000,0.000000000,0.000000000,0.000000000
1696857896.956474,984370.000000000,1696857896.951571941,-0.010000000,-0.008000000,0.019000000,0.000000000,0.000000000,0.000000000
1696857896.956491,984371.000000000,1696857896.953575373,-0.009000000,-0.010000000,0.022000000,0.000000000,0.000000000,0.000000000
1696857896.957059,984372.000000000,1696857896.955542803,-0.009000000,-0.012000000,0.025000000,0.000000000,0.000000000,0.000000000
1696857896.959866,984373.000000000,1696857896.957588911,-0.008000000,-0.014000000,0.028000000,0.000000000,0.000000000,0.000000000
1696857896.962156,984374.000000000,1696857896.959560633,-0.007000000,-0.015000000,0.031000000,0.000000000,0.000000000,-0.001000000
1696857896.965036,984375.000000000,1696857896.961558342,-0.007000000,-0.015000000,0.034000000,0.000000000,0.000000000,-0.001000000
1696857896.965603,984376.000000000,1696857896.963553190,-0.007000000,-0.015000000,0.037000000,0.000000000,0.000000000,-0.001000000
1696857896.969002,984377.000000000,1696857896.965572596,-0.007000000,-0.014000000,0.040000000,0.000000000,0.000000000,-0.001000000
1696857896.969563,984378.000000000,1696857896.967561007,-0.007000000,-0.012000000,0.042000000,0.000000000,0.000000000,-0.001000000
1696857896.971073,984379.000000000,1696857896.969584703,-0.007000000,-0.012000000,0.044000000,0.000000000,0.000000000,-0.001000000
1696857896.975666,984381.000000000,1696857896.973592281,-0.008000000,-0.013000000,0.046000000,0.000000000,0.000000000,-0.001000000
1696857896.978782,984382.000000000,1696857896.975557804,-0.008000000,-0.014000000,0.047000000,0.000000000,0.000000000,-0.001000000
1696857896.981290,984383.000000000,1696857896.977555037,-0.008000000,-0.016000000,0.047000000,0.000000000,0.000000000,-0.001000000
1696857896.981971,984384.000000000,1696857896.979578018,-0.008000000,-0.018000000,0.047000000,0.000000000,0.000000000,-0.001000000
1696857896.983201,984385.000000000,1696857896.981580257,-0.008000000,-0.019000000,0.047000000,0.000000000,0.000000000,-0.001000000
1696857896.985065,984386.000000000,1696857896.983574629,-0.008000000,-0.019000000,0.047000000,0.000000000,0.000000000,-0.001000000
1696857896.987801,984387.000000000,1696857896.985719442,-0.008000000,-0.018000000,0.048000000,0.000000000,0.000000000,-0.001000000
1696857896.989321,984388.000000000,1696857896.987767220,-0.008000000,-0.017000000,0.048000000,0.000000000,0.000000000,-0.001000000
1696857896.992727,984389.000000000,1696857896.989586830,-0.009000000,-0.016000000,0.049000000,0.000000000,0.000000000,-0.001000000
1696857896.993109,984390.000000000,1696857896.991616964,-0.009000000,-0.015000000,0.049000000,0.000000000,0.000000000,-0.001000000
1696857896.994984,984391.000000000,1696857896.993484974,-0.010000000,-0.014000000,0.048000000,0.000000000,0.000000000,-0.001000000
1696857896.997089,984392.000000000,1696857896.995541334,-0.010000000,-0.015000000,0.047000000,0.000000000,0.000000000,-0.001000000
1696857896.999025,984393.000000000,1696857896.997520685,-0.011000000,-0.016000000,0.047000000,0.000000000,0.000000000,-0.001000000
1696857897.001442,984394.000000000,1696857896.999562025,-0.011000000,-0.018000000,0.046000000,0.000000000,0.000000000,-0.001000000
1696857897.003008,984395.000000000,1696857897.001507044,-0.011000000,-0.020000000,0.044000000,0.000000000,0.000000000,-0.001000000
1696857897.004989,984396.000000000,1696857897.003507137,-0.011000000,-0.021000000,0.043000000,0.000000000,0.000000000,-0.001000000
1696857897.012217,984397.000000000,1696857897.005576611,-0.011000000,-0.021000000,0.044000000,0.000000000,0.000000000,-0.001000000
1696857897.012267,984399.000000000,1696857897.009557009,-0.011000000,-0.020000000,0.043000000,0.000000000,0.000000000,-0.001000000
1696857897.013512,984400.000000000,1696857897.011572361,-0.012000000,-0.018000000,0.044000000,0.000000000,0.000000000,-0.001000000
1696857897.015673,984401.000000000,1696857897.013599634,-0.012000000,-0.017000000,0.044000000,0.000000000,0.000000000,-0.001000000
1696857897.017368,984402.000000000,1696857897.015583992,-0.012000000,-0.017000000,0.044000000,0.000000000,0.000000000,-0.001000000
1696857897.019869,984403.000000000,1696857897.017541885,-0.013000000,-0.017000000,0.043000000,0.000000000,0.000000000,-0.001000000
1696857897.021048,984404.000000000,1696857897.019573212,-0.013000000,-0.018000000,0.044000000,0.000000000,0.000000000,-0.001000000
1696857897.028601,984405.000000000,1696857897.021684408,-0.013000000,-0.019000000,0.042000000,0.000000000,0.000000000,-0.001000000
1696857897.028655,984407.000000000,1696857897.025569677,-0.012000000,-0.022000000,0.042000000,0.000000000,0.000000000,-0.001000000
1696857897.029011,984408.000000000,1696857897.027526855,-0.013000000,-0.022000000,0.042000000,0.000000000,0.000000000,-0.001000000
1696857897.031855,984409.000000000,1696857897.029593706,-0.012000000,-0.023000000,0.042000000,0.000000000,0.000000000,-0.001000000
1696857897.033110,984410.000000000,1696857897.031552076,-0.013000000,-0.022000000,0.044000000,0.000000000,0.000000000,-0.001000000
1696857897.037749,984412.000000000,1696857897.035649776,-0.013000000,-0.019000000,0.045000000,0.000000000,0.000000000,-0.001000000
1696857897.039417,984413.000000000,1696857897.037572145,-0.013000000,-0.018000000,0.047000000,0.000000000,0.000000000,-0.001000000
1696857897.042158,984414.000000000,1696857897.039578438,-0.014000000,-0.017000000,0.048000000,0.000000000,0.000000000,-0.001000000
1696857897.043090,984415.000000000,1696857897.041565895,-0.014000000,-0.017000000,0.049000000,0.000000000,0.000000000,-0.001000000
1696857897.049504,984416.000000000,1696857897.043558598,-0.014000000,-0.018000000,0.049000000,0.000000000,0.000000000,-0.001000000
1696857897.049680,984417.000000000,1696857897.045580149,-0.014000000,-0.020000000,0.051000000,0.000000000,0.000000000,-0.001000000
1696857897.049841,984418.000000000,1696857897.047613621,-0.014000000,-0.021000000,0.050000000,0.000000000,0.000000000,-0.001000000
1696857897.051409,984419.000000000,1696857897.049584150,-0.014000000,-0.022000000,0.050000000,0.000000000,0.000000000,-0.001000000
1696857897.054649,984420.000000000,1696857897.051552534,-0.014000000,-0.022000000,0.051000000,0.000000000,0.000000000,-0.001000000
1696857897.055072,984421.000000000,1696857897.053571224,-0.014000000,-0.021000000,0.054000000,0.000000000,0.000000000,-0.001000000
1696857897.057207,984422.000000000,1696857897.055577278,-0.014000000,-0.020000000,0.055000000,0.000000000,0.000000000,-0.001000000
1696857897.062325,984423.000000000,1696857897.057663202,-0.015000000,-0.018000000,0.057000000,0.000000000,0.000000000,-0.001000000
1696857897.062445,984424.000000000,1696857897.059569597,-0.015000000,-0.017000000,0.058000000,0.000000000,0.000000000,-0.001000000
1696857897.065263,984425.000000000,1696857897.061583757,-0.016000000,-0.016000000,0.059000000,0.000000000,0.000000000,-0.001000000
1696857897.065325,984426.000000000,1696857897.063564539,-0.016000000,-0.017000000,0.061000000,0.000000000,0.000000000,-0.001000000
1696857897.068788,984427.000000000,1696857897.065594435,-0.017000000,-0.017000000,0.063000000,0.000000000,0.000000000,-0.002000000
1696857897.069135,984428.000000000,1696857897.067556381,-0.016000000,-0.019000000,0.063000000,0.000000000,0.000000000,-0.001000000
1696857897.073956,984429.000000000,1696857897.069564581,-0.016000000,-0.021000000,0.063000000,0.000000000,0.000000000,-0.002000000
1696857897.074021,984430.000000000,1696857897.071767807,-0.016000000,-0.021000000,0.064000000,0.000000000,0.000000000,-0.002000000
1696857897.076750,984431.000000000,1696857897.073579311,-0.016000000,-0.022000000,0.065000000,0.000000000,0.000000000,-0.002000000
1696857897.077609,984432.000000000,1696857897.075556040,-0.017000000,-0.022000000,0.066000000,0.000000000,0.000000000,-0.002000000
1696857897.081998,984433.000000000,1696857897.077567816,-0.017000000,-0.021000000,0.068000000,0.000000000,0.000000000,-0.002000000
1696857897.082225,984434.000000000,1696857897.079621553,-0.017000000,-0.020000000,0.069000000,0.000000000,0.000000000,-0.002000000
1696857897.083070,984435.000000000,1696857897.081576109,-0.018000000,-0.018000000,0.071000000,0.000000000,0.000000000,-0.002000000
1696857897.086088,984436.000000000,1696857897.083564758,-0.018000000,-0.018000000,0.072000000,0.000000000,0.000000000,-0.002000000
1696857897.087229,984437.000000000,1696857897.085596561,-0.018000000,-0.018000000,0.073000000,0.000000000,0.000000000,-0.002000000
1696857897.089086,984438.000000000,1696857897.087591171,-0.018000000,-0.019000000,0.073000000,0.000000000,0.000000000,-0.002000000
1696857897.092122,984439.000000000,1696857897.089591742,-0.018000000,-0.020000000,0.073000000,0.000000000,0.000000000,-0.002000000
1696857897.093043,984440.000000000,1696857897.091562033,-0.018000000,-0.022000000,0.073000000,0.000000000,0.000000000,-0.002000000
1696857897.096648,984441.000000000,1696857897.093715191,-0.017000000,-0.024000000,0.072000000,0.000000000,0.000000000,-0.002000000
1696857897.097300,984442.000000000,1696857897.095582724,-0.017000000,-0.025000000,0.072000000,0.000000000,0.000000000,-0.002000000
1696857897.099109,984443.000000000,1696857897.097606421,-0.017000000,-0.026000000,0.072000000,0.000000000,0.000000000,-0.002000000
1696857897.101243,984444.000000000,1696857897.099527359,-0.016000000,-0.025000000,0.071000000,0.000000000,0.000000000,-0.002000000
1696857897.103293,984445.000000000,1696857897.101608992,-0.016000000,-0.024000000,0.072000000,0.000000000,0.000000000,-0.002000000
1696857897.107452,984447.000000000,1696857897.105556011,-0.016000000,-0.023000000,0.072000000,0.000000000,0.000000000,-0.001000000
1696857897.109930,984448.000000000,1696857897.107549429,-0.015000000,-0.023000000,0.071000000,0.000000000,0.000000000,-0.001000000
1696857897.113899,984449.000000000,1696857897.109570503,-0.015000000,-0.023000000,0.070000000,0.000000000,0.000000000,-0.001000000
1696857897.113958,984450.000000000,1696857897.111575127,-0.014000000,-0.025000000,0.068000000,0.000000000,0.000000000,-0.001000000
1696857897.115121,984451.000000000,1696857897.113557100,-0.014000000,-0.027000000,0.066000000,0.000000000,0.000000000,-0.001000000
1696857897.117240,984452.000000000,1696857897.115586758,-0.013000000,-0.029000000,0.064000000,0.000000000,0.000000000,-0.001000000
1696857897.124578,984453.000000000,1696857897.117568493,-0.012000000,-0.031000000,0.061000000,0.000000000,0.000000000,-0.001000000
1696857897.125015,984454.000000000,1696857897.119574308,-0.011000000,-0.031000000,0.060000000,0.000000000,0.000000000,-0.001000000
1696857897.125018,984455.000000000,1696857897.121714354,-0.011000000,-0.031000000,0.059000000,0.000000000,0.000000000,-0.001000000
1696857897.125222,984456.000000000,1696857897.123624563,-0.010000000,-0.031000000,0.058000000,0.000000000,0.000000000,-0.001000000
1696857897.127053,984457.000000000,1696857897.125569582,-0.010000000,-0.029000000,0.056000000,0.000000000,0.000000000,-0.001000000
1696857897.129077,984458.000000000,1696857897.127582550,-0.009000000,-0.028000000,0.054000000,0.000000000,0.000000000,-0.001000000
1696857897.132369,984459.000000000,1696857897.129624844,-0.009000000,-0.028000000,0.052000000,0.000000000,0.000000000,-0.001000000
1696857897.133138,984460.000000000,1696857897.131578445,-0.009000000,-0.028000000,0.050000000,0.000000000,0.000000000,-0.001000000
1696857897.136941,984461.000000000,1696857897.133584023,-0.008000000,-0.029000000,0.046000000,0.000000000,0.000000000,-0.001000000
1696857897.137120,984462.000000000,1696857897.135612965,-0.007000000,-0.030000000,0.042000000,0.000000000,0.000000000,-0.001000000
1696857897.139320,984463.000000000,1696857897.137613535,-0.007000000,-0.032000000,0.039000000,0.000000000,0.000000000,-0.001000000
1696857897.141360,984464.000000000,1696857897.139599800,-0.006000000,-0.032000000,0.036000000,0.000000000,0.000000000,0.000000000
1696857897.143108,984465.000000000,1696857897.141584635,-0.005000000,-0.033000000,0.032000000,0.000000000,0.000000000,0.000000000
1696857897.145089,984466.000000000,1696857897.143574476,-0.005000000,-0.032000000,0.029000000,0.000000000,0.000000000,0.000000000
1696857897.147176,984467.000000000,1696857897.145639420,-0.005000000,-0.030000000,0.027000000,0.000000000,0.000000000,0.000000000
1696857897.149137,984468.000000000,1696857897.147561073,-0.004000000,-0.028000000,0.024000000,0.000000000,0.000000000,0.000000000
1696857897.153883,984469.000000000,1696857897.149582624,-0.004000000,-0.026000000,0.021000000,0.000000000,0.000000000,0.000000000
1696857897.153946,984470.000000000,1696857897.151591778,-0.004000000,-0.024000000,0.017000000,0.000000000,0.000000000,0.000000000
1696857897.156739,984471.000000000,1696857897.153543711,-0.004000000,-0.022000000,0.014000000,0.000000000,0.000000000,0.000000000
1696857897.157086,984472.000000000,1696857897.155545235,-0.003000000,-0.021000000,0.010000000,0.000000000,0.000000000,0.000000000
1696857897.161765,984473.000000000,1696857897.157581329,-0.003000000,-0.021000000,0.006000000,0.000000000,0.000000000,0.000000000
1696857897.162016,984474.000000000,1696857897.159674883,-0.003000000,-0.021000000,0.001000000,0.000000000,0.000000000,0.000000000
1696857897.165147,984475.000000000,1696857897.162456989,-0.002000000,-0.021000000,-0.003000000,0.000000000,0.000000000,0.000000000
1696857897.165288,984476.000000000,1696857897.163553953,-0.002000000,-0.020000000,-0.008000000,0.000000000,0.000000000,0.000000000
1696857897.167707,984477.000000000,1696857897.165583134,-0.002000000,-0.019000000,-0.012000000,0.000000000,0.000000000,0.000000000
1696857897.169520,984478.000000000,1696857897.167609692,-0.001000000,-0.017000000,-0.015000000,0.000000000,0.000000000,0.000000000
1696857897.172903,984479.000000000,1696857897.169560909,-0.001000000,-0.013000000,-0.018000000,0.000000000,0.000000000,0.000000000
1696857897.173059,984480.000000000,1696857897.171561718,-0.001000000,-0.010000000,-0.022000000,0.000000000,0.000000000,0.000000000
1696857897.175119,984481.000000000,1696857897.173581839,-0.002000000,-0.007000000,-0.026000000,0.000000000,0.000000000,0.000000000
1696857897.177150,984482.000000000,1696857897.175545931,-0.002000000,-0.004000000,-0.029000000,0.000000000,0.000000000,0.000000000
1696857897.181968,984483.000000000,1696857897.177545309,-0.002000000,-0.002000000,-0.033000000,0.000000000,0.000000000,0.000000000
1696857897.182128,984484.000000000,1696857897.179579973,-0.002000000,-0.001000000,-0.037000000,0.000000000,0.000000000,0.000000000
1696857897.184265,984485.000000000,1696857897.181595802,-0.002000000,-0.001000000,-0.041000000,0.000000000,0.000000000,0.000000000
1696857897.185110,984486.000000000,1696857897.183576345,-0.002000000,0.000000000,-0.045000000,0.000000000,0.000000000,0.000000000
1696857897.187082,984487.000000000,1696857897.185555220,-0.002000000,0.000000000,-0.049000000,0.000000000,0.000000000,0.000000000
1696857897.189078,984488.000000000,1696857897.187554359,-0.002000000,0.001000000,-0.052000000,0.000000000,0.000000000,0.000000000
1696857897.191310,984489.000000000,1696857897.189619780,-0.002000000,0.002000000,-0.054000000,0.000000000,0.000000000,0.000000000
1696857897.193075,984490.000000000,1696857897.191571236,-0.003000000,0.005000000,-0.056000000,0.000000000,0.000000000,0.000000000
1696857897.195067,984491.000000000,1696857897.193565845,-0.003000000,0.008000000,-0.057000000,0.000000000,0.000000000,0.000000000
1696857897.198641,984492.000000000,1696857897.195571661,-0.003000000,0.010000000,-0.058000000,0.000000000,0.000000000,0.001000000
1696857897.199087,984493.000000000,1696857897.197584152,-0.004000000,0.013000000,-0.060000000,0.000000000,0.000000000,0.001000000
1696857897.201517,984494.000000000,1696857897.199600220,-0.005000000,0.014000000,-0.061000000,0.000000000,0.000000000,0.001000000
1696857897.203086,984495.000000000,1696857897.201586246,-0.005000000,0.013000000,-0.062000000,0.000000000,0.000000000,0.001000000
1696857897.205187,984496.000000000,1696857897.203653574,-0.005000000,0.012000000,-0.063000000,0.000000000,0.000000000,0.001000000
1696857897.207119,984497.000000000,1696857897.205581427,-0.006000000,0.011000000,-0.064000000,0.000000000,0.000000000,0.001000000
1696857897.209142,984498.000000000,1696857897.207566500,-0.006000000,0.010000000,-0.064000000,0.000000000,0.000000000,0.001000000
1696857897.212095,984499.000000000,1696857897.209572554,-0.006000000,0.009000000,-0.065000000,0.000000000,0.000000000,0.001000000
1696857897.213072,984500.000000000,1696857897.211577654,-0.006000000,0.009000000,-0.062000000,0.000000000,0.000000000,0.001000000
1696857897.215096,984501.000000000,1696857897.213580608,-0.007000000,0.009000000,-0.062000000,0.000000000,0.000000000,0.001000000
1696857897.217193,984502.000000000,1696857897.215610743,-0.008000000,0.010000000,-0.059000000,0.000000000,0.000000000,0.000000000
1696857897.219060,984503.000000000,1696857897.217558861,-0.008000000,0.011000000,-0.057000000,0.000000000,0.000000000,0.000000000
1696857897.221127,984504.000000000,1696857897.219581127,-0.009000000,0.011000000,-0.054000000,0.000000000,0.000000000,0.000000000
1696857897.223190,984505.000000000,1696857897.221593857,-0.010000000,0.010000000,-0.051000000,0.000000000,0.000000000,0.000000000
1696857897.225575,984506.000000000,1696857897.223582506,-0.010000000,0.009000000,-0.049000000,0.000000000,0.000000000,0.000000000
1696857897.227242,984507.000000000,1696857897.225583792,-0.011000000,0.006000000,-0.046000000,0.000000000,0.000000000,0.000000000
1696857897.229086,984508.000000000,1696857897.227563620,-0.011000000,0.003000000,-0.044000000,0.000000000,0.000000000,0.000000000
1696857897.231243,984509.000000000,1696857897.229590178,-0.011000000,0.000000000,-0.041000000,0.000000000,0.000000000,0.000000000
1696857897.233122,984510.000000000,1696857897.231575251,-0.011000000,-0.002000000,-0.038000000,0.000000000,0.000000000,0.000000000
1696857897.236287,984511.000000000,1696857897.233609915,-0.011000000,-0.004000000,-0.035000000,0.000000000,0.000000000,0.000000000
1696857897.237059,984512.000000000,1696857897.235548735,-0.011000000,-0.005000000,-0.030000000,0.000000000,0.000000000,0.000000000
1696857897.239620,984513.000000000,1696857897.237607718,-0.012000000,-0.006000000,-0.026000000,0.000000000,0.000000000,0.000000000
1696857897.241385,984514.000000000,1696857897.239604473,-0.012000000,-0.006000000,-0.021000000,0.000000000,0.000000000,0.000000000
1696857897.243062,984515.000000000,1696857897.241579771,-0.012000000,-0.006000000,-0.017000000,0.000000000,0.000000000,0.000000000
1696857897.245039,984516.000000000,1696857897.243566751,-0.013000000,-0.007000000,-0.013000000,0.000000000,0.000000000,0.000000000
1696857897.247325,984517.000000000,1696857897.245859385,-0.013000000,-0.008000000,-0.008000000,0.000000000,0.000000000,0.000000000
1696857897.249044,984518.000000000,1696857897.247563124,-0.013000000,-0.011000000,-0.005000000,0.000000000,0.000000000,0.000000000
1696857897.253672,984520.000000000,1696857897.251536846,-0.013000000,-0.017000000,0.000000000,0.000000000,0.000000000,0.000000000
1696857897.256117,984521.000000000,1696857897.253564119,-0.012000000,-0.019000000,0.003000000,0.000000000,0.000000000,0.000000000
1696857897.259161,984522.000000000,1696857897.255608320,-0.012000000,-0.021000000,0.005000000,0.000000000,0.000000000,0.000000000
1696857897.259861,984523.000000000,1696857897.257559299,-0.012000000,-0.022000000,0.009000000,0.000000000,0.000000000,0.000000000
1696857897.261857,984524.000000000,1696857897.259573460,-0.011000000,-0.022000000,0.013000000,0.000000000,0.000000000,0.000000000
1696857897.264911,984525.000000000,1696857897.261552572,-0.011000000,-0.022000000,0.017000000,0.000000000,0.000000000,0.000000000
1696857897.265609,984526.000000000,1696857897.263579845,-0.012000000,-0.021000000,0.021000000,0.000000000,0.000000000,0.000000000
1696857897.268164,984527.000000000,1696857897.265565395,-0.012000000,-0.020000000,0.024000000,0.000000000,0.000000000,0.000000000
1696857897.271491,984529.000000000,1696857897.269566298,-0.012000000,-0.021000000,0.028000000,0.000000000,0.000000000,-0.001000000
1696857897.273199,984530.000000000,1696857897.271570683,-0.012000000,-0.023000000,0.031000000,0.000000000,0.000000000,-0.001000000
1696857897.275084,984531.000000000,1696857897.273594618,-0.011000000,-0.024000000,0.031000000,0.000000000,0.000000000,-0.001000000
1696857897.277168,984532.000000000,1696857897.275550127,-0.011000000,-0.026000000,0.032000000,0.000000000,0.000000000,-0.001000000
1696857897.279076,984533.000000000,1696857897.277586937,-0.011000000,-0.027000000,0.034000000,0.000000000,0.000000000,-0.001000000
1696857897.282967,984534.000000000,1696857897.279593468,-0.011000000,-0.027000000,0.034000000,0.000000000,0.000000000,-0.001000000
1696857897.283295,984535.000000000,1696857897.281595707,-0.011000000,-0.026000000,0.036000000,0.000000000,0.000000000,-0.001000000
1696857897.285056,984536.000000000,1696857897.283563852,-0.011000000,-0.025000000,0.038000000,0.000000000,0.000000000,-0.001000000
1696857897.287721,984537.000000000,1696857897.285643339,-0.012000000,-0.023000000,0.040000000,0.000000000,0.000000000,-0.001000000
1696857897.289285,984538.000000000,1696857897.287596703,-0.012000000,-0.021000000,0.042000000,0.000000000,0.000000000,-0.001000000
1696857897.294397,984540.000000000,1696857897.291567087,-0.013000000,-0.020000000,0.043000000,0.000000000,0.000000000,-0.001000000
1696857897.295353,984541.000000000,1696857897.293605089,-0.014000000,-0.020000000,0.043000000,0.000000000,0.000000000,-0.001000000
1696857897.298808,984542.000000000,1696857897.295577288,-0.014000000,-0.021000000,0.043000000,0.000000000,0.000000000,-0.001000000
1696857897.299170,984543.000000000,1696857897.297565460,-0.014000000,-0.023000000,0.043000000,0.000000000,0.000000000,-0.001000000
1696857897.301188,984544.000000000,1696857897.299619675,-0.015000000,-0.023000000,0.043000000,0.000000000,0.000000000,-0.001000000
1696857897.303318,984545.000000000,1696857897.301638603,-0.015000000,-0.024000000,0.042000000,0.000000000,0.000000000,-0.001000000
1696857897.306312,984546.000000000,1696857897.303595304,-0.015000000,-0.023000000,0.043000000,0.000000000,0.000000000,-0.001000000
1696857897.309647,984547.000000000,1696857897.305595636,-0.016000000,-0.022000000,0.044000000,0.000000000,0.000000000,-0.001000000
1696857897.309945,984548.000000000,1696857897.307573080,-0.017000000,-0.020000000,0.044000000,0.000000000,0.000000000,-0.001000000
1696857897.316628,984550.000000000,1696857897.311598063,-0.019000000,-0.017000000,0.046000000,0.000000000,0.000000000,-0.001000000
1696857897.316645,984551.000000000,1696857897.313580990,-0.020000000,-0.017000000,0.046000000,0.000000000,0.000000000,-0.001000000
1696857897.318782,984552.000000000,1696857897.315578461,-0.020000000,-0.018000000,0.045000000,0.000000000,0.000000000,-0.001000000
1696857897.319452,984553.000000000,1696857897.317561865,-0.021000000,-0.019000000,0.045000000,0.000000000,0.000000000,-0.001000000
1696857897.322876,984554.000000000,1696857897.319576740,-0.022000000,-0.020000000,0.045000000,0.000000000,0.000000000,-0.001000000
1696857897.323211,984555.000000000,1696857897.321589231,-0.022000000,-0.022000000,0.043000000,0.000000000,0.000000000,-0.001000000
1696857897.325291,984556.000000000,1696857897.323593378,-0.023000000,-0.023000000,0.044000000,0.000000000,0.000000000,-0.001000000
1696857897.330343,984557.000000000,1696857897.325583220,-0.024000000,-0.024000000,0.044000000,0.000000000,0.000000000,-0.001000000
1696857897.333351,984558.000000000,1696857897.327592611,-0.024000000,-0.023000000,0.043000000,0.000000000,0.000000000,-0.001000000
1696857897.333452,984559.000000000,1696857897.329586506,-0.025000000,-0.022000000,0.045000000,0.000000000,0.000000000,-0.001000000
1696857897.333956,984560.000000000,1696857897.331571817,-0.026000000,-0.021000000,0.046000000,0.000000000,0.000000000,-0.001000000
1696857897.336636,984561.000000000,1696857897.333629370,-0.027000000,-0.020000000,0.046000000,0.000000000,0.000000000,-0.001000000
1696857897.337266,984562.000000000,1696857897.335609436,-0.027000000,-0.020000000,0.046000000,0.000000000,0.000000000,-0.001000000
1696857897.340472,984563.000000000,1696857897.337574720,-0.028000000,-0.021000000,0.046000000,0.000000000,0.000000000,-0.001000000
1696857897.341866,984564.000000000,1696857897.339684725,-0.028000000,-0.023000000,0.045000000,0.000000000,0.000000000,-0.001000000
1696857897.343200,984565.000000000,1696857897.341595888,-0.029000000,-0.025000000,0.045000000,0.000000000,0.000000000,-0.001000000
1696857897.348787,984567.000000000,1696857897.345608234,-0.029000000,-0.029000000,0.043000000,0.000000000,0.000000000,-0.001000000
1696857897.349448,984568.000000000,1696857897.347605228,-0.029000000,-0.030000000,0.043000000,0.000000000,0.000000000,-0.001000000
1696857897.351531,984569.000000000,1696857897.349594355,-0.029000000,-0.031000000,0.043000000,0.000000000,0.000000000,-0.001000000
1696857897.354265,984570.000000000,1696857897.351585627,-0.029000000,-0.030000000,0.044000000,0.000000000,0.000000000,-0.001000000
1696857897.355170,984571.000000000,1696857897.353576422,-0.030000000,-0.030000000,0.044000000,0.000000000,0.000000000,-0.001000000
1696857897.357768,984572.000000000,1696857897.355595589,-0.030000000,-0.029000000,0.045000000,0.000000000,0.000000000,-0.001000000
1696857897.360658,984573.000000000,1696857897.357582808,-0.030000000,-0.029000000,0.045000000,0.000000000,0.000000000,-0.001000000
1696857897.362504,984574.000000000,1696857897.359561920,-0.031000000,-0.029000000,0.046000000,0.000000000,0.000000000,-0.001000000
1696857897.366353,984575.000000000,1696857897.361536026,-0.031000000,-0.031000000,0.045000000,0.000000000,0.000000000,-0.001000000
1696857897.366392,984576.000000000,1696857897.363605976,-0.030000000,-0.033000000,0.043000000,0.000000000,0.000000000,-0.001000000
1696857897.367253,984577.000000000,1696857897.365625620,-0.030000000,-0.035000000,0.044000000,0.000000000,0.000000000,-0.001000000
1696857897.371610,984578.000000000,1696857897.367558241,-0.030000000,-0.037000000,0.042000000,0.000000000,0.000000000,-0.001000000
1696857897.371812,984579.000000000,1696857897.369585752,-0.029000000,-0.039000000,0.043000000,0.000000000,0.000000000,-0.001000000
1696857897.373321,984580.000000000,1696857897.371594191,-0.029000000,-0.039000000,0.044000000,0.000000000,0.000000000,-0.001000000
1696857897.375176,984581.000000000,1696857897.373626947,-0.029000000,-0.039000000,0.043000000,0.000000000,0.000000000,-0.001000000
1696857897.377196,984582.000000000,1696857897.375582457,-0.029000000,-0.038000000,0.044000000,0.000000000,0.000000000,-0.001000000
1696857897.382258,984583.000000000,1696857897.377576113,-0.029000000,-0.036000000,0.045000000,0.000000000,0.000000000,-0.001000000
1696857897.382404,984584.000000000,1696857897.379602432,-0.029000000,-0.035000000,0.045000000,0.000000000,0.000000000,-0.001000000
1696857897.386890,984585.000000000,1696857897.381602764,-0.028000000,-0.035000000,0.045000000,0.000000000,0.000000000,-0.001000000
1696857897.386976,984586.000000000,1696857897.383576870,-0.029000000,-0.035000000,0.046000000,0.000000000,0.000000000,-0.001000000
1696857897.387579,984587.000000000,1696857897.385572195,-0.028000000,-0.036000000,0.045000000,0.000000000,0.000000000,-0.001000000
1696857897.390579,984588.000000000,1696857897.387627840,-0.027000000,-0.038000000,0.044000000,0.000000000,0.000000000,-0.001000000
1696857897.391720,984589.000000000,1696857897.389750481,-0.027000000,-0.039000000,0.044000000,0.000000000,0.000000000,-0.001000000
1696857897.393312,984590.000000000,1696857897.391576767,-0.026000000,-0.040000000,0.044000000,0.000000000,0.000000000,-0.001000000
1696857897.395287,984591.000000000,1696857897.393568516,-0.025000000,-0.040000000,0.043000000,0.000000000,0.000000000,-0.001000000
1696857897.397147,984592.000000000,1696857897.395578384,-0.025000000,-0.039000000,0.042000000,0.000000000,0.000000000,-0.001000000
1696857897.401375,984593.000000000,1696857897.397595882,-0.025000000,-0.037000000,0.045000000,0.000000000,0.000000000,-0.001000000
1696857897.402400,984594.000000000,1696857897.399595499,-0.025000000,-0.035000000,0.046000000,0.000000000,0.000000000,-0.001000000
1696857897.404779,984595.000000000,1696857897.401577234,-0.025000000,-0.033000000,0.047000000,0.000000000,0.000000000,-0.001000000
1696857897.405214,984596.000000000,1696857897.403575182,-0.024000000,-0.031000000,0.047000000,0.000000000,0.000000000,-0.001000000
1696857897.408875,984597.000000000,1696857897.405596495,-0.024000000,-0.031000000,0.047000000,0.000000000,0.000000000,-0.001000000
1696857897.409536,984598.000000000,1696857897.407594919,-0.024000000,-0.031000000,0.047000000,0.000000000,0.000000000,-0.001000000
1696857897.411266,984599.000000000,1696857897.409611225,-0.023000000,-0.031000000,0.047000000,0.000000000,0.000000000,-0.001000000
1696857897.413809,984600.000000000,1696857897.411567688,-0.023000000,-0.032000000,0.047000000,0.000000000,0.000000000,-0.001000000
1696857897.415312,984601.000000000,1696857897.413594484,-0.022000000,-0.032000000,0.047000000,0.000000000,0.000000000,-0.001000000
1696857897.417253,984602.000000000,1696857897.415598869,-0.022000000,-0.032000000,0.047000000,0.000000000,0.000000000,-0.001000000
1696857897.419260,984603.000000000,1696857897.417571068,-0.022000000,-0.031000000,0.048000000,0.000000000,0.000000000,-0.001000000
1696857897.421433,984604.000000000,1696857897.419569492,-0.021000000,-0.029000000,0.049000000,0.000000000,0.000000000,-0.001000000
1696857897.424388,984605.000000000,1696857897.421621084,-0.021000000,-0.027000000,0.050000000,0.000000000,0.000000000,-0.001000000
1696857897.429924,984607.000000000,1696857897.425597906,-0.022000000,-0.022000000,0.052000000,0.000000000,0.000000000,-0.001000000
1696857897.430378,984608.000000000,1696857897.427588463,-0.021000000,-0.021000000,0.050000000,0.000000000,0.000000000,-0.001000000
1696857897.431890,984609.000000000,1696857897.429596424,-0.021000000,-0.022000000,0.052000000,0.000000000,0.000000000,-0.001000000
1696857897.433995,984610.000000000,1696857897.432250023,-0.022000000,-0.022000000,0.054000000,0.000000000,0.000000000,-0.001000000
1696857897.435275,984611.000000000,1696857897.433581114,-0.022000000,-0.023000000,0.051000000,0.000000000,0.000000000,-0.001000000
1696857897.439997,984612.000000000,1696857897.435598373,-0.021000000,-0.024000000,0.051000000,0.000000000,0.000000000,-0.001000000
1696857897.440787,984613.000000000,1696857897.437607050,-0.021000000,-0.024000000,0.050000000,0.000000000,0.000000000,-0.001000000
1696857897.443270,984614.000000000,1696857897.439729929,-0.021000000,-0.024000000,0.050000000,0.000000000,0.000000000,-0.001000000
1696857897.443633,984615.000000000,1696857897.441580057,-0.021000000,-0.023000000,0.049000000,0.000000000,0.000000000,-0.001000000
1696857897.447958,984617.000000000,1696857897.445635319,-0.022000000,-0.019000000,0.049000000,0.000000000,0.000000000,-0.001000000
1696857897.450747,984618.000000000,1696857897.447569847,-0.022000000,-0.017000000,0.048000000,0.000000000,0.000000000,-0.001000000
1696857897.451345,984619.000000000,1696857897.449599743,-0.022000000,-0.016000000,0.046000000,0.000000000,0.000000000,-0.001000000
1696857897.454019,984620.000000000,1696857897.451742887,-0.023000000,-0.016000000,0.044000000,0.000000000,0.000000000,-0.001000000
1696857897.456539,984621.000000000,1696857897.453660488,-0.023000000,-0.016000000,0.041000000,0.000000000,0.000000000,-0.001000000
1696857897.457548,984622.000000000,1696857897.455578327,-0.023000000,-0.017000000,0.038000000,0.000000000,0.000000000,-0.001000000
1696857897.460019,984623.000000000,1696857897.457626104,-0.023000000,-0.018000000,0.034000000,0.000000000,0.000000000,-0.001000000
1696857897.464971,984625.000000000,1696857897.461597443,-0.023000000,-0.019000000,0.026000000,0.000000000,0.000000000,0.000000000
1696857897.465661,984626.000000000,1696857897.463564634,-0.023000000,-0.018000000,0.023000000,0.000000000,0.000000000,0.000000000
1696857897.467421,984627.000000000,1696857897.465611935,-0.023000000,-0.017000000,0.019000000,0.000000000,0.000000000,0.000000000
