__time,/kms40_driver/wrench/header/seq,/kms40_driver/wrench/header/stamp,/kms40_driver/wrench/wrench/force/x,/kms40_driver/wrench/wrench/force/y,/kms40_driver/wrench/wrench/force/z,/kms40_driver/wrench/wrench/torque/x,/kms40_driver/wrench/wrench/torque/y,/kms40_driver/wrench/wrench/torque/z
1696857357.448833,722361.000000000,1696857357.447252989,-0.068000000,-0.050000000,-0.100000000,0.000000000,0.000000000,0.003000000
1696857357.450811,722362.000000000,1696857357.449231386,-0.068000000,-0.052000000,-0.098000000,0.000000000,0.000000000,0.003000000
1696857357.452666,722363.000000000,1696857357.451276541,-0.067000000,-0.055000000,-0.098000000,0.001000000,0.000000000,0.003000000
1696857357.454630,722364.000000000,1696857357.453235865,-0.066000000,-0.058000000,-0.096000000,0.001000000,0.000000000,0.003000000
1696857357.456591,722365.000000000,1696857357.455226183,-0.066000000,-0.061000000,-0.094000000,0.001000000,0.000000000,0.003000000
1696857357.458596,722366.000000000,1696857357.457242250,-0.065000000,-0.063000000,-0.091000000,0.001000000,0.000000000,0.003000000
1696857357.460879,722367.000000000,1696857357.459195137,-0.065000000,-0.064000000,-0.089000000,0.001000000,0.000000000,0.003000000
1696857357.462575,722368.000000000,1696857357.461245537,-0.065000000,-0.065000000,-0.084000000,0.001000000,0.000000000,0.003000000
1696857357.474531,722373.000000000,1696857357.471227884,-0.064000000,-0.067000000,-0.064000000,0.000000000,0.000000000,0.002000000
1696857357.496377,722384.000000000,1696857357.493293047,-0.065000000,-0.076000000,-0.020000000,0.000000000,0.000000000,0.002000000
1696857357.510160,722391.000000000,1696857357.507275581,-0.068000000,-0.080000000,-0.001000000,0.000000000,0.000000000,0.001000000
1696857357.510626,722392.000000000,1696857357.509227514,-0.069000000,-0.078000000,0.002000000,0.000000000,0.000000000,0.001000000
1696857357.512573,722393.000000000,1696857357.511222124,-0.070000000,-0.076000000,0.003000000,0.000000000,0.000000000,0.001000000
1696857357.514582,722394.000000000,1696857357.513216257,-0.071000000,-0.074000000,0.006000000,0.000000000,0.000000000,0.001000000
1696857357.516582,722395.000000000,1696857357.515206337,-0.072000000,-0.073000000,0.007000000,0.000000000,0.000000000,0.001000000
1696857357.518649,722396.000000000,1696857357.517295361,-0.072000000,-0.074000000,0.009000000,0.000000000,0.000000000,0.001000000
1696857357.521515,722397.000000000,1696857357.519222260,-0.073000000,-0.075000000,0.009000000,0.000000000,0.000000000,0.001000000
1696857357.522774,722398.000000000,1696857357.521373987,-0.073000000,-0.076000000,0.011000000,0.000000000,0.000000000,0.001000000
1696857357.524868,722399.000000000,1696857357.523206472,-0.073000000,-0.077000000,0.011000000,0.000000000,0.000000000,0.001000000
1696857357.526663,722400.000000000,1696857357.525259972,-0.074000000,-0.077000000,0.010000000,0.000000000,0.000000000,0.001000000
1696857357.528652,722401.000000000,1696857357.527338028,-0.074000000,-0.077000000,0.011000000,0.000000000,0.000000000,0.001000000
1696857357.530582,722402.000000000,1696857357.529268980,-0.074000000,-0.076000000,0.011000000,0.000000000,0.000000000,0.001000000
1696857357.532528,722403.000000000,1696857357.531238794,-0.075000000,-0.074000000,0.013000000,0.000000000,0.000000000,0.001000000
1696857357.534619,722404.000000000,1696857357.533246279,-0.075000000,-0.073000000,0.013000000,0.000000000,0.000000000,0.001000000
1696857357.541014,722407.000000000,1696857357.539237738,-0.075000000,-0.071000000,0.013000000,0.000000000,0.000000000,0.001000000
1696857357.558471,722415.000000000,1696857357.555203676,-0.071000000,-0.076000000,0.009000000,0.000000000,0.000000000,0.001000000
1696857357.558711,722416.000000000,1696857357.557279587,-0.070000000,-0.075000000,0.008000000,0.000000000,0.000000000,0.001000000
1696857357.561129,722417.000000000,1696857357.559223652,-0.070000000,-0.074000000,0.008000000,0.000000000,0.000000000,0.001000000
1696857357.562586,722418.000000000,1696857357.561239481,-0.070000000,-0.074000000,0.006000000,0.000000000,0.000000000,0.001000000
1696857357.564630,722419.000000000,1696857357.563257933,-0.069000000,-0.075000000,0.005000000,0.000000000,0.000000000,0.001000000
1696857357.566942,722420.000000000,1696857357.565273762,-0.068000000,-0.077000000,0.004000000,0.000000000,0.000000000,0.001000000
1696857357.568621,722421.000000000,1696857357.567229509,-0.067000000,-0.079000000,0.003000000,0.000000000,0.000000000,0.001000000
1696857357.570651,722422.000000000,1696857357.569267511,-0.066000000,-0.081000000,0.002000000,0.000000000,0.000000000,0.001000000
1696857357.572578,722423.000000000,1696857357.571223497,-0.065000000,-0.082000000,0.000000000,0.001000000,0.000000000,0.001000000
1696857357.574772,722424.000000000,1696857357.573323727,-0.064000000,-0.082000000,0.000000000,0.001000000,0.000000000,0.001000000
1696857357.579763,722426.000000000,1696857357.577233315,-0.063000000,-0.080000000,0.000000000,0.000000000,0.000000000,0.001000000
1696857357.580981,722427.000000000,1696857357.579262733,-0.063000000,-0.078000000,0.000000000,0.000000000,0.000000000,0.001000000
1696857357.582659,722428.000000000,1696857357.581254482,-0.063000000,-0.077000000,0.000000000,0.000000000,0.000000000,0.001000000
1696857357.592028,722432.000000000,1696857357.589310408,-0.061000000,-0.079000000,-0.001000000,0.001000000,0.000000000,0.001000000
1696857357.592531,722433.000000000,1696857357.591234446,-0.061000000,-0.081000000,-0.003000000,0.001000000,0.000000000,0.001000000
1696857357.594721,722434.000000000,1696857357.593264103,-0.060000000,-0.081000000,-0.002000000,0.001000000,0.000000000,0.001000000
1696857357.596628,722435.000000000,1696857357.595276356,-0.060000000,-0.081000000,-0.003000000,0.001000000,0.000000000,0.001000000
1696857357.598718,722436.000000000,1696857357.597263336,-0.060000000,-0.080000000,-0.002000000,0.001000000,0.000000000,0.001000000
1696857357.600864,722437.000000000,1696857357.599245071,-0.060000000,-0.079000000,-0.001000000,0.001000000,0.000000000,0.001000000
1696857357.602680,722438.000000000,1696857357.601259947,-0.060000000,-0.077000000,-0.001000000,0.001000000,0.000000000,0.001000000
1696857357.604584,722439.000000000,1696857357.603218317,-0.061000000,-0.075000000,0.000000000,0.001000000,0.000000000,0.001000000
1696857357.606745,722440.000000000,1696857357.605276585,-0.061000000,-0.074000000,0.000000000,0.000000000,0.000000000,0.001000000
1696857357.608645,722441.000000000,1696857357.607244492,-0.061000000,-0.073000000,0.000000000,0.000000000,0.000000000,0.001000000
1696857357.610921,722442.000000000,1696857357.609256029,-0.061000000,-0.074000000,0.000000000,0.001000000,0.000000000,0.001000000
1696857357.612667,722443.000000000,1696857357.611263752,-0.061000000,-0.075000000,0.000000000,0.001000000,0.000000000,0.001000000
1696857357.614744,722444.000000000,1696857357.613254547,-0.061000000,-0.076000000,0.000000000,0.001000000,0.000000000,0.001000000
1696857357.616797,722445.000000000,1696857357.615279675,-0.061000000,-0.077000000,-0.001000000,0.001000000,0.000000000,0.001000000
1696857357.618706,722446.000000000,1696857357.617284298,-0.061000000,-0.077000000,-0.001000000,0.001000000,0.000000000,0.001000000
1696857357.621147,722447.000000000,1696857357.619239569,-0.061000000,-0.076000000,0.000000000,0.001000000,0.000000000,0.001000000
1696857357.622699,722448.000000000,1696857357.621262312,-0.062000000,-0.075000000,0.000000000,0.001000000,0.000000000,0.001000000
1696857357.624788,722449.000000000,1696857357.623234510,-0.062000000,-0.073000000,0.001000000,0.001000000,0.000000000,0.001000000
1696857357.643708,722458.000000000,1696857357.641254902,-0.063000000,-0.074000000,0.000000000,0.001000000,0.000000000,0.001000000
1696857357.644601,722459.000000000,1696857357.643226385,-0.063000000,-0.073000000,0.000000000,0.000000000,0.000000000,0.001000000
1696857357.647070,722460.000000000,1696857357.645270824,-0.063000000,-0.071000000,0.000000000,0.000000000,0.000000000,0.001000000
1696857357.648612,722461.000000000,1696857357.647248268,-0.063000000,-0.069000000,0.000000000,0.000000000,0.000000000,0.001000000
1696857357.650841,722462.000000000,1696857357.649246216,-0.064000000,-0.068000000,0.001000000,0.000000000,0.000000000,0.001000000
1696857357.652543,722463.000000000,1696857357.651238203,-0.064000000,-0.067000000,0.000000000,0.000000000,0.000000000,0.001000000
1696857357.654583,722464.000000000,1696857357.653262854,-0.064000000,-0.067000000,0.000000000,0.000000000,0.000000000,0.001000000
1696857357.656545,722465.000000000,1696857357.655224085,-0.064000000,-0.068000000,-0.002000000,0.000000000,0.000000000,0.001000000
1696857357.658664,722466.000000000,1696857357.657311440,-0.064000000,-0.070000000,-0.003000000,0.000000000,0.000000000,0.001000000
1696857357.661273,722467.000000000,1696857357.659258842,-0.063000000,-0.071000000,-0.005000000,0.000000000,0.000000000,0.001000000
1696857357.662933,722468.000000000,1696857357.661299229,-0.063000000,-0.072000000,-0.006000000,0.000000000,0.000000000,0.001000000
1696857357.664629,722469.000000000,1696857357.663244486,-0.063000000,-0.073000000,-0.009000000,0.000000000,0.000000000,0.001000000
1696857357.666759,722470.000000000,1696857357.665404320,-0.063000000,-0.072000000,-0.010000000,0.000000000,0.000000000,0.001000000
1696857357.680345,722476.000000000,1696857357.677260399,-0.064000000,-0.066000000,-0.024000000,0.000000000,0.000000000,0.001000000
1696857357.681163,722477.000000000,1696857357.679244518,-0.064000000,-0.066000000,-0.027000000,0.000000000,0.000000000,0.001000000
1696857357.691881,722482.000000000,1696857357.689276934,-0.065000000,-0.067000000,-0.049000000,0.000000000,0.000000000,0.002000000
1696857357.693083,722483.000000000,1696857357.691770077,-0.066000000,-0.064000000,-0.052000000,0.000000000,0.000000000,0.002000000
1696857357.694918,722484.000000000,1696857357.693553209,-0.066000000,-0.062000000,-0.058000000,0.000000000,0.000000000,0.002000000
1696857357.708673,722491.000000000,1696857357.707262039,-0.069000000,-0.062000000,-0.095000000,0.001000000,0.000000000,0.003000000
1696857357.726519,722499.000000000,1696857357.723243475,-0.072000000,-0.055000000,-0.129000000,0.000000000,0.000000000,0.004000000
1696857357.742009,722507.000000000,1696857357.739275217,-0.072000000,-0.058000000,-0.139000000,0.000000000,0.000000000,0.004000000
1696857357.743001,722508.000000000,1696857357.741282225,-0.072000000,-0.057000000,-0.138000000,0.000000000,0.000000000,0.004000000
1696857357.744631,722509.000000000,1696857357.743234634,-0.072000000,-0.057000000,-0.135000000,0.000000000,0.000000000,0.004000000
1696857357.746609,722510.000000000,1696857357.745241642,-0.072000000,-0.059000000,-0.134000000,0.000000000,0.000000000,0.004000000
1696857357.748569,722511.000000000,1696857357.747253180,-0.072000000,-0.061000000,-0.132000000,0.000000000,0.000000000,0.004000000
1696857357.750705,722512.000000000,1696857357.749325275,-0.071000000,-0.063000000,-0.130000000,0.000000000,0.000000000,0.004000000
1696857357.758924,722515.000000000,1696857357.755262613,-0.071000000,-0.069000000,-0.118000000,0.001000000,0.000000000,0.003000000
1696857357.759715,722516.000000000,1696857357.757271528,-0.071000000,-0.069000000,-0.113000000,0.001000000,0.000000000,0.003000000
1696857357.761240,722517.000000000,1696857357.759266376,-0.071000000,-0.068000000,-0.107000000,0.000000000,0.000000000,0.003000000
1696857357.762663,722518.000000000,1696857357.761242151,-0.071000000,-0.067000000,-0.100000000,0.000000000,0.000000000,0.003000000
1696857357.764645,722519.000000000,1696857357.763230324,-0.071000000,-0.067000000,-0.095000000,0.000000000,0.000000000,0.003000000
1696857357.766733,722520.000000000,1696857357.765272856,-0.071000000,-0.067000000,-0.089000000,0.000000000,0.000000000,0.003000000
1696857357.778013,722525.000000000,1696857357.775234222,-0.070000000,-0.076000000,-0.059000000,0.000000000,0.000000000,0.002000000
1696857357.784992,722529.000000000,1696857357.783329010,-0.070000000,-0.075000000,-0.034000000,0.000000000,0.000000000,0.002000000
1696857357.786633,722530.000000000,1696857357.785270691,-0.071000000,-0.074000000,-0.028000000,0.000000000,0.000000000,0.001000000
1696857357.788583,722531.000000000,1696857357.787249565,-0.071000000,-0.073000000,-0.022000000,0.000000000,0.000000000,0.001000000
1696857357.790871,722532.000000000,1696857357.789263248,-0.071000000,-0.073000000,-0.017000000,0.000000000,0.000000000,0.001000000
1696857357.792849,722533.000000000,1696857357.791268349,-0.072000000,-0.075000000,-0.012000000,0.000000000,0.000000000,0.001000000
1696857357.794667,722534.000000000,1696857357.793374062,-0.072000000,-0.076000000,-0.007000000,0.000000000,0.000000000,0.001000000
1696857357.796549,722535.000000000,1696857357.795248747,-0.072000000,-0.078000000,-0.004000000,0.000000000,0.000000000,0.001000000
1696857357.798578,722536.000000000,1696857357.797261000,-0.071000000,-0.079000000,0.000000000,0.000000000,0.000000000,0.001000000
1696857357.800773,722537.000000000,1696857357.799268961,-0.072000000,-0.080000000,0.003000000,0.000000000,0.000000000,0.001000000
1696857357.802548,722538.000000000,1696857357.801249027,-0.071000000,-0.080000000,0.005000000,0.000000000,0.000000000,0.001000000
1696857357.804519,722539.000000000,1696857357.803232670,-0.072000000,-0.079000000,0.009000000,0.000000000,0.000000000,0.001000000
1696857357.806588,722540.000000000,1696857357.805272102,-0.072000000,-0.078000000,0.013000000,0.000000000,0.000000000,0.001000000
1696857357.808587,722541.000000000,1696857357.807253838,-0.072000000,-0.076000000,0.016000000,0.000000000,0.000000000,0.001000000
1696857357.810592,722542.000000000,1696857357.809249640,-0.073000000,-0.075000000,0.020000000,0.000000000,0.000000000,0.000000000
1696857357.812530,722543.000000000,1696857357.811229229,-0.073000000,-0.075000000,0.022000000,0.000000000,0.000000000,0.000000000
1696857357.814615,722544.000000000,1696857357.813274384,-0.073000000,-0.075000000,0.023000000,0.000000000,0.000000000,0.000000000
1696857357.816620,722545.000000000,1696857357.815295458,-0.073000000,-0.076000000,0.024000000,0.000000000,0.000000000,0.000000000
1696857357.818584,722546.000000000,1696857357.817259312,-0.073000000,-0.078000000,0.026000000,0.000000000,0.000000000,0.000000000
1696857357.838275,722555.000000000,1696857357.835252762,-0.073000000,-0.077000000,0.027000000,0.000000000,0.000000000,0.000000000
1696857357.838738,722556.000000000,1696857357.837203741,-0.073000000,-0.078000000,0.026000000,0.000000000,0.000000000,0.000000000
1696857357.841822,722557.000000000,1696857357.839193344,-0.073000000,-0.080000000,0.025000000,0.000000000,0.000000000,0.000000000
1696857357.842590,722558.000000000,1696857357.841246367,-0.073000000,-0.082000000,0.022000000,0.000000000,0.000000000,0.000000000
1696857357.844480,722559.000000000,1696857357.843198061,-0.072000000,-0.084000000,0.021000000,0.000000000,0.000000000,0.000000000
1696857357.846647,722560.000000000,1696857357.845200777,-0.072000000,-0.085000000,0.019000000,0.000000000,0.000000000,0.000000000
1696857357.848555,722561.000000000,1696857357.847239971,-0.072000000,-0.085000000,0.019000000,0.000000000,0.000000000,0.000000000
1696857357.851135,722562.000000000,1696857357.849270105,-0.072000000,-0.085000000,0.017000000,0.000000000,0.000000000,0.000000000
1696857357.852601,722563.000000000,1696857357.851290941,-0.072000000,-0.084000000,0.017000000,0.000000000,0.000000000,0.000000000
1696857357.854698,722564.000000000,1696857357.853274584,-0.071000000,-0.082000000,0.015000000,0.000000000,0.000000000,0.000000000
1696857357.856590,722565.000000000,1696857357.855242014,-0.072000000,-0.081000000,0.014000000,0.000000000,0.000000000,0.000000000
1696857357.858597,722566.000000000,1696857357.857260227,-0.072000000,-0.081000000,0.012000000,0.000000000,0.000000000,0.000000000
1696857357.861376,722567.000000000,1696857357.859285355,-0.072000000,-0.082000000,0.011000000,0.000000000,0.000000000,0.000000000
1696857357.872763,722573.000000000,1696857357.871231794,-0.070000000,-0.088000000,-0.001000000,0.001000000,0.000000000,0.001000000
1696857357.874606,722574.000000000,1696857357.873234272,-0.069000000,-0.087000000,-0.002000000,0.001000000,0.000000000,0.001000000
1696857357.876607,722575.000000000,1696857357.875231266,-0.070000000,-0.085000000,-0.002000000,0.000000000,0.000000000,0.001000000
1696857357.878661,722576.000000000,1696857357.877271891,-0.070000000,-0.084000000,-0.004000000,0.000000000,0.000000000,0.001000000
1696857357.881027,722577.000000000,1696857357.879396439,-0.070000000,-0.083000000,-0.005000000,0.000000000,0.000000000,0.001000000
1696857357.883589,722578.000000000,1696857357.881445885,-0.070000000,-0.083000000,-0.007000000,0.000000000,0.000000000,0.001000000
1696857357.885083,722579.000000000,1696857357.883412123,-0.069000000,-0.084000000,-0.009000000,0.000000000,0.000000000,0.001000000
1696857357.886708,722580.000000000,1696857357.885286808,-0.069000000,-0.085000000,-0.010000000,0.001000000,0.000000000,0.001000000
1696857357.888633,722581.000000000,1696857357.887243032,-0.069000000,-0.087000000,-0.012000000,0.001000000,0.000000000,0.001000000
1696857357.890695,722582.000000000,1696857357.889264107,-0.068000000,-0.088000000,-0.014000000,0.001000000,0.000000000,0.001000000
1696857357.892676,722583.000000000,1696857357.891265869,-0.068000000,-0.089000000,-0.015000000,0.001000000,0.000000000,0.001000000
1696857357.894698,722584.000000000,1696857357.893276930,-0.068000000,-0.088000000,-0.016000000,0.001000000,0.000000000,0.001000000
1696857357.896686,722585.000000000,1696857357.895262003,-0.068000000,-0.086000000,-0.016000000,0.001000000,0.000000000,0.001000000
1696857357.898659,722586.000000000,1696857357.897271156,-0.068000000,-0.084000000,-0.015000000,0.001000000,0.000000000,0.001000000
1696857357.900872,722587.000000000,1696857357.899302959,-0.068000000,-0.083000000,-0.017000000,0.000000000,0.000000000,0.001000000
1696857357.902711,722588.000000000,1696857357.901289225,-0.068000000,-0.081000000,-0.016000000,0.000000000,0.000000000,0.001000000
1696857357.908738,722591.000000000,1696857357.907251596,-0.067000000,-0.082000000,-0.020000000,0.000000000,0.000000000,0.001000000
1696857357.925255,722599.000000000,1696857357.923269987,-0.066000000,-0.079000000,-0.021000000,0.000000000,0.000000000,0.001000000
1696857357.926655,722600.000000000,1696857357.925329924,-0.067000000,-0.078000000,-0.020000000,0.000000000,0.000000000,0.001000000
1696857357.928604,722601.000000000,1696857357.927246094,-0.067000000,-0.078000000,-0.022000000,0.000000000,0.000000000,0.001000000
1696857357.930589,722602.000000000,1696857357.929280043,-0.067000000,-0.079000000,-0.021000000,0.000000000,0.000000000,0.001000000
1696857357.932639,722603.000000000,1696857357.931242943,-0.066000000,-0.081000000,-0.021000000,0.000000000,0.000000000,0.001000000
1696857357.934888,722604.000000000,1696857357.933407784,-0.066000000,-0.083000000,-0.023000000,0.000000000,0.000000000,0.001000000
1696857357.936622,722605.000000000,1696857357.935300350,-0.066000000,-0.084000000,-0.022000000,0.001000000,0.000000000,0.001000000
1696857357.938627,722606.000000000,1696857357.937248945,-0.066000000,-0.084000000,-0.023000000,0.001000000,0.000000000,0.001000000
1696857357.941327,722607.000000000,1696857357.939264536,-0.066000000,-0.084000000,-0.023000000,0.001000000,0.000000000,0.001000000
1696857357.942795,722608.000000000,1696857357.941272974,-0.066000000,-0.082000000,-0.022000000,0.000000000,0.000000000,0.001000000
1696857357.944600,722609.000000000,1696857357.943263769,-0.066000000,-0.081000000,-0.021000000,0.000000000,0.000000000,0.001000000
1696857357.946661,722610.000000000,1696857357.945246696,-0.066000000,-0.079000000,-0.021000000,0.000000000,0.000000000,0.001000000
1696857357.948886,722611.000000000,1696857357.947498798,-0.067000000,-0.078000000,-0.020000000,0.000000000,0.000000000,0.001000000
1696857357.950669,722612.000000000,1696857357.949316025,-0.067000000,-0.078000000,-0.020000000,0.000000000,0.000000000,0.001000000
1696857357.952625,722613.000000000,1696857357.951272726,-0.067000000,-0.078000000,-0.021000000,0.000000000,0.000000000,0.001000000
1696857357.966767,722619.000000000,1696857357.963291883,-0.067000000,-0.082000000,-0.024000000,0.001000000,0.000000000,0.001000000
1696857357.967048,722620.000000000,1696857357.965316296,-0.067000000,-0.080000000,-0.024000000,0.000000000,0.000000000,0.001000000
1696857357.975164,722624.000000000,1696857357.973234892,-0.069000000,-0.075000000,-0.027000000,0.000000000,0.000000000,0.001000000
1696857357.976674,722625.000000000,1696857357.975253344,-0.069000000,-0.076000000,-0.029000000,0.000000000,0.000000000,0.001000000
1696857357.979364,722626.000000000,1696857357.977272987,-0.069000000,-0.077000000,-0.030000000,0.000000000,0.000000000,0.001000000
1696857357.981371,722627.000000000,1696857357.979238987,-0.069000000,-0.078000000,-0.033000000,0.001000000,0.000000000,0.001000000
1696857357.983554,722628.000000000,1696857357.981837749,-0.069000000,-0.079000000,-0.035000000,0.001000000,0.000000000,0.002000000
1696857357.985482,722629.000000000,1696857357.984014988,-0.069000000,-0.078000000,-0.037000000,0.001000000,0.000000000,0.002000000
1696857357.986674,722630.000000000,1696857357.985260487,-0.069000000,-0.077000000,-0.041000000,0.001000000,0.000000000,0.002000000
1696857357.989266,722631.000000000,1696857357.987237453,-0.069000000,-0.075000000,-0.042000000,0.001000000,0.000000000,0.002000000
1696857357.990671,722632.000000000,1696857357.989256144,-0.070000000,-0.072000000,-0.044000000,0.000000000,0.000000000,0.002000000
1696857357.992674,722633.000000000,1696857357.991268635,-0.071000000,-0.070000000,-0.046000000,0.000000000,0.000000000,0.002000000
1696857357.994660,722634.000000000,1696857357.993264198,-0.071000000,-0.068000000,-0.049000000,0.000000000,0.000000000,0.002000000
1696857357.996665,722635.000000000,1696857357.995250940,-0.071000000,-0.067000000,-0.053000000,0.000000000,0.000000000,0.002000000
1696857358.012764,722642.000000000,1696857358.009459019,-0.071000000,-0.065000000,-0.080000000,0.001000000,0.000000000,0.003000000
1696857358.013032,722643.000000000,1696857358.011418581,-0.071000000,-0.063000000,-0.083000000,0.001000000,0.000000000,0.003000000
1696857358.014605,722644.000000000,1696857358.013234138,-0.072000000,-0.060000000,-0.087000000,0.000000000,0.000000000,0.003000000
1696857358.016570,722645.000000000,1696857358.015191317,-0.071000000,-0.058000000,-0.090000000,0.000000000,0.000000000,0.003000000
1696857358.018598,722646.000000000,1696857358.017219067,-0.072000000,-0.057000000,-0.093000000,0.000000000,0.000000000,0.003000000
1696857358.020666,722647.000000000,1696857358.019194603,-0.072000000,-0.057000000,-0.097000000,0.000000000,0.000000000,0.003000000
1696857358.022798,722648.000000000,1696857358.021194696,-0.072000000,-0.058000000,-0.101000000,0.000000000,0.000000000,0.003000000
1696857358.024657,722649.000000000,1696857358.023194075,-0.071000000,-0.059000000,-0.104000000,0.001000000,0.000000000,0.003000000
1696857358.026588,722650.000000000,1696857358.025226593,-0.070000000,-0.061000000,-0.109000000,0.001000000,0.000000000,0.003000000
1696857358.028572,722651.000000000,1696857358.027227163,-0.071000000,-0.061000000,-0.110000000,0.001000000,0.000000000,0.003000000
1696857358.030704,722652.000000000,1696857358.029226542,-0.071000000,-0.061000000,-0.112000000,0.001000000,0.000000000,0.003000000
1696857358.033005,722653.000000000,1696857358.031283379,-0.070000000,-0.060000000,-0.114000000,0.001000000,0.000000000,0.003000000
1696857358.034797,722654.000000000,1696857358.033415079,-0.070000000,-0.058000000,-0.114000000,0.001000000,0.000000000,0.003000000
1696857358.036608,722655.000000000,1696857358.035280943,-0.071000000,-0.056000000,-0.114000000,0.000000000,0.000000000,0.003000000
1696857358.038640,722656.000000000,1696857358.037255764,-0.071000000,-0.055000000,-0.114000000,0.000000000,0.000000000,0.003000000
1696857358.056553,722664.000000000,1696857358.053437471,-0.069000000,-0.063000000,-0.108000000,0.001000000,0.000000000,0.003000000
1696857358.057117,722665.000000000,1696857358.055438042,-0.069000000,-0.062000000,-0.104000000,0.001000000,0.000000000,0.003000000
1696857358.058705,722666.000000000,1696857358.057321787,-0.069000000,-0.062000000,-0.100000000,0.000000000,0.000000000,0.003000000
1696857358.060781,722667.000000000,1696857358.059375286,-0.069000000,-0.060000000,-0.097000000,0.000000000,0.000000000,0.003000000
1696857358.062603,722668.000000000,1696857358.061258078,-0.069000000,-0.060000000,-0.092000000,0.000000000,0.000000000,0.003000000
1696857358.064604,722669.000000000,1696857358.063273191,-0.069000000,-0.061000000,-0.089000000,0.000000000,0.000000000,0.003000000
1696857358.066728,722670.000000000,1696857358.065261126,-0.069000000,-0.062000000,-0.085000000,0.000000000,0.000000000,0.003000000
1696857358.068603,722671.000000000,1696857358.067236185,-0.069000000,-0.064000000,-0.083000000,0.000000000,0.000000000,0.003000000
1696857358.070721,722672.000000000,1696857358.069323778,-0.069000000,-0.067000000,-0.079000000,0.001000000,0.000000000,0.003000000
1696857358.072613,722673.000000000,1696857358.071247816,-0.068000000,-0.069000000,-0.075000000,0.001000000,0.000000000,0.002000000
1696857358.074631,722674.000000000,1696857358.073278189,-0.068000000,-0.071000000,-0.071000000,0.001000000,0.000000000,0.002000000
1696857358.076561,722675.000000000,1696857358.075249195,-0.068000000,-0.072000000,-0.068000000,0.001000000,0.000000000,0.002000000
1696857358.078701,722676.000000000,1696857358.077301264,-0.068000000,-0.071000000,-0.063000000,0.001000000,0.000000000,0.002000000
1696857358.081035,722677.000000000,1696857358.079312086,-0.068000000,-0.071000000,-0.058000000,0.001000000,0.000000000,0.002000000
1696857358.095609,722684.000000000,1696857358.093276501,-0.068000000,-0.077000000,-0.034000000,0.001000000,0.000000000,0.002000000
1696857358.096613,722685.000000000,1696857358.095282078,-0.067000000,-0.079000000,-0.032000000,0.001000000,0.000000000,0.001000000
1696857358.108261,722690.000000000,1696857358.105256081,-0.067000000,-0.077000000,-0.021000000,0.000000000,0.000000000,0.001000000
1696857358.108629,722691.000000000,1696857358.107260466,-0.067000000,-0.076000000,-0.019000000,0.000000000,0.000000000,0.001000000
1696857358.110729,722692.000000000,1696857358.109247446,-0.067000000,-0.076000000,-0.018000000,0.000000000,0.000000000,0.001000000
1696857358.112533,722693.000000000,1696857358.111232042,-0.067000000,-0.078000000,-0.018000000,0.000000000,0.000000000,0.001000000
1696857358.115059,722694.000000000,1696857358.113284826,-0.067000000,-0.080000000,-0.016000000,0.000000000,0.000000000,0.001000000
1696857358.116596,722695.000000000,1696857358.115279198,-0.067000000,-0.082000000,-0.016000000,0.001000000,0.000000000,0.001000000
1696857358.118623,722696.000000000,1696857358.117289305,-0.067000000,-0.084000000,-0.015000000,0.001000000,0.000000000,0.001000000
1696857358.120874,722697.000000000,1696857358.119241953,-0.066000000,-0.084000000,-0.016000000,0.001000000,0.000000000,0.001000000
1696857358.122617,722698.000000000,1696857358.121264935,-0.066000000,-0.084000000,-0.015000000,0.001000000,0.000000000,0.001000000
1696857358.134959,722703.000000000,1696857358.131273031,-0.066000000,-0.078000000,-0.011000000,0.000000000,0.000000000,0.001000000
1696857358.135230,722704.000000000,1696857358.133369446,-0.066000000,-0.079000000,-0.012000000,0.000000000,0.000000000,0.001000000
1696857358.136624,722705.000000000,1696857358.135258913,-0.066000000,-0.080000000,-0.012000000,0.000000000,0.000000000,0.001000000
1696857358.138607,722706.000000000,1696857358.137252808,-0.066000000,-0.081000000,-0.012000000,0.001000000,0.000000000,0.001000000
1696857358.141136,722707.000000000,1696857358.139254332,-0.066000000,-0.083000000,-0.012000000,0.001000000,0.000000000,0.001000000
1696857358.142884,722708.000000000,1696857358.141435862,-0.065000000,-0.084000000,-0.013000000,0.001000000,0.000000000,0.001000000
1696857358.144794,722709.000000000,1696857358.143379450,-0.065000000,-0.083000000,-0.012000000,0.001000000,0.000000000,0.001000000
1696857358.147296,722710.000000000,1696857358.145278454,-0.066000000,-0.082000000,-0.012000000,0.001000000,0.000000000,0.001000000
1696857358.148553,722711.000000000,1696857358.147239447,-0.066000000,-0.081000000,-0.011000000,0.001000000,0.000000000,0.001000000
1696857358.150566,722712.000000000,1696857358.149266958,-0.066000000,-0.078000000,-0.010000000,0.000000000,0.000000000,0.001000000
1696857358.152544,722713.000000000,1696857358.151217937,-0.066000000,-0.077000000,-0.010000000,0.000000000,0.000000000,0.001000000
1696857358.154610,722714.000000000,1696857358.153249502,-0.067000000,-0.075000000,-0.008000000,0.000000000,0.000000000,0.001000000
1696857358.156574,722715.000000000,1696857358.155259371,-0.066000000,-0.075000000,-0.009000000,0.000000000,0.000000000,0.001000000
1696857358.159076,722716.000000000,1696857358.157313824,-0.066000000,-0.076000000,-0.009000000,0.000000000,0.000000000,0.001000000
1696857358.161010,722717.000000000,1696857358.159270763,-0.067000000,-0.077000000,-0.009000000,0.000000000,0.000000000,0.001000000
1696857358.162558,722718.000000000,1696857358.161246061,-0.067000000,-0.079000000,-0.009000000,0.000000000,0.000000000,0.001000000
1696857358.164599,722719.000000000,1696857358.163255215,-0.067000000,-0.080000000,-0.010000000,0.001000000,0.000000000,0.001000000
1696857358.177843,722725.000000000,1696857358.175226450,-0.068000000,-0.073000000,-0.006000000,0.000000000,0.000000000,0.001000000
1696857358.181572,722727.000000000,1696857358.179221869,-0.069000000,-0.073000000,-0.007000000,0.000000000,0.000000000,0.001000000
1696857358.182629,722728.000000000,1696857358.181299448,-0.069000000,-0.075000000,-0.007000000,0.000000000,0.000000000,0.001000000
1696857358.184700,722729.000000000,1696857358.183286190,-0.069000000,-0.077000000,-0.008000000,0.000000000,0.000000000,0.001000000
1696857358.187113,722730.000000000,1696857358.185447454,-0.068000000,-0.078000000,-0.008000000,0.000000000,0.000000000,0.001000000
1696857358.188576,722731.000000000,1696857358.187275410,-0.068000000,-0.079000000,-0.009000000,0.001000000,0.000000000,0.001000000
1696857358.190679,722732.000000000,1696857358.189357519,-0.069000000,-0.080000000,-0.010000000,0.001000000,0.000000000,0.001000000
1696857358.192548,722733.000000000,1696857358.191243410,-0.069000000,-0.079000000,-0.009000000,0.001000000,0.000000000,0.001000000
1696857358.194562,722734.000000000,1696857358.193261147,-0.069000000,-0.078000000,-0.010000000,0.000000000,0.000000000,0.001000000
1696857358.196584,722735.000000000,1696857358.195250988,-0.069000000,-0.076000000,-0.008000000,0.000000000,0.000000000,0.001000000
1696857358.198593,722736.000000000,1696857358.197241068,-0.070000000,-0.075000000,-0.008000000,0.000000000,0.000000000,0.001000000
1696857358.200987,722737.000000000,1696857358.199356079,-0.070000000,-0.074000000,-0.010000000,0.000000000,0.000000000,0.001000000
1696857358.203051,722738.000000000,1696857358.201353073,-0.070000000,-0.075000000,-0.011000000,0.000000000,0.000000000,0.001000000
1696857358.204610,722739.000000000,1696857358.203284502,-0.070000000,-0.077000000,-0.011000000,0.000000000,0.000000000,0.001000000
1696857358.206659,722740.000000000,1696857358.205259562,-0.070000000,-0.079000000,-0.013000000,0.000000000,0.000000000,0.001000000
1696857358.208619,722741.000000000,1696857358.207251549,-0.070000000,-0.081000000,-0.014000000,0.001000000,0.000000000,0.001000000
1696857358.226276,722749.000000000,1696857358.223256350,-0.070000000,-0.079000000,-0.020000000,0.000000000,0.000000000,0.001000000
1696857358.226764,722750.000000000,1696857358.225258350,-0.070000000,-0.080000000,-0.021000000,0.000000000,0.000000000,0.001000000
1696857358.246301,722759.000000000,1696857358.243254900,-0.069000000,-0.082000000,-0.028000000,0.000000000,0.000000000,0.002000000
1696857358.246783,722760.000000000,1696857358.245386839,-0.069000000,-0.082000000,-0.030000000,0.000000000,0.000000000,0.002000000
1696857358.248626,722761.000000000,1696857358.247293949,-0.069000000,-0.082000000,-0.031000000,0.000000000,0.000000000,0.002000000
1696857358.250636,722762.000000000,1696857358.249267340,-0.069000000,-0.083000000,-0.032000000,0.000000000,0.000000000,0.002000000
1696857358.252544,722763.000000000,1696857358.251238346,-0.069000000,-0.085000000,-0.033000000,0.000000000,0.000000000,0.002000000
1696857358.254693,722764.000000000,1696857358.253299713,-0.068000000,-0.087000000,-0.035000000,0.001000000,0.000000000,0.002000000
1696857358.256615,722765.000000000,1696857358.255283117,-0.069000000,-0.088000000,-0.036000000,0.001000000,0.000000000,0.002000000
1696857358.258900,722766.000000000,1696857358.257269621,-0.069000000,-0.088000000,-0.039000000,0.001000000,0.000000000,0.002000000
1696857358.261209,722767.000000000,1696857358.259283304,-0.068000000,-0.087000000,-0.040000000,0.001000000,0.000000000,0.002000000
1696857358.262836,722768.000000000,1696857358.261294842,-0.069000000,-0.085000000,-0.041000000,0.000000000,0.000000000,0.002000000
1696857358.264632,722769.000000000,1696857358.263298512,-0.070000000,-0.083000000,-0.041000000,0.000000000,0.000000000,0.002000000
1696857358.266667,722770.000000000,1696857358.265291691,-0.070000000,-0.081000000,-0.043000000,0.000000000,0.000000000,0.002000000
1696857358.268585,722771.000000000,1696857358.267230749,-0.070000000,-0.079000000,-0.045000000,0.000000000,0.000000000,0.002000000
1696857358.270675,722772.000000000,1696857358.269267797,-0.071000000,-0.079000000,-0.047000000,0.000000000,0.000000000,0.002000000
1696857358.273925,722773.000000000,1696857358.272540092,-0.071000000,-0.079000000,-0.050000000,0.000000000,0.000000000,0.002000000
1696857358.275075,722774.000000000,1696857358.273712635,-0.071000000,-0.080000000,-0.053000000,0.000000000,0.000000000,0.002000000
1696857358.276620,722775.000000000,1696857358.275266886,-0.071000000,-0.081000000,-0.056000000,0.000000000,0.000000000,0.002000000
1696857358.278721,722776.000000000,1696857358.277325153,-0.072000000,-0.082000000,-0.058000000,0.000000000,0.000000000,0.002000000
1696857358.280663,722777.000000000,1696857358.279286861,-0.072000000,-0.081000000,-0.061000000,0.000000000,0.000000000,0.002000000
1696857358.283104,722778.000000000,1696857358.281460285,-0.072000000,-0.080000000,-0.065000000,0.000000000,0.000000000,0.002000000
1696857358.284667,722779.000000000,1696857358.283285141,-0.072000000,-0.078000000,-0.067000000,0.000000000,0.000000000,0.002000000
1696857358.286650,722780.000000000,1696857358.285282135,-0.073000000,-0.075000000,-0.068000000,0.000000000,0.000000000,0.002000000
1696857358.288539,722781.000000000,1696857358.287245274,-0.073000000,-0.073000000,-0.070000000,0.000000000,0.000000000,0.003000000
1696857358.290572,722782.000000000,1696857358.289259434,-0.074000000,-0.070000000,-0.073000000,0.000000000,0.000000000,0.003000000
1696857358.292568,722783.000000000,1696857358.291244984,-0.074000000,-0.069000000,-0.076000000,0.000000000,0.000000000,0.003000000
1696857358.294590,722784.000000000,1696857358.293235779,-0.074000000,-0.069000000,-0.081000000,0.000000000,0.000000000,0.003000000
1696857358.296637,722785.000000000,1696857358.295295238,-0.074000000,-0.069000000,-0.084000000,0.000000000,0.000000000,0.003000000
1696857358.298662,722786.000000000,1696857358.297278881,-0.074000000,-0.070000000,-0.087000000,0.000000000,0.000000000,0.003000000
1696857358.300807,722787.000000000,1696857358.299350500,-0.074000000,-0.070000000,-0.091000000,0.000000000,0.000000000,0.003000000
1696857358.302864,722788.000000000,1696857358.301285744,-0.074000000,-0.071000000,-0.093000000,0.000000000,0.000000000,0.003000000
1696857358.304555,722789.000000000,1696857358.303258657,-0.074000000,-0.070000000,-0.096000000,0.000000000,0.000000000,0.003000000
1696857358.306568,722790.000000000,1696857358.305255413,-0.074000000,-0.068000000,-0.098000000,0.000000000,0.000000000,0.003000000
1696857358.308565,722791.000000000,1696857358.307274580,-0.073000000,-0.066000000,-0.099000000,0.000000000,0.000000000,0.003000000
1696857358.310660,722792.000000000,1696857358.309288979,-0.074000000,-0.063000000,-0.101000000,0.000000000,0.000000000,0.003000000
1696857358.312547,722793.000000000,1696857358.311250210,-0.073000000,-0.061000000,-0.102000000,0.000000000,0.000000000,0.003000000
1696857358.314582,722794.000000000,1696857358.313275337,-0.074000000,-0.060000000,-0.103000000,0.000000000,0.000000000,0.003000000
1696857358.316576,722795.000000000,1696857358.315270662,-0.074000000,-0.060000000,-0.105000000,0.000000000,0.000000000,0.003000000
1696857358.318678,722796.000000000,1696857358.317294836,-0.073000000,-0.060000000,-0.105000000,0.000000000,0.000000000,0.003000000
1696857358.321271,722797.000000000,1696857358.319249392,-0.072000000,-0.062000000,-0.108000000,0.000000000,0.000000000,0.003000000
1696857358.322633,722798.000000000,1696857358.321300507,-0.072000000,-0.064000000,-0.109000000,0.000000000,0.000000000,0.003000000
1696857358.324859,722799.000000000,1696857358.323247671,-0.071000000,-0.065000000,-0.109000000,0.000000000,0.000000000,0.003000000
1696857358.327416,722800.000000000,1696857358.325376272,-0.071000000,-0.066000000,-0.109000000,0.000000000,0.000000000,0.003000000
1696857358.328857,722801.000000000,1696857358.327428102,-0.070000000,-0.066000000,-0.108000000,0.000000000,0.000000000,0.003000000
1696857358.330715,722802.000000000,1696857358.329263926,-0.070000000,-0.065000000,-0.106000000,0.000000000,0.000000000,0.003000000
1696857358.332645,722803.000000000,1696857358.331271410,-0.069000000,-0.064000000,-0.105000000,0.000000000,0.000000000,0.003000000
1696857358.334643,722804.000000000,1696857358.333251238,-0.069000000,-0.063000000,-0.103000000,0.000000000,0.000000000,0.003000000
1696857358.336746,722805.000000000,1696857358.335276127,-0.069000000,-0.062000000,-0.101000000,0.000000000,0.000000000,0.003000000
1696857358.338611,722806.000000000,1696857358.337255239,-0.068000000,-0.063000000,-0.100000000,0.000000000,0.000000000,0.003000000
1696857358.340873,722807.000000000,1696857358.339293003,-0.068000000,-0.065000000,-0.098000000,0.000000000,0.000000000,0.003000000
1696857358.342597,722808.000000000,1696857358.341289997,-0.068000000,-0.067000000,-0.096000000,0.000000000,0.000000000,0.003000000
1696857358.344593,722809.000000000,1696857358.343311071,-0.067000000,-0.070000000,-0.094000000,0.000000000,0.000000000,0.003000000
1696857358.346616,722810.000000000,1696857358.345260620,-0.066000000,-0.072000000,-0.091000000,0.000000000,0.000000000,0.003000000
1696857358.348578,722811.000000000,1696857358.347274303,-0.066000000,-0.074000000,-0.088000000,0.000000000,0.000000000,0.003000000
1696857358.351169,722812.000000000,1696857358.349355221,-0.066000000,-0.075000000,-0.087000000,0.001000000,0.000000000,0.003000000
1696857358.352569,722813.000000000,1696857358.351273537,-0.066000000,-0.076000000,-0.082000000,0.000000000,0.000000000,0.003000000
1696857358.354584,722814.000000000,1696857358.353264809,-0.065000000,-0.075000000,-0.078000000,0.000000000,0.000000000,0.003000000
1696857358.356573,722815.000000000,1696857358.355257511,-0.066000000,-0.075000000,-0.074000000,0.000000000,0.000000000,0.003000000
1696857358.358766,722816.000000000,1696857358.357336998,-0.066000000,-0.074000000,-0.071000000,0.000000000,0.000000000,0.003000000
1696857358.360861,722817.000000000,1696857358.359263420,-0.066000000,-0.075000000,-0.067000000,0.000000000,0.000000000,0.002000000
1696857358.362647,722818.000000000,1696857358.361274004,-0.066000000,-0.076000000,-0.064000000,0.000000000,0.000000000,0.002000000
1696857358.364635,722819.000000000,1696857358.363270760,-0.066000000,-0.078000000,-0.062000000,0.000000000,0.000000000,0.002000000
1696857358.366787,722820.000000000,1696857358.365333080,-0.066000000,-0.081000000,-0.059000000,0.000000000,0.000000000,0.002000000
1696857358.368698,722821.000000000,1696857358.367235661,-0.066000000,-0.083000000,-0.057000000,0.000000000,0.000000000,0.002000000
1696857358.371424,722822.000000000,1696857358.369455814,-0.066000000,-0.086000000,-0.055000000,0.001000000,0.000000000,0.002000000
1696857358.372673,722823.000000000,1696857358.371279716,-0.066000000,-0.087000000,-0.051000000,0.001000000,0.000000000,0.002000000
1696857358.374595,722824.000000000,1696857358.373283386,-0.066000000,-0.087000000,-0.048000000,0.001000000,0.000000000,0.002000000
1696857358.376595,722825.000000000,1696857358.375261068,-0.066000000,-0.086000000,-0.044000000,0.000000000,0.000000000,0.002000000
1696857358.378645,722826.000000000,1696857358.377293110,-0.067000000,-0.085000000,-0.041000000,0.000000000,0.000000000,0.002000000
1696857358.381245,722827.000000000,1696857358.379276514,-0.067000000,-0.084000000,-0.037000000,0.000000000,0.000000000,0.002000000
1696857358.382651,722828.000000000,1696857358.381274700,-0.068000000,-0.083000000,-0.035000000,0.000000000,0.000000000,0.002000000
1696857358.384607,722829.000000000,1696857358.383255243,-0.069000000,-0.083000000,-0.034000000,0.000000000,0.000000000,0.002000000
1696857358.386723,722830.000000000,1696857358.385314465,-0.069000000,-0.085000000,-0.032000000,0.000000000,0.000000000,0.002000000
1696857358.388649,722831.000000000,1696857358.387323618,-0.069000000,-0.086000000,-0.031000000,0.000000000,0.000000000,0.002000000
1696857358.390717,722832.000000000,1696857358.389308691,-0.069000000,-0.088000000,-0.028000000,0.000000000,0.000000000,0.001000000
1696857358.392660,722833.000000000,1696857358.391300440,-0.069000000,-0.090000000,-0.028000000,0.001000000,0.000000000,0.001000000
1696857358.395161,722834.000000000,1696857358.393278122,-0.069000000,-0.090000000,-0.026000000,0.001000000,0.000000000,0.001000000
1696857358.396643,722835.000000000,1696857358.395288229,-0.069000000,-0.090000000,-0.026000000,0.001000000,0.000000000,0.001000000
1696857358.398674,722836.000000000,1696857358.397325754,-0.070000000,-0.089000000,-0.023000000,0.001000000,0.000000000,0.001000000
1696857358.401510,722837.000000000,1696857358.399282455,-0.070000000,-0.087000000,-0.021000000,0.000000000,0.000000000,0.001000000
1696857358.402627,722838.000000000,1696857358.401305914,-0.070000000,-0.086000000,-0.018000000,0.000000000,0.000000000,0.001000000
1696857358.404573,722839.000000000,1696857358.403254271,-0.071000000,-0.083000000,-0.017000000,0.000000000,0.000000000,0.001000000
1696857358.406650,722840.000000000,1696857358.405319452,-0.071000000,-0.083000000,-0.017000000,0.000000000,0.000000000,0.001000000
1696857358.408619,722841.000000000,1696857358.407295465,-0.071000000,-0.084000000,-0.017000000,0.000000000,0.000000000,0.001000000
1696857358.410590,722842.000000000,1696857358.409294844,-0.072000000,-0.085000000,-0.016000000,0.000000000,0.000000000,0.001000000
1696857358.412637,722843.000000000,1696857358.411301136,-0.071000000,-0.086000000,-0.016000000,0.000000000,0.000000000,0.001000000
1696857358.414627,722844.000000000,1696857358.413297653,-0.071000000,-0.088000000,-0.014000000,0.000000000,0.000000000,0.001000000
1696857358.416631,722845.000000000,1696857358.415273905,-0.071000000,-0.088000000,-0.015000000,0.001000000,0.000000000,0.001000000
1696857358.418554,722846.000000000,1696857358.417256117,-0.071000000,-0.088000000,-0.014000000,0.001000000,0.000000000,0.001000000
1696857358.421006,722847.000000000,1696857358.419289827,-0.071000000,-0.088000000,-0.014000000,0.001000000,0.000000000,0.001000000
1696857358.422612,722848.000000000,1696857358.421287537,-0.071000000,-0.086000000,-0.011000000,0.000000000,0.000000000,0.001000000
1696857358.424668,722849.000000000,1696857358.423281431,-0.071000000,-0.084000000,-0.010000000,0.000000000,0.000000000,0.001000000
1696857358.426600,722850.000000000,1696857358.425276995,-0.071000000,-0.082000000,-0.008000000,0.000000000,0.000000000,0.001000000
1696857358.428628,722851.000000000,1696857358.427280188,-0.071000000,-0.082000000,-0.007000000,0.000000000,0.000000000,0.001000000
1696857358.430673,722852.000000000,1696857358.429335594,-0.071000000,-0.081000000,-0.007000000,0.000000000,0.000000000,0.001000000
1696857358.432817,722853.000000000,1696857358.431319952,-0.071000000,-0.083000000,-0.007000000,0.000000000,0.000000000,0.001000000
1696857358.434617,722854.000000000,1696857358.433297157,-0.071000000,-0.084000000,-0.007000000,0.000000000,0.000000000,0.001000000
1696857358.436632,722855.000000000,1696857358.435283184,-0.071000000,-0.086000000,-0.007000000,0.000000000,0.000000000,0.001000000
1696857358.438627,722856.000000000,1696857358.437302828,-0.070000000,-0.088000000,-0.007000000,0.000000000,0.000000000,0.001000000
1696857358.440997,722857.000000000,1696857358.439249039,-0.070000000,-0.088000000,-0.007000000,0.001000000,0.000000000,0.001000000
1696857358.442584,722858.000000000,1696857358.441274643,-0.070000000,-0.088000000,-0.006000000,0.001000000,0.000000000,0.001000000
1696857358.444614,722859.000000000,1696857358.443261147,-0.070000000,-0.087000000,-0.006000000,0.000000000,0.000000000,0.001000000
1696857358.446607,722860.000000000,1696857358.445294380,-0.070000000,-0.086000000,-0.005000000,0.000000000,0.000000000,0.001000000
1696857358.448619,722861.000000000,1696857358.447284460,-0.070000000,-0.084000000,-0.004000000,0.000000000,0.000000000,0.001000000
1696857358.450661,722862.000000000,1696857358.449348211,-0.070000000,-0.083000000,-0.002000000,0.000000000,0.000000000,0.001000000
1696857358.452592,722863.000000000,1696857358.451296329,-0.070000000,-0.083000000,-0.002000000,0.000000000,0.000000000,0.001000000
1696857358.454646,722864.000000000,1696857358.453323364,-0.070000000,-0.084000000,-0.003000000,0.000000000,0.000000000,0.001000000
1696857358.456579,722865.000000000,1696857358.455275059,-0.071000000,-0.086000000,-0.002000000,0.000000000,0.000000000,0.001000000
1696857358.458596,722866.000000000,1696857358.457267284,-0.070000000,-0.088000000,-0.004000000,0.000000000,0.000000000,0.001000000
1696857358.460994,722867.000000000,1696857358.459299088,-0.070000000,-0.090000000,-0.003000000,0.000000000,0.000000000,0.001000000
1696857358.463235,722868.000000000,1696857358.461431980,-0.070000000,-0.092000000,-0.003000000,0.000000000,0.000000000,0.001000000
1696857358.464665,722869.000000000,1696857358.463356733,-0.070000000,-0.092000000,-0.003000000,0.000000000,0.000000000,0.001000000
1696857358.466611,722870.000000000,1696857358.465274334,-0.071000000,-0.092000000,-0.003000000,0.000000000,0.000000000,0.001000000
1696857358.468571,722871.000000000,1696857358.467265844,-0.071000000,-0.090000000,-0.001000000,0.000000000,0.000000000,0.001000000
1696857358.470570,722872.000000000,1696857358.469256401,-0.071000000,-0.089000000,-0.001000000,0.000000000,0.000000000,0.001000000
1696857358.472564,722873.000000000,1696857358.471269846,-0.071000000,-0.088000000,0.000000000,0.000000000,0.000000000,0.001000000
1696857358.474586,722874.000000000,1696857358.473246813,-0.072000000,-0.087000000,0.000000000,0.000000000,0.000000000,0.001000000
1696857358.476627,722875.000000000,1696857358.475293875,-0.072000000,-0.088000000,-0.001000000,0.000000000,0.000000000,0.001000000
1696857358.478641,722876.000000000,1696857358.477296114,-0.073000000,-0.089000000,0.000000000,0.000000000,0.000000000,0.001000000
1696857358.480789,722877.000000000,1696857358.479264736,-0.073000000,-0.091000000,-0.001000000,0.000000000,0.000000000,0.001000000
1696857358.483210,722878.000000000,1696857358.481306076,-0.073000000,-0.093000000,0.000000000,0.000000000,0.000000000,0.001000000
1696857358.484664,722879.000000000,1696857358.483275890,-0.073000000,-0.095000000,-0.002000000,0.000000000,0.000000000,0.001000000
1696857358.486734,722880.000000000,1696857358.485315561,-0.073000000,-0.095000000,-0.001000000,0.000000000,0.000000000,0.001000000
1696857358.488581,722881.000000000,1696857358.487268209,-0.074000000,-0.095000000,-0.001000000,0.000000000,0.000000000,0.001000000
1696857358.490668,722882.000000000,1696857358.489285707,-0.074000000,-0.094000000,-0.001000000,0.000000000,0.000000000,0.001000000
1696857358.492565,722883.000000000,1696857358.491265774,-0.075000000,-0.092000000,0.001000000,0.000000000,0.000000000,0.001000000
1696857358.495509,722884.000000000,1696857358.493297577,-0.075000000,-0.090000000,0.000000000,0.000000000,0.000000000,0.001000000
1696857358.496639,722885.000000000,1696857358.495271444,-0.076000000,-0.089000000,0.001000000,0.000000000,0.000000000,0.001000000
1696857358.498631,722886.000000000,1696857358.497327089,-0.077000000,-0.089000000,0.001000000,0.000000000,0.000000000,0.001000000
1696857358.500904,722887.000000000,1696857358.499289036,-0.077000000,-0.090000000,0.000000000,0.000000000,0.000000000,0.001000000
1696857358.502690,722888.000000000,1696857358.501297474,-0.077000000,-0.091000000,0.000000000,0.000000000,0.000000000,0.001000000
1696857358.504539,722889.000000000,1696857358.503262997,-0.077000000,-0.092000000,0.000000000,0.000000000,0.000000000,0.001000000
1696857358.506852,722890.000000000,1696857358.505269289,-0.077000000,-0.094000000,-0.001000000,0.000000000,0.000000000,0.001000000
1696857358.508603,722891.000000000,1696857358.507247686,-0.077000000,-0.094000000,-0.002000000,0.000000000,0.000000000,0.001000000
1696857358.510623,722892.000000000,1696857358.509276390,-0.077000000,-0.094000000,-0.003000000,0.000000000,0.000000000,0.001000000
1696857358.512561,722893.000000000,1696857358.511260509,-0.078000000,-0.092000000,-0.001000000,0.000000000,0.000000000,0.001000000
1696857358.514574,722894.000000000,1696857358.513269424,-0.078000000,-0.091000000,-0.001000000,0.000000000,0.000000000,0.001000000
1696857358.516581,722895.000000000,1696857358.515261650,-0.078000000,-0.088000000,-0.001000000,0.000000000,0.000000000,0.001000000
1696857358.518653,722896.000000000,1696857358.517284870,-0.079000000,-0.087000000,-0.001000000,0.000000000,0.000000000,0.001000000
1696857358.521030,722897.000000000,1696857358.519340038,-0.079000000,-0.086000000,-0.001000000,0.000000000,0.000000000,0.001000000
1696857358.522667,722898.000000000,1696857358.521264553,-0.078000000,-0.086000000,-0.003000000,0.000000000,0.000000000,0.001000000
1696857358.524813,722899.000000000,1696857358.523261547,-0.079000000,-0.087000000,-0.003000000,0.000000000,0.000000000,0.001000000
1696857358.526662,722900.000000000,1696857358.525284767,-0.079000000,-0.088000000,-0.003000000,0.000000000,0.000000000,0.001000000
1696857358.528672,722901.000000000,1696857358.527289629,-0.078000000,-0.089000000,-0.005000000,0.000000000,0.000000000,0.001000000
1696857358.530637,722902.000000000,1696857358.529274702,-0.077000000,-0.090000000,-0.008000000,0.000000000,0.000000000,0.001000000
1696857358.532701,722903.000000000,1696857358.531325102,-0.077000000,-0.090000000,-0.008000000,0.000000000,0.000000000,0.001000000
1696857358.534676,722904.000000000,1696857358.533296108,-0.077000000,-0.089000000,-0.009000000,0.000000000,0.000000000,0.001000000
1696857358.536616,722905.000000000,1696857358.535288095,-0.077000000,-0.087000000,-0.009000000,0.000000000,0.000000000,0.001000000
1696857358.538647,722906.000000000,1696857358.537286282,-0.076000000,-0.085000000,-0.011000000,0.000000000,0.000000000,0.001000000
1696857358.540792,722907.000000000,1696857358.539277315,-0.076000000,-0.083000000,-0.011000000,0.000000000,0.000000000,0.001000000
1696857358.542762,722908.000000000,1696857358.541331053,-0.076000000,-0.081000000,-0.013000000,0.000000000,0.000000000,0.001000000
1696857358.545072,722909.000000000,1696857358.543260813,-0.076000000,-0.081000000,-0.015000000,0.000000000,0.000000000,0.001000000
1696857358.546851,722910.000000000,1696857358.545298100,-0.075000000,-0.081000000,-0.017000000,0.000000000,0.000000000,0.001000000
1696857358.548593,722911.000000000,1696857358.547283173,-0.074000000,-0.082000000,-0.020000000,0.000000000,0.000000000,0.001000000
1696857358.550764,722912.000000000,1696857358.549426317,-0.074000000,-0.084000000,-0.023000000,0.000000000,0.000000000,0.001000000
1696857358.552591,722913.000000000,1696857358.551279545,-0.073000000,-0.084000000,-0.025000000,0.000000000,0.000000000,0.001000000
1696857358.555187,722914.000000000,1696857358.553273201,-0.073000000,-0.084000000,-0.028000000,0.000000000,0.000000000,0.001000000
1696857358.556675,722915.000000000,1696857358.555295467,-0.072000000,-0.083000000,-0.032000000,0.000000000,0.000000000,0.001000000
1696857358.558666,722916.000000000,1696857358.557287216,-0.072000000,-0.081000000,-0.034000000,0.000000000,0.000000000,0.002000000
1696857358.561095,722917.000000000,1696857358.559287786,-0.072000000,-0.079000000,-0.036000000,0.000000000,0.000000000,0.002000000
1696857358.562621,722918.000000000,1696857358.561281204,-0.071000000,-0.076000000,-0.039000000,0.000000000,0.000000000,0.002000000
1696857358.566905,722919.000000000,1696857358.564551353,-0.071000000,-0.074000000,-0.042000000,0.000000000,0.000000000,0.002000000
1696857358.567279,722920.000000000,1696857358.565546513,-0.071000000,-0.072000000,-0.047000000,0.000000000,0.000000000,0.002000000
1696857358.568561,722921.000000000,1696857358.567258835,-0.070000000,-0.072000000,-0.050000000,0.000000000,0.000000000,0.002000000
1696857358.570655,722922.000000000,1696857358.569270611,-0.070000000,-0.072000000,-0.054000000,0.000000000,0.000000000,0.002000000
1696857358.572553,722923.000000000,1696857358.571258545,-0.069000000,-0.073000000,-0.059000000,0.000000000,0.000000000,0.002000000
1696857358.574733,722924.000000000,1696857358.573327780,-0.069000000,-0.073000000,-0.063000000,0.000000000,0.000000000,0.002000000
1696857358.576592,722925.000000000,1696857358.575271130,-0.068000000,-0.073000000,-0.068000000,0.000000000,0.000000000,0.002000000
1696857358.578673,722926.000000000,1696857358.577304125,-0.068000000,-0.072000000,-0.073000000,0.000000000,0.000000000,0.002000000
1696857358.580878,722927.000000000,1696857358.579297066,-0.068000000,-0.070000000,-0.076000000,0.000000000,0.000000000,0.003000000
1696857358.583271,722928.000000000,1696857358.581304312,-0.068000000,-0.067000000,-0.079000000,0.000000000,0.000000000,0.003000000
1696857358.584613,722929.000000000,1696857358.583261967,-0.068000000,-0.064000000,-0.083000000,0.000000000,0.000000000,0.003000000
1696857358.586713,722930.000000000,1696857358.585332394,-0.068000000,-0.061000000,-0.086000000,0.000000000,0.000000000,0.003000000
1696857358.588590,722931.000000000,1696857358.587263346,-0.068000000,-0.059000000,-0.090000000,0.000000000,0.000000000,0.003000000
1696857358.590671,722932.000000000,1696857358.589284182,-0.068000000,-0.058000000,-0.094000000,0.000000000,0.000000000,0.003000000
1696857358.592581,722933.000000000,1696857358.591262102,-0.067000000,-0.058000000,-0.098000000,0.000000000,0.000000000,0.003000000
1696857358.594625,722934.000000000,1696857358.593258858,-0.067000000,-0.058000000,-0.101000000,0.000000000,0.000000000,0.003000000
1696857358.596607,722935.000000000,1696857358.595276833,-0.067000000,-0.059000000,-0.105000000,0.000000000,0.000000000,0.003000000
1696857358.598667,722936.000000000,1696857358.597278833,-0.066000000,-0.059000000,-0.107000000,0.000000000,0.000000000,0.003000000
1696857358.601001,722937.000000000,1696857358.599297762,-0.066000000,-0.059000000,-0.110000000,0.001000000,0.000000000,0.003000000
1696857358.602601,722938.000000000,1696857358.601279497,-0.066000000,-0.058000000,-0.112000000,0.001000000,0.000000000,0.003000000
1696857358.604591,722939.000000000,1696857358.603262901,-0.066000000,-0.056000000,-0.114000000,0.000000000,0.000000000,0.003000000
1696857358.606701,722940.000000000,1696857358.605318069,-0.066000000,-0.054000000,-0.114000000,0.000000000,0.000000000,0.004000000
1696857358.608617,722941.000000000,1696857358.607301712,-0.066000000,-0.051000000,-0.114000000,0.000000000,0.000000000,0.004000000
1696857358.610661,722942.000000000,1696857358.609282255,-0.065000000,-0.050000000,-0.115000000,0.000000000,0.000000000,0.004000000
1696857358.612591,722943.000000000,1696857358.611271143,-0.065000000,-0.050000000,-0.115000000,0.000000000,0.000000000,0.004000000
1696857358.614662,722944.000000000,1696857358.613294125,-0.065000000,-0.051000000,-0.116000000,0.000000000,0.000000000,0.004000000
1696857358.616658,722945.000000000,1696857358.615316153,-0.065000000,-0.052000000,-0.116000000,0.000000000,0.000000000,0.004000000
1696857358.618590,722946.000000000,1696857358.617283344,-0.064000000,-0.054000000,-0.115000000,0.000000000,0.000000000,0.004000000
1696857358.621624,722947.000000000,1696857358.619302750,-0.064000000,-0.056000000,-0.115000000,0.001000000,0.000000000,0.004000000
1696857358.622723,722948.000000000,1696857358.621338606,-0.063000000,-0.057000000,-0.114000000,0.001000000,0.000000000,0.003000000
1696857358.624742,722949.000000000,1696857358.623267174,-0.063000000,-0.058000000,-0.112000000,0.001000000,0.000000000,0.003000000
1696857358.626608,722950.000000000,1696857358.625293493,-0.062000000,-0.057000000,-0.110000000,0.001000000,0.000000000,0.003000000
1696857358.628555,722951.000000000,1696857358.627263784,-0.062000000,-0.057000000,-0.107000000,0.000000000,0.000000000,0.003000000
1696857358.630666,722952.000000000,1696857358.629347086,-0.062000000,-0.056000000,-0.103000000,0.000000000,0.000000000,0.003000000
1696857358.632549,722953.000000000,1696857358.631252527,-0.062000000,-0.055000000,-0.100000000,0.000000000,0.000000000,0.003000000
1696857358.634596,722954.000000000,1696857358.633280277,-0.061000000,-0.056000000,-0.098000000,0.000000000,0.000000000,0.003000000
1696857358.636585,722955.000000000,1696857358.635260105,-0.061000000,-0.057000000,-0.094000000,0.000000000,0.000000000,0.003000000
1696857358.638649,722956.000000000,1696857358.637271643,-0.061000000,-0.059000000,-0.091000000,0.000000000,0.000000000,0.003000000
1696857358.641110,722957.000000000,1696857358.639247179,-0.060000000,-0.062000000,-0.089000000,0.000000000,0.000000000,0.003000000
1696857358.642571,722958.000000000,1696857358.641259670,-0.059000000,-0.065000000,-0.085000000,0.001000000,0.000000000,0.003000000
1696857358.644598,722959.000000000,1696857358.643259048,-0.059000000,-0.067000000,-0.082000000,0.001000000,0.000000000,0.003000000
1696857358.647171,722960.000000000,1696857358.645285368,-0.058000000,-0.069000000,-0.079000000,0.001000000,0.000000000,0.003000000
1696857358.648585,722961.000000000,1696857358.647261620,-0.058000000,-0.070000000,-0.075000000,0.001000000,0.000000000,0.002000000
1696857358.650672,722962.000000000,1696857358.649276495,-0.058000000,-0.069000000,-0.070000000,0.001000000,0.000000000,0.002000000
1696857358.652823,722963.000000000,1696857358.651297092,-0.058000000,-0.069000000,-0.065000000,0.000000000,0.000000000,0.002000000
1696857358.654791,722964.000000000,1696857358.653290749,-0.057000000,-0.068000000,-0.062000000,0.000000000,0.000000000,0.002000000
1696857358.656778,722965.000000000,1696857358.655266285,-0.057000000,-0.068000000,-0.059000000,0.000000000,0.000000000,0.002000000
1696857358.658772,722966.000000000,1696857358.657326937,-0.057000000,-0.069000000,-0.056000000,0.000000000,0.000000000,0.002000000
1696857358.660839,722967.000000000,1696857358.659284830,-0.057000000,-0.070000000,-0.053000000,0.000000000,0.000000000,0.002000000
1696857358.662694,722968.000000000,1696857358.661300898,-0.057000000,-0.073000000,-0.051000000,0.000000000,0.000000000,0.002000000
1696857358.664690,722969.000000000,1696857358.663265228,-0.056000000,-0.076000000,-0.049000000,0.001000000,0.000000000,0.002000000
1696857358.667091,722970.000000000,1696857358.665556431,-0.056000000,-0.077000000,-0.047000000,0.001000000,0.000000000,0.002000000
1696857358.669051,722971.000000000,1696857358.667428255,-0.057000000,-0.079000000,-0.044000000,0.001000000,0.000000000,0.002000000
1696857358.671715,722972.000000000,1696857358.669275761,-0.056000000,-0.079000000,-0.042000000,0.001000000,0.000000000,0.002000000
1696857358.673058,722973.000000000,1696857358.671240807,-0.056000000,-0.078000000,-0.040000000,0.001000000,0.000000000,0.002000000
