__time,/hsrb/joint_states/arm_flex_joint/effort,/hsrb/joint_states/arm_flex_joint/position,/hsrb/joint_states/arm_flex_joint/velocity,/hsrb/joint_states/arm_lift_joint/effort,/hsrb/joint_states/arm_lift_joint/position,/hsrb/joint_states/arm_lift_joint/velocity,/hsrb/joint_states/arm_roll_joint/effort,/hsrb/joint_states/arm_roll_joint/position,/hsrb/joint_states/arm_roll_joint/velocity,/hsrb/joint_states/base_l_drive_wheel_joint/effort,/hsrb/joint_states/base_l_drive_wheel_joint/position,/hsrb/joint_states/base_l_drive_wheel_joint/velocity,/hsrb/joint_states/base_r_drive_wheel_joint/effort,/hsrb/joint_states/base_r_drive_wheel_joint/position,/hsrb/joint_states/base_r_drive_wheel_joint/velocity,/hsrb/joint_states/base_roll_joint/effort,/hsrb/joint_states/base_roll_joint/position,/hsrb/joint_states/base_roll_joint/velocity,/hsrb/joint_states/hand_l_spring_proximal_joint/effort,/hsrb/joint_states/hand_l_spring_proximal_joint/position,/hsrb/joint_states/hand_l_spring_proximal_joint/velocity,/hsrb/joint_states/hand_motor_joint/effort,/hsrb/joint_states/hand_motor_joint/position,/hsrb/joint_states/hand_motor_joint/velocity,/hsrb/joint_states/hand_r_spring_proximal_joint/effort,/hsrb/joint_states/hand_r_spring_proximal_joint/position,/hsrb/joint_states/hand_r_spring_proximal_joint/velocity,/hsrb/joint_states/head_pan_joint/effort,/hsrb/joint_states/head_pan_joint/position,/hsrb/joint_states/head_pan_joint/velocity,/hsrb/joint_states/head_tilt_joint/effort,/hsrb/joint_states/head_tilt_joint/position,/hsrb/joint_states/head_tilt_joint/velocity,/hsrb/joint_states/header/seq,/hsrb/joint_states/header/stamp,/hsrb/joint_states/wrist_flex_joint/effort,/hsrb/joint_states/wrist_flex_joint/position,/hsrb/joint_states/wrist_flex_joint/velocity,/hsrb/joint_states/wrist_roll_joint/effort,/hsrb/joint_states/wrist_roll_joint/position,/hsrb/joint_states/wrist_roll_joint/velocity,/hsrb/pressure_sensor/data,/hsrb/wrist_wrench/compensated/header/seq,/hsrb/wrist_wrench/compensated/header/stamp,/hsrb/wrist_wrench/compensated/wrench/force/x,/hsrb/wrist_wrench/compensated/wrench/force/y,/hsrb/wrist_wrench/compensated/wrench/force/z,/hsrb/wrist_wrench/compensated/wrench/torque/x,/hsrb/wrist_wrench/compensated/wrench/torque/y,/hsrb/wrist_wrench/compensated/wrench/torque/z
1692875331.734189,1.795669,-0.026036,0.002550,-195.295292,0.000957,-0.000013,0.309120,-0.779957,1.001060,-0.029667,-0.000197,-0.002335,-0.062031,-0.000158,-0.001504,-0.816960,-2.751836,0.001057,-1.613000,0.006363,0.009999,0.000408,0.595636,-0.001181,-1.273000,0.065364,-0.004999,0.029440,0.000000,-0.000138,-1.373429,0.000002,0.000038,1601.000000,1692875331.719068,0.993600,-1.570003,0.000048,-0.026286,0.000153,0.000048,,,,,,,,,
1692875331.752280,3.057491,-0.026036,0.002225,-194.422139,0.000955,-0.000220,0.430560,-0.760133,1.000917,-0.016182,-0.000197,-0.001148,-0.064728,-0.000158,-0.002850,-0.993600,-2.751867,-0.004618,-1.611000,0.006363,0.014000,-0.000817,0.595636,0.001772,-1.274000,0.064364,-0.004999,-0.003680,0.000000,-0.000138,-1.353714,0.000002,0.000038,1602.000000,1692875331.739067,1.082971,-1.570003,0.000048,0.036800,0.000153,0.000048,,,,,,,,,
1692875331.771600,2.200100,-0.026036,0.001500,-194.713190,0.000953,-0.000008,0.607200,-0.740012,0.999859,-0.045849,-0.000197,-0.000870,-0.059334,-0.000158,-0.000989,-0.861120,-2.751899,-0.003392,-1.613000,0.003773,0.004000,0.001637,0.596227,-0.001181,-1.273000,0.066772,-0.004000,-0.016560,0.000000,-0.000138,-1.294571,0.000002,0.000038,1603.000000,1692875331.759067,0.993600,-1.570003,0.000048,0.042057,0.000153,0.000048,,,,,,,,,
1692875331.786306,2.426580,-0.026036,0.002674,-193.548986,0.000951,-0.000020,0.408480,-0.719897,1.005534,-0.029667,-0.000197,-0.001167,-0.091698,-0.000158,-0.001425,-0.816960,-2.751920,0.004450,-1.616000,0.000773,-0.006000,0.003275,0.596227,0.004727,-1.274000,0.065773,0.001000,-0.003680,0.000000,-0.000138,-1.399714,0.000002,0.000038,1604.000000,1692875331.779069,1.025143,-1.570003,0.000048,0.057829,0.000153,0.000048,,,,,,,,,
1692875331.815413,2.022150,-0.026036,0.003047,-192.966883,0.000950,-0.000199,0.535440,-0.700047,0.996668,-0.035061,-0.000197,-0.001167,-0.026970,-0.000138,0.003978,-0.717600,-2.751951,-0.001026,-1.616000,0.001955,-0.009999,0.027841,0.595045,0.010045,-1.279000,0.063954,-0.008999,0.009200,0.000000,-0.000138,-1.380000,0.000002,0.000038,1605.000000,1692875331.799067,1.067200,-1.570003,0.000048,-0.026286,0.000153,0.000048,,,,,,,,,
1692875331.838723,2.701593,-0.026036,0.002736,-192.384781,0.000949,-0.000008,0.182160,-0.680177,0.993544,-0.026970,-0.000197,-0.001266,-0.035061,-0.000138,0.003978,-0.927360,-2.751972,0.004042,-1.618000,0.001364,-0.009999,0.000000,0.595636,-0.001772,-1.281000,0.062363,-0.013000,-0.029440,0.000000,-0.000138,-1.399714,0.000002,0.000038,1606.000000,1692875331.819062,0.998857,-1.570003,0.000048,0.063086,0.000153,0.000048,,,,,,,,,
1692875331.854107,2.960428,-0.026036,0.002346,-191.511628,0.000948,-0.000008,0.507840,-0.660041,0.999373,-0.026970,-0.000178,0.003483,-0.048546,-0.000158,0.001583,-1.004640,-2.752004,-0.003298,-1.623000,-0.002409,-0.009999,0.015147,0.597409,0.009454,-1.284000,0.060590,-0.017000,-0.001840,0.000000,-0.000138,-1.255143,0.000002,0.000038,1607.000000,1692875331.839061,1.014629,-1.570003,0.000048,0.084114,0.000153,0.000048,,,,,,,,,
1692875331.870343,2.831010,-0.026036,0.002205,-191.511628,0.000947,-0.000008,0.761760,-0.640074,1.005309,-0.056637,-0.000178,0.003364,-0.048546,-0.000158,-0.000039,-0.739680,-2.752024,-0.001685,-1.623000,-0.000409,-0.014000,0.002454,0.597409,0.009454,-1.281000,0.065590,-0.012000,-0.027600,0.000000,-0.000138,-1.399714,0.000002,0.000038,1608.000000,1692875331.859065,1.025143,-1.570003,0.000048,0.063086,0.000153,0.000048,,,,,,,,,
1692875331.885867,3.154555,-0.026036,0.000702,-190.929526,0.000946,-0.000008,0.331200,-0.620183,0.992864,-0.029667,-0.000197,-0.001959,-0.067425,-0.000158,0.000653,-0.982560,-2.752035,0.001225,-1.623000,0.000182,-0.004000,0.009415,0.596818,0.009454,-1.274000,0.069182,0.003000,-0.016560,0.000000,-0.000138,-1.189429,0.000002,0.000038,1609.000000,1692875331.879061,1.030400,-1.570003,0.000048,0.047314,0.000153,-0.000048,,,,,,,,,
1692875331.909265,2.070682,-0.026036,0.002781,-190.638474,0.000945,-0.000008,0.507840,-0.600052,0.991892,-0.024273,-0.000197,-0.000791,-0.099789,-0.000158,0.002652,-1.015680,-2.752066,-0.009278,-1.620000,0.003182,-0.003000,0.000000,0.596818,0.003545,-1.279000,0.064182,-0.008999,0.014720,0.000000,-0.000138,-1.320857,0.000002,0.000038,1610.000000,1692875331.899064,1.009371,-1.570003,0.000048,0.000000,0.000153,-0.000048,,,,,,,,,
1692875331.932784,2.976605,-0.026036,0.002726,-188.601117,0.000945,-0.000270,0.529920,-0.580059,0.993421,-0.032364,-0.000197,-0.001563,-0.035061,-0.000178,-0.001524,-0.618240,-2.752098,-0.002544,-1.615000,0.005772,0.020999,0.002046,0.596227,0.002954,-1.276000,0.065773,-0.004000,-0.007360,0.000000,-0.000138,-1.366857,0.000002,0.000038,1611.000000,1692875331.919063,0.941029,-1.570003,0.000048,0.047314,0.000153,-0.000048,,,,,,,,,
1692875331.946791,,,,,,,,,,,,,,,,,,,,,,,,,,,,,,,,,,,,,,,,,,0.000000,,,,,,,,
1692875331.954235,,,,,,,,,,,,,,,,,,,,,,,,,,,,,,,,,,,,,,,,,,,2414.000000,1692875331.938932,0.000000,0.000000,0.000000,0.000000,0.000000,0.000000
1692875331.954752,2.005973,-0.025652,0.001290,-187.436912,0.000945,-0.000008,0.579600,-0.560061,0.995834,-0.048546,-0.000197,-0.002691,-0.045849,-0.000178,-0.000712,-0.618240,-2.752119,-0.002691,-1.618000,0.002772,0.000000,0.011465,0.596227,0.005318,-1.274000,0.067772,0.009999,-0.011040,0.000000,-0.000138,-1.386571,0.000002,0.000038,1612.000000,1692875331.939067,0.977829,-1.570003,0.000048,0.036800,0.000153,-0.000048,,,,,,,,,
1692875331.961870,,,,,,,,,,,,,,,,,,,,,,,,,,,,,,,,,,,,,,,,,,,2415.000000,1692875331.948941,0.000000,0.000000,0.000000,0.000000,0.000000,0.000000
1692875331.967253,,,,,,,,,,,,,,,,,,,,,,,,,,,,,,,,,,,,,,,,,,,2416.000000,1692875331.959161,0.000000,0.000000,0.000000,0.000000,0.000000,0.000000
1692875331.977681,2.636884,-0.026036,0.002823,-187.436912,0.000945,-0.000008,0.237360,-0.540053,0.997992,-0.018879,-0.000197,-0.001207,-0.053940,-0.000197,-0.002711,-0.761760,-2.752140,-0.005351,-1.616000,0.002363,0.004999,0.000000,0.595636,-0.000590,-1.281000,0.061364,0.014000,0.005520,0.000000,-0.000138,-1.301143,0.000002,0.000038,1613.000000,1692875331.959062,1.040914,-1.570003,0.000048,-0.047314,0.000153,-0.000048,,,,,,,,,
1692875331.992761,,,,,,,,,,,,,,,,,,,,,,,,,,,,,,,,,,,,,,,,,,,2417.000000,1692875331.968945,0.000000,0.000000,0.000000,0.000000,0.000000,0.000000
1692875331.999213,1.569189,-0.025652,0.000884,-187.436912,0.000945,-0.000008,0.524400,-0.520183,1.003561,-0.051243,-0.000178,0.001781,-0.059334,-0.000178,-0.000039,-0.607200,-2.752161,-0.004858,-1.618000,0.002363,-0.004999,0.012281,0.595636,0.002363,-1.279000,0.065364,-0.004999,0.029440,0.000000,-0.000138,-1.399714,0.000002,0.000038,1614.000000,1692875331.979063,1.072457,-1.570003,0.000048,-0.068343,0.000153,-0.000048,,,,,,,,,
1692875332.003458,,,,,,,,,,,,,,,,,,,,,,,,,,,,,,,,,,,,,,,,,,,2419.000000,1692875331.988941,0.000000,0.000000,0.000000,0.000000,0.000000,0.000000
1692875332.023675,,,,,,,,,,,,,,,,,,,,,,,,,,,,,,,,,,,,,,,,,,,2420.000000,1692875331.999004,0.000000,0.000000,0.000000,0.000000,0.000000,0.000000
1692875332.035703,2.847188,-0.026036,0.002674,-185.108503,0.000944,-0.000021,0.601680,-0.500174,0.999782,-0.026970,-0.000197,-0.001266,-0.051243,-0.000178,0.003028,-0.673440,-2.752161,0.006031,-1.623000,-0.000227,-0.014000,0.000408,0.596227,-0.000590,-1.286000,0.060773,-0.008999,-0.005520,0.000000,-0.000138,-1.288000,-0.000003,-0.000283,1615.000000,1692875331.999078,0.983086,-1.570003,0.000048,-0.021029,0.000153,-0.000048,,,,,,,,,
1692875332.048559,,,,,,,,,,,,,,,,,,,,,,,,,,,,,,,,,,,,,,,,,,,2421.000000,1692875332.008931,0.000000,0.000000,0.000000,0.000000,0.000000,0.000000
1692875332.058807,,,,,,,,,,,,,,,,,,,,,,,,,,,,,,,,,,,,,,,,,,,2423.000000,1692875332.029099,0.000000,0.000000,0.000000,0.000000,0.000000,0.000000
1692875332.066349,,,,,,,,,,,,,,,,,,,,,,,,,,,,,,,,,,,,,,,,,,0.000000,,,,,,,,
1692875332.066357,1.569189,-0.025652,0.001924,-185.399555,0.000944,-0.000008,0.342240,-0.480284,1.001929,-0.026970,-0.000178,0.003582,-0.051243,-0.000197,-0.001108,-0.651360,-2.752192,-0.000198,-1.626000,-0.001227,-0.017999,0.009824,0.596227,0.004727,-1.289000,0.059773,-0.021999,0.009200,0.000000,-0.000138,-1.419429,-0.000003,-0.000038,1616.000000,1692875332.019066,0.983086,-1.570003,0.000048,0.031543,0.000153,-0.000048,,,,,,,,,
1692875332.070120,,,,,,,,,,,,,,,,,,,,,,,,,,,,,,,,,,,,,,,,,,,2425.000000,1692875332.048943,0.000000,0.000000,0.000000,0.000000,0.000000,0.000000
1692875332.075195,2.814833,-0.025652,0.002090,-183.944299,0.000944,-0.000008,0.342240,-0.440165,1.012038,-0.021576,-0.000178,0.003820,-0.056637,-0.000197,-0.000653,-0.540960,-2.752244,-0.002429,-1.621000,0.002954,-0.003000,0.007370,0.595045,-0.001181,-1.282000,0.064955,-0.008999,0.016560,0.000000,-0.000138,-1.380000,-0.000003,-0.000038,1618.000000,1692875332.059066,1.014629,-1.570003,0.000048,-0.021029,0.000153,-0.000048,,,,,,,,,
1692875332.075792,,,,,,,,,,,,,,,,,,,,,,,,,,,,,,,,,,,,,,,,,,,2426.000000,1692875332.059527,0.000000,0.000000,0.000000,0.000000,0.000000,0.000000
1692875332.104368,,,,,,,,,,,,,,,,,,,,,,,,,,,,,,,,,,,,,,,,,,,2427.000000,1692875332.068975,0.000000,0.000000,0.000000,0.000000,0.000000,0.000000
1692875332.105182,,,,,,,,,,,,,,,,,,,,,,,,,,,,,,,,,,,,,,,,,,,2428.000000,1692875332.078939,0.000000,0.000000,0.000000,0.000000,0.000000,0.000000
1692875332.112445,2.022150,-0.025652,0.000125,-183.944299,0.000944,-0.000008,0.496800,-0.420167,1.007585,-0.029667,-0.000197,-0.001108,-0.048546,-0.000197,-0.000653,-0.518880,-2.752265,-0.001926,-1.618000,0.004545,-0.003000,-0.000408,0.594454,-0.005909,-1.279000,0.067546,-0.004000,-0.034960,0.000000,-0.000138,-1.334000,-0.000003,-0.000038,1619.000000,1692875332.079064,1.135543,-1.570003,0.000048,-0.047314,0.000153,-0.000048,,,,,,,,,
1692875332.121824,,,,,,,,,,,,,,,,,,,,,,,,,,,,,,,,,,,,,,,,,,,2431.000000,1692875332.108858,0.000000,0.000000,0.000000,0.000000,0.000000,0.000000
1692875332.125961,2.458935,-0.025652,0.000468,-183.653248,0.000944,-0.000008,0.678960,-0.400149,1.002773,-0.026970,-0.000178,0.003246,-0.043152,-0.000197,-0.000653,-0.452640,-2.752265,0.005885,-1.621000,0.002546,0.002000,0.003683,0.594454,-0.005909,-1.276000,0.070546,0.009999,-0.005520,0.000000,-0.000138,-1.268286,-0.000003,-0.000038,1620.000000,1692875332.099065,0.998857,-1.570003,0.000048,-0.084114,0.000153,-0.000048,,,,,,,,,
1692875332.152886,,,,,,,,,,,,,,,,,,,,,,,,,,,,,,,,,,,,,,,,,,,2433.000000,1692875332.128955,0.000000,0.000000,0.000000,0.000000,0.000000,0.000000
1692875332.156944,3.219263,-0.026036,0.002379,-183.653248,0.000944,-0.000008,0.419520,-0.380299,0.995267,-0.075516,-0.000197,-0.001345,-0.075516,-0.000178,0.002216,-0.430560,-2.752297,-0.001288,-1.618000,0.004319,-0.008000,0.001225,0.592681,-0.017136,-1.271000,0.072319,0.018999,-0.007360,0.000000,-0.000138,-1.242000,-0.000003,-0.000038,1621.000000,1692875332.119060,1.009371,-1.570003,0.000048,0.005257,0.000153,-0.000048,,,,,,,,,
1692875332.164175,,,,,,,,,,,,,,,,,,,,,,,,,,,,,,,,,,,,,,,,,,,2434.000000,1692875332.138978,0.000000,0.000000,0.000000,0.000000,0.000000,0.000000
1692875332.164189,,,,,,,,,,,,,,,,,,,,,,,,,,,,,,,,,,,,,,,,,,0.000000,,,,,,,,
1692875332.169041,,,,,,,,,,,,,,,,,,,,,,,,,,,,,,,,,,,,,,,,,,,2436.000000,1692875332.158938,0.000000,0.000000,0.000000,0.000000,0.000000,0.000000
1692875332.172907,2.329517,-0.025652,0.000187,-182.197992,0.000944,-0.000008,0.612720,-0.360045,0.990941,-0.045849,-0.000178,0.002889,-0.067425,-0.000197,-0.002236,-0.574080,-2.752307,-0.001099,-1.621000,0.002137,-0.003000,0.011873,0.593863,-0.007090,-1.274000,0.069136,0.008999,-0.031280,0.000000,-0.000138,-1.294571,-0.000003,-0.000038,1622.000000,1692875332.139065,1.040914,-1.570003,0.000048,0.068343,0.000153,-0.000048,,,,,,,,,
1692875332.177625,,,,,,,,,,,,,,,,,,,,,,,,,,,,,,,,,,,,,,,,,,,2437.000000,1692875332.169105,0.000000,0.000000,0.000000,0.000000,0.000000,0.000000
1692875332.177834,2.183922,-0.025652,0.000436,-181.324839,0.000944,-0.000008,0.474720,-0.340155,0.999184,-0.062031,-0.000197,-0.001128,-0.107880,-0.000197,-0.001860,-0.408480,-2.752307,0.006000,-1.613000,0.007545,-0.007000,0.008186,0.594454,-0.004136,-1.276000,0.068545,-0.001000,-0.022080,0.000000,-0.000138,-1.196000,-0.000003,-0.000038,1623.000000,1692875332.159068,1.014629,-1.570003,0.000048,0.005257,0.000153,-0.000048,,,,,,,,,
1692875332.200662,,,,,,,,,,,,,,,,,,,,,,,,,,,,,,,,,,,,,,,,,,,2438.000000,1692875332.178829,0.000000,0.000000,0.000000,0.000000,0.000000,0.000000
1692875332.202610,2.054505,-0.025652,0.000030,-179.287481,0.000943,-0.000008,0.469200,-0.320147,1.003545,-0.035061,-0.000178,0.003740,-0.051243,-0.000197,-0.000653,-0.552000,-2.752318,0.005434,-1.616000,0.003954,0.013000,0.012281,0.595045,0.001772,-1.274000,0.068954,0.013000,0.012880,0.000000,-0.000138,-1.228857,-0.000003,-0.000038,1624.000000,1692875332.179064,1.046171,-1.570003,0.000048,-0.031543,0.000153,-0.000048,,,,,,,,,
1692875332.220078,,,,,,,,,,,,,,,,,,,,,,,,,,,,,,,,,,,,,,,,,,,2440.000000,1692875332.200264,0.000000,0.000000,0.000000,0.000000,0.000000,0.000000
1692875332.224561,1.698606,-0.025652,0.000018,-178.414328,0.000943,-0.000008,0.645840,-0.300026,1.003238,-0.040455,-0.000197,-0.001286,-0.043152,-0.000197,0.000851,-0.585120,-2.752349,-0.001183,-1.616000,0.004955,0.007000,0.006549,0.595045,-0.001181,-1.274000,0.067954,0.013000,0.012880,0.000000,-0.000138,-1.281429,-0.000003,-0.000038,1625.000000,1692875332.199063,1.072457,-1.570003,0.000048,-0.052571,0.000153,-0.000048,,,,,,,,,
1692875332.243656,,,,,,,,,,,,,,,,,,,,,,,,,,,,,,,,,,,,,,,,,,,2442.000000,1692875332.218885,0.000000,0.000000,0.000000,0.000000,0.000000,0.000000
1692875332.259855,1.504480,-0.025652,0.001116,-177.541175,0.000943,-0.000008,0.452640,-0.280053,1.002180,-0.059334,-0.000197,-0.001761,-0.059334,-0.000178,0.004532,-0.485760,-2.752360,0.004670,-1.618000,0.002954,-0.003000,0.010236,0.595045,0.001772,-1.284000,0.061955,-0.007000,0.000000,0.000000,-0.000138,-1.327429,-0.000003,-0.000038,1626.000000,1692875332.219059,1.019886,-1.570003,0.000048,0.005257,0.000153,-0.000048,,,,,,,,,
1692875332.271590,,,,,,,,,,,,,,,,,,,,,,,,,,,,,,,,,,,,,,,,,,,2444.000000,1692875332.239127,0.000000,0.000000,0.000000,0.000000,0.000000,0.000000
1692875332.271785,,,,,,,,,,,,,,,,,,,,,,,,,,,,,,,,,,,,,,,,,,,2445.000000,1692875332.248843,0.000000,0.000000,0.000000,0.000000,0.000000,0.000000
1692875332.280187,,,,,,,,,,,,,,,,,,,,,,,,,,,,,,,,,,,,,,,,,,0.000000,,,,,,,,
1692875332.281069,3.138377,-0.026036,0.001749,-176.959072,0.000943,-0.000008,0.414000,-0.260163,0.996346,-0.035061,-0.000197,-0.001009,-0.053940,-0.000197,0.002672,-0.474720,-2.752391,-0.000932,-1.626000,-0.001046,-0.017000,0.006141,0.595045,-0.001181,-1.279000,0.066955,-0.009999,0.001840,0.000000,-0.000138,-1.334000,-0.000003,-0.000038,1627.000000,1692875332.239062,1.125029,-1.570003,0.000048,-0.010514,0.000153,-0.000048,,,,,,,,,
1692875332.281448,,,,,,,,,,,,,,,,,,,,,,,,,,,,,,,,,,,,,,,,,,,2446.000000,1692875332.258895,0.000000,0.000000,0.000000,0.000000,0.000000,0.000000
1692875332.283589,3.397213,-0.025652,0.000230,-175.794868,0.000943,-0.000008,0.386400,-0.240022,0.992163,-0.026970,-0.000197,-0.001167,-0.037758,-0.000197,0.003721,-0.452640,-2.752401,0.001947,-1.626000,-0.001227,-0.014999,0.000817,0.596227,0.001772,-1.279000,0.065773,0.004999,-0.044160,0.000000,-0.000138,-1.255143,-0.000003,-0.000038,1628.000000,1692875332.259062,1.019886,-1.570003,0.000048,0.005257,0.000153,-0.000048,,,,,,,,,
1692875332.293139,,,,,,,,,,,,,,,,,,,,,,,,,,,,,,,,,,,,,,,,,,,2447.000000,1692875332.268956,0.000000,0.000000,0.000000,0.000000,0.000000,0.000000
1692875332.300214,2.669238,-0.025652,0.001195,-174.921715,0.000943,-0.000008,0.546480,-0.220151,0.999756,-0.021576,-0.000178,0.004097,-0.048546,-0.000217,-0.000930,-0.905280,-2.752401,0.002125,-1.623000,0.001364,-0.014999,-0.001225,0.595636,0.001181,-1.274000,0.068363,0.004999,-0.020240,0.000000,-0.000138,-1.235429,-0.000003,-0.000038,1629.000000,1692875332.279068,1.072457,-1.570003,0.000048,0.042057,0.000153,-0.000048,,,,,,,,,
1692875332.303931,,,,,,,,,,,,,,,,,,,,,,,,,,,,,,,,,,,,,,,,,,,2449.000000,1692875332.288936,0.000000,0.000000,0.000000,0.000000,0.000000,0.000000
1692875332.316855,2.022150,-0.025652,0.001791,-174.048561,0.000943,-0.000008,0.927360,-0.200164,0.999669,-0.070122,-0.000178,0.002909,-0.064728,-0.000217,-0.000653,-0.783840,-2.752433,-0.005843,-1.620000,0.003545,0.000000,0.000408,0.594454,-0.004727,-1.269000,0.070546,0.023000,-0.014720,0.000000,-0.000138,-1.320857,0.000002,0.000103,1630.000000,1692875332.299065,1.061943,-1.570003,0.000048,-0.036800,0.000153,-0.000048,,,,,,,,,
1692875332.324492,,,,,,,,,,,,,,,,,,,,,,,,,,,,,,,,,,,,,,,,,,,2451.000000,1692875332.309216,0.000000,0.000000,0.000000,0.000000,0.000000,0.000000
1692875332.340625,2.863365,-0.025652,0.000038,-172.884357,0.000943,-0.000008,0.513360,-0.180048,0.997859,-0.035061,-0.000197,-0.001543,-0.053940,-0.000217,-0.000653,-0.618240,-2.752443,-0.001528,-1.618000,0.004545,0.000000,0.002046,0.594454,-0.004727,-1.266000,0.071546,0.017000,-0.003680,0.000000,-0.000138,-1.268286,0.000002,0.000038,1631.000000,1692875332.319065,1.025143,-1.570003,0.000048,0.015771,0.000153,-0.000048,,,,,,,,,
1692875332.345068,,,,,,,,,,,,,,,,,,,,,,,,,,,,,,,,,,,,,,,,,,,2453.000000,1692875332.328958,0.000000,0.000000,0.000000,0.000000,0.000000,0.000000
1692875332.413918,2.572175,-0.025652,0.000046,-172.011204,0.000943,-0.000008,0.734160,-0.160244,0.978858,-0.051243,-0.000197,-0.001088,-0.051243,-0.000217,-0.000653,-0.563040,-2.752454,0.000481,-1.616000,0.006546,0.013000,0.004091,0.594454,-0.004727,-1.264000,0.072545,0.019999,-0.001840,0.000000,-0.000138,-1.255143,0.000002,0.000038,1632.000000,1692875332.339077,1.056686,-1.570003,0.000048,-0.026286,0.000153,-0.000048,,,,,,,,,
1692875332.439115,,,,,,,,,,,,,,,,,,,,,,,,,,,,,,,,,,,,,,,,,,,2462.000000,1692875332.418931,0.000000,0.000000,0.000000,0.000000,0.000000,0.000000
1692875332.439137,,,,,,,,,,,,,,,,,,,,,,,,,,,,,,,,,,,,,,,,,,0.000000,,,,,,,,
1692875332.439143,2.847188,-0.026036,0.001803,-167.354386,0.000943,-0.000008,0.850080,-0.089840,0.732031,-0.029667,-0.000197,-0.000653,-0.067425,-0.000217,-0.001385,-0.783840,-2.752506,-0.004105,-1.623000,0.001364,-0.016000,0.007778,0.595636,-0.001181,-1.273000,0.064364,-0.012000,0.033120,0.000000,-0.000138,-1.288000,0.000002,0.000038,1636.000000,1692875332.419061,1.035657,-1.569998,0.000048,-0.005257,0.000153,-0.000048,,,,,,,,,
1692875332.454509,,,,,,,,,,,,,,,,,,,,,,,,,,,,,,,,,,,,,,,,,,,2465.000000,1692875332.449044,0.000000,0.000000,0.000000,0.000000,0.000000,0.000000
1692875332.454524,3.186909,-0.026036,0.002173,-166.772284,0.000943,-0.000008,0.789360,-0.076474,0.679962,-0.013485,-0.000197,0.002988,-0.094395,-0.000217,-0.000574,-0.287040,-2.752506,0.008691,-1.618000,0.005772,-0.001000,0.000408,0.596227,0.001772,-1.271000,0.066772,-0.012000,-0.020240,0.000000,-0.000138,-1.314286,0.000002,0.000038,1637.000000,1692875332.439062,1.014629,-1.569998,0.000048,-0.063086,0.000153,-0.000048,,,,,,,,,
1692875332.462874,,,,,,,,,,,,,,,,,,,,,,,,,,,,,,,,,,,,,,,,,,,2466.000000,1692875332.459155,0.000000,0.000000,0.000000,0.000000,0.000000,0.000000
1692875332.470990,3.801643,-0.026036,0.001193,-166.190182,0.000943,-0.000008,0.033120,-0.063542,0.603524,-0.024273,-0.000217,-0.001722,-0.056637,-0.000217,-0.001068,-0.220800,-2.752527,-0.000094,-1.620000,0.003363,0.004000,0.000817,0.595636,0.001181,-1.271000,0.066364,0.007000,0.007360,0.000000,-0.000138,-1.288000,0.000002,0.000038,1638.000000,1692875332.459062,1.082971,-1.569998,0.000048,-0.052571,0.000153,-0.000048,,,,,,,,,
1692875332.473348,,,,,,,,,,,,,,,,,,,,,,,,,,,,,,,,,,,,,,,,,,,2467.000000,1692875332.469197,0.000000,0.000000,0.000000,0.000000,0.000000,0.000000
1692875332.476600,,,,,,,,,,,,,,,,,,,,,,,,,,,,,,,,,,,,,,,,,,0.000000,,,,,,,,
1692875332.482720,,,,,,,,,,,,,,,,,,,,,,,,,,,,,,,,,,,,,,,,,,,2468.000000,1692875332.479197,0.000000,0.000000,0.000000,0.000000,0.000000,0.000000
1692875332.490458,2.766302,-0.025652,0.000052,-164.734926,0.000943,-0.000008,0.529920,-0.053357,0.493256,-0.013485,-0.000197,0.001880,-0.070122,-0.000217,-0.000653,-0.154560,-2.752548,-0.000094,-1.608000,0.010364,0.052999,0.025795,0.595636,0.009454,-1.273000,0.066364,-0.003000,0.007360,0.000000,-0.000138,-1.353714,0.000002,0.000038,1639.000000,1692875332.479065,1.014629,-1.569998,0.000048,-0.152457,0.000153,-0.000048,,,,,,,,,
1692875332.496328,,,,,,,,,,,,,,,,,,,,,,,,,,,,,,,,,,,,,,,,,,,2469.000000,1692875332.488931,0.000000,0.000000,0.000000,0.000000,0.000000,0.000000
1692875332.507455,,,,,,,,,,,,,,,,,,,,,,,,,,,,,,,,,,,,,,,,,,,2470.000000,1692875332.498914,0.000000,0.000000,0.000000,0.000000,0.000000,0.000000
1692875332.510660,2.960428,-0.025652,0.000020,-162.988619,0.000943,-0.000008,0.971520,-0.044004,0.520924,-0.037758,-0.000197,0.000653,-0.067425,-0.000217,-0.000653,-0.850080,-2.752559,-0.006387,-1.608000,0.008363,0.035000,0.003275,0.595636,0.000590,-1.271000,0.066364,-0.003000,-0.012880,0.000000,-0.000138,-1.320857,0.000002,0.000038,1640.000000,1692875332.499062,1.014629,-1.569998,0.000048,-0.026286,0.000153,-0.000048,,,,,,,,,
1692875332.520180,,,,,,,,,,,,,,,,,,,,,,,,,,,,,,,,,,,,,,,,,,,2471.000000,1692875332.508990,0.000000,0.000000,0.000000,0.000000,0.000000,0.000000
1692875332.532451,,,,,,,,,,,,,,,,,,,,,,,,,,,,,,,,,,,,,,,,,,,2472.000000,1692875332.523112,0.000000,0.000000,0.000000,0.000000,0.000000,0.000000
1692875332.532465,3.300149,-0.026036,0.002383,-162.406517,0.000943,-0.000008,0.894240,-0.035844,0.336407,-0.037758,-0.000197,0.001286,-0.037758,-0.000217,0.001741,-0.761760,-2.752559,0.002324,-1.610000,0.005364,0.032000,0.016376,0.595636,0.005909,-1.269000,0.068363,-0.007000,-0.020240,0.000000,-0.000138,-1.353714,0.000002,0.000038,1641.000000,1692875332.519062,0.962057,-1.569998,0.000048,-0.047314,0.000153,-0.000048,,,,,,,,,
1692875332.539234,,,,,,,,,,,,,,,,,,,,,,,,,,,,,,,,,,,,,,,,,,,2473.000000,1692875332.528976,0.000000,0.000000,0.000000,0.000000,0.000000,0.000000
1692875332.551562,,,,,,,,,,,,,,,,,,,,,,,,,,,,,,,,,,,,,,,,,,,2474.000000,1692875332.545301,0.000000,0.000000,0.000000,0.000000,0.000000,0.000000
1692875332.551571,2.831010,-0.025652,0.000086,-162.406517,0.000943,-0.000008,0.491280,-0.028941,0.317805,-0.043152,-0.000217,-0.002968,-0.078213,-0.000217,0.001187,-0.220800,-2.752580,0.003110,-1.611000,0.003591,0.009999,0.013919,0.597409,0.008863,-1.274000,0.065590,0.003000,-0.018400,0.000000,-0.000138,-1.255143,0.000002,0.000038,1642.000000,1692875332.539064,1.109257,-1.569998,0.000048,0.005257,0.000153,-0.000048,,,,,,,,,
1692875332.558459,,,,,,,,,,,,,,,,,,,,,,,,,,,,,,,,,,,,,,,,,,,2475.000000,1692875332.549435,0.000000,0.000000,0.000000,0.000000,0.000000,0.000000
1692875332.569346,,,,,,,,,,,,,,,,,,,,,,,,,,,,,,,,,,,,,,,,,,,2476.000000,1692875332.558951,0.000000,0.000000,0.000000,0.000000,0.000000,0.000000
1692875332.573390,1.569189,-0.025652,0.001009,-160.951262,0.000943,-0.000008,0.149040,-0.022549,0.344179,-0.026970,-0.000197,0.001979,-0.094395,-0.000237,-0.003028,-0.452640,-2.752590,-0.000565,-1.610000,0.003773,0.008999,0.000408,0.596227,0.002954,-1.274000,0.065773,-0.002000,0.012880,0.000000,-0.000138,-1.301143,0.000002,0.000038,1643.000000,1692875332.559094,1.051429,-1.569998,0.000048,-0.052571,0.000153,-0.000048,,,,,,,,,
1692875332.587758,,,,,,,,,,,,,,,,,,,,,,,,,,,,,,,,,,,,,,,,,,,2477.000000,1692875332.569264,0.000000,0.000000,0.000000,0.000000,0.000000,0.000000
1692875332.592847,,,,,,,,,,,,,,,,,,,,,,,,,,,,,,,,,,,,,,,,,,0.000000,,,,,,,,
1692875332.594424,1.100050,-0.025652,0.000719,-159.204955,0.000943,-0.000008,1.081920,-0.018044,0.208340,-0.043152,-0.000197,0.001682,-0.078213,-0.000237,-0.001741,-0.231840,-2.752611,-0.003675,-1.615000,0.001772,-0.014999,0.002866,0.596227,0.002954,-1.269000,0.069773,0.013000,0.000000,0.000000,-0.000138,-1.393143,0.000002,0.000038,1644.000000,1692875332.579063,1.030400,-1.569998,0.000048,-0.110400,0.000153,-0.000048,,,,,,,,,
1692875332.594443,,,,,,,,,,,,,,,,,,,,,,,,,,,,,,,,,,,,,,,,,,,2479.000000,1692875332.589456,0.000000,0.000000,0.000000,0.000000,0.000000,0.000000
1692875332.603603,,,,,,,,,,,,,,,,,,,,,,,,,,,,,,,,,,,,,,,,,,,2480.000000,1692875332.599162,0.000000,0.000000,0.000000,0.000000,0.000000,0.000000
1692875332.607032,3.122200,-0.025652,0.000024,-158.331802,0.000943,-0.000008,0.634800,-0.013667,0.199754,-0.043152,-0.000217,-0.001524,-0.083607,-0.000237,-0.001702,-0.110400,-2.752611,0.003476,-1.616000,0.001000,-0.004999,0.012281,0.597999,0.011227,-1.269000,0.069000,0.026000,0.003680,0.000000,-0.000138,-1.426000,0.000002,0.000038,1645.000000,1692875332.599067,0.993600,-1.569998,0.000048,-0.120914,0.000153,-0.000048,,,,,,,,,
1692875332.614235,,,,,,,,,,,,,,,,,,,,,,,,,,,,,,,,,,,,,,,,,,,2481.000000,1692875332.609015,0.000000,0.000000,0.000000,0.000000,0.000000,0.000000
1692875332.623568,,,,,,,,,,,,,,,,,,,,,,,,,,,,,,,,,,,,,,,,,,,2482.000000,1692875332.620425,0.000000,0.000000,0.000000,0.000000,0.000000,0.000000
1692875332.627810,2.911896,-0.025652,0.000018,-157.749699,0.000943,-0.000008,0.104880,-0.010016,0.143094,-0.035061,-0.000217,-0.001524,-0.080910,-0.000237,-0.000653,-0.375360,-2.752611,0.005078,-1.618000,0.000000,-0.014000,0.003275,0.597999,0.011227,-1.282000,0.059001,0.009999,0.009200,0.000000,-0.000138,-1.294571,0.000002,0.000038,1646.000000,1692875332.619061,1.056686,-1.569998,0.000048,0.068343,0.000153,-0.000048,,,,,,,,,
1692875332.636810,,,,,,,,,,,,,,,,,,,,,,,,,,,,,,,,,,,,,,,,,,,2483.000000,1692875332.628939,0.000000,0.000000,0.000000,0.000000,0.000000,0.000000
1692875332.650702,,,,,,,,,,,,,,,,,,,,,,,,,,,,,,,,,,,,,,,,,,,2484.000000,1692875332.638958,0.000000,0.000000,0.000000,0.000000,0.000000,0.000000
1692875332.651882,2.572175,-0.025652,0.000018,-156.876546,0.000943,-0.000008,0.138000,-0.007393,0.127085,-0.045849,-0.000197,0.000930,-0.059334,-0.000237,0.000455,-0.364320,-2.752632,-0.000429,-1.615000,0.003001,-0.013000,0.006549,0.597999,0.011227,-1.279000,0.062001,-0.008999,-0.007360,0.000000,-0.000138,-1.353714,0.000002,0.000038,1647.000000,1692875332.639065,1.067200,-1.569998,0.000048,0.005257,0.000153,-0.000048,,,,,,,,,
1692875332.659795,,,,,,,,,,,,,,,,,,,,,,,,,,,,,,,,,,,,,,,,,,,2485.000000,1692875332.648958,0.000000,0.000000,0.000000,0.000000,0.000000,0.000000
1692875332.665173,,,,,,,,,,,,,,,,,,,,,,,,,,,,,,,,,,,,,,,,,,,2486.000000,1692875332.658986,0.000000,0.000000,0.000000,0.000000,0.000000,0.000000
1692875332.667500,2.103036,-0.025652,0.000127,-156.585495,0.000944,0.000008,0.182160,-0.004949,0.127862,-0.051243,-0.000197,0.001068,-0.089001,-0.000237,0.002454,-0.342240,-2.752642,-0.000188,-1.616000,0.003001,0.016000,0.006549,0.597999,0.011227,-1.282000,0.061000,-0.017000,0.011040,0.000000,-0.000138,-1.327429,0.000002,0.000038,1648.000000,1692875332.659068,1.019886,-1.569998,0.000048,0.057829,0.000153,-0.000048,,,,,,,,,
1692875332.674262,,,,,,,,,,,,,,,,,,,,,,,,,,,,,,,,,,,,,,,,,,,2487.000000,1692875332.669756,0.000000,0.000000,0.000000,0.000000,0.000000,0.000000
1692875332.691619,,,,,,,,,,,,,,,,,,,,,,,,,,,,,,,,,,,,,,,,,,,2488.000000,1692875332.678944,0.000000,0.000000,0.000000,0.000000,0.000000,0.000000
1692875332.695415,2.491289,-0.025652,0.000967,-155.712342,0.000944,0.000008,0.430560,-0.003390,0.078775,-0.040455,-0.000217,-0.002296,-0.113274,-0.000237,0.002474,-0.397440,-2.752653,-0.000513,-1.615000,0.003591,0.009999,0.010236,0.597409,0.011227,-1.276000,0.066590,0.008000,-0.007360,0.000000,-0.000138,-1.360286,0.000002,0.000038,1649.000000,1692875332.679066,1.125029,-1.569998,0.000048,-0.015771,0.000153,-0.000048,,,,,,,,,
1692875332.707018,,,,,,,,,,,,,,,,,,,,,,,,,,,,,,,,,,,,,,,,,,0.000000,,,,,,,,
1692875332.707501,,,,,,,,,,,,,,,,,,,,,,,,,,,,,,,,,,,,,,,,,,,2489.000000,1692875332.689178,0.000000,0.000000,0.000000,0.000000,0.000000,0.000000
1692875332.721346,,,,,,,,,,,,,,,,,,,,,,,,,,,,,,,,,,,,,,,,,,,2490.000000,1692875332.698848,0.000000,0.000000,0.000000,0.000000,0.000000,0.000000
1692875332.721363,2.070682,-0.025652,0.000638,-155.712342,0.000944,0.000008,0.364320,-0.001897,0.073160,-0.032364,-0.000217,-0.001642,-0.064728,-0.000257,-0.001820,-0.728640,-2.752663,-0.006586,-1.616000,0.002001,0.000000,0.000408,0.597999,0.008272,-1.273000,0.070000,0.003000,-0.033120,0.000000,-0.000138,-1.202571,-0.000003,-0.000038,1650.000000,1692875332.699062,1.051429,-1.569998,0.000048,-0.057829,0.000153,-0.000048,,,,,,,,,
1692875332.723982,,,,,,,,,,,,,,,,,,,,,,,,,,,,,,,,,,,,,,,,,,,2491.000000,1692875332.709081,0.000000,0.000000,0.000000,0.000000,0.000000,0.000000
1692875332.729469,,,,,,,,,,,,,,,,,,,,,,,,,,,,,,,,,,,,,,,,,,,2492.000000,1692875332.718969,0.000000,0.000000,0.000000,0.000000,0.000000,0.000000
1692875332.731308,2.183922,-0.025652,0.000969,-155.712342,0.000944,0.000008,0.082800,-0.000736,0.052042,-0.018879,-0.000217,-0.001603,-0.070122,-0.000257,-0.001623,-0.540960,-2.752674,-0.001696,-1.616000,0.001181,-0.014999,0.010644,0.596818,0.010636,-1.277000,0.065182,0.020999,0.007360,0.000000,-0.000138,-1.366857,-0.000003,-0.000038,1651.000000,1692875332.719062,1.093486,-1.569998,0.000048,-0.036800,0.000153,-0.000048,,,,,,,,,
1692875332.735799,,,,,,,,,,,,,,,,,,,,,,,,,,,,,,,,,,,,,,,,,,,2493.000000,1692875332.728975,0.000000,0.000000,0.000000,0.000000,0.000000,0.000000
1692875332.744241,,,,,,,,,,,,,,,,,,,,,,,,,,,,,,,,,,,,,,,,,,,2494.000000,1692875332.739023,0.000000,0.000000,0.000000,0.000000,0.000000,0.000000
1692875332.757612,1.310353,-0.025268,-0.001347,-155.421291,0.000944,0.000008,0.215280,-0.000046,0.034903,-0.021576,-0.000197,0.001702,-0.080910,-0.000257,0.000653,-0.253920,-2.752674,0.007403,-1.611000,0.004773,-0.009999,-0.000408,0.596227,0.001772,-1.276000,0.065773,-0.004999,-0.046000,0.000000,-0.000138,-1.432571,-0.000003,-0.000038,1652.000000,1692875332.739062,1.035657,-1.569998,0.000048,-0.141943,0.000153,-0.000048,,,,,,,,,
1692875332.763847,,,,,,,,,,,,,,,,,,,,,,,,,,,,,,,,,,,,,,,,,,,2495.000000,1692875332.748975,0.000000,0.000000,0.000000,0.000000,0.000000,0.000000
1692875332.783705,1.779492,-0.025652,0.001112,-154.548137,0.000944,0.000008,0.093840,0.000655,0.030505,-0.040455,-0.000197,0.000653,-0.064728,-0.000277,-0.002117,-0.540960,-2.752695,-0.004660,-1.610000,0.005364,0.004999,0.009415,0.595636,0.001772,-1.276000,0.066364,-0.004999,0.012880,0.000000,-0.000138,-1.412857,-0.000003,-0.000038,1653.000000,1692875332.759085,1.014629,-1.569998,0.000048,-0.152457,0.000153,-0.000048,,,,,,,,,
1692875332.787785,,,,,,,,,,,,,,,,,,,,,,,,,,,,,,,,,,,,,,,,,,,2496.000000,1692875332.759189,0.000000,0.000000,0.000000,0.000000,0.000000,0.000000
1692875332.802892,,,,,,,,,,,,,,,,,,,,,,,,,,,,,,,,,,,,,,,,,,,2497.000000,1692875332.772987,0.000000,0.000000,0.000000,0.000000,0.000000,0.000000
1692875332.811619,2.976605,-0.025652,0.000018,-154.257086,0.000944,0.000008,0.353280,0.001003,0.018479,-0.037758,-0.000197,0.001108,-0.070122,-0.000257,0.002830,-0.331200,-2.752705,-0.005005,-1.600000,0.012363,0.004999,0.002454,0.595636,-0.001181,-1.276000,0.066364,-0.004999,-0.029440,0.000000,-0.000138,-1.255143,-0.000003,-0.000038,1654.000000,1692875332.779062,0.998857,-1.569998,0.000048,-0.010514,0.000153,-0.000048,,,,,,,,,
1692875332.817887,,,,,,,,,,,,,,,,,,,,,,,,,,,,,,,,,,,,,,,,,,,2498.000000,1692875332.778892,0.000000,0.000000,0.000000,0.000000,0.000000,0.000000
1692875332.817898,,,,,,,,,,,,,,,,,,,,,,,,,,,,,,,,,,,,,,,,,,,2499.000000,1692875332.788935,0.000000,0.000000,0.000000,0.000000,0.000000,0.000000
1692875332.823703,,,,,,,,,,,,,,,,,,,,,,,,,,,,,,,,,,,,,,,,,,0.000000,,,,,,,,
1692875332.823814,,,,,,,,,,,,,,,,,,,,,,,,,,,,,,,,,,,,,,,,,,,2500.000000,1692875332.799168,0.000000,0.000000,0.000000,0.000000,0.000000,0.000000
1692875332.823823,,,,,,,,,,,,,,,,,,,,,,,,,,,,,,,,,,,,,,,,,,,2501.000000,1692875332.809092,0.000000,0.000000,0.000000,0.000000,0.000000,0.000000
1692875332.836608,3.041314,-0.026036,0.001074,-154.839188,0.000944,0.000008,0.436080,0.001274,0.013933,-0.021576,-0.000217,-0.001801,-0.067425,-0.000257,0.003166,-0.540960,-2.752716,-0.003351,-1.603000,0.006954,0.023000,0.008598,0.595045,-0.001181,-1.276000,0.064955,0.000000,-0.007360,0.000000,-0.000138,-1.386571,-0.000003,-0.000038,1655.000000,1692875332.799065,0.962057,-1.569998,0.000048,-0.120914,0.000153,-0.000048,,,,,,,,,
1692875332.836630,,,,,,,,,,,,,,,,,,,,,,,,,,,,,,,,,,,,,,,,,,,2502.000000,1692875332.818986,0.000000,0.000000,0.000000,0.000000,0.000000,0.000000
1692875332.844085,,,,,,,,,,,,,,,,,,,,,,,,,,,,,,,,,,,,,,,,,,,2503.000000,1692875332.829140,0.000000,0.000000,0.000000,0.000000,0.000000,0.000000
1692875332.856374,,,,,,,,,,,,,,,,,,,,,,,,,,,,,,,,,,,,,,,,,,,2504.000000,1692875332.838956,0.000000,0.000000,0.000000,0.000000,0.000000,0.000000
1692875332.856411,1.455948,-0.025652,0.001074,-153.966035,0.000944,0.000008,0.121440,0.001458,0.003952,-0.024273,-0.000217,-0.002098,-0.083607,-0.000257,0.002810,-0.386400,-2.752716,0.003906,-1.605000,0.006363,0.007000,0.001637,0.595636,-0.005909,-1.279000,0.064364,-0.014000,-0.018400,0.000000,-0.000138,-1.274857,-0.000003,-0.000038,1656.000000,1692875332.819089,0.914743,-1.569998,0.000048,0.005257,0.000153,-0.000048,,,,,,,,,
1692875332.871128,,,,,,,,,,,,,,,,,,,,,,,,,,,,,,,,,,,,,,,,,,,2505.000000,1692875332.849067,0.000000,0.000000,0.000000,0.000000,0.000000,0.000000
1692875332.874438,2.733947,-0.025268,-0.000040,-153.674984,0.000944,0.000008,0.287040,0.001468,0.000046,-0.018879,-0.000197,0.002098,-0.072819,-0.000257,0.002870,-0.673440,-2.752726,-0.004911,-1.606000,0.005364,-0.008000,0.008598,0.595636,0.000000,-1.279000,0.064364,-0.014000,0.005520,0.000000,-0.000138,-1.281429,-0.000003,-0.000038,1657.000000,1692875332.839063,1.056686,-1.569998,0.000048,-0.120914,0.000153,-0.000048,,,,,,,,,
1692875332.877429,,,,,,,,,,,,,,,,,,,,,,,,,,,,,,,,,,,,,,,,,,,2506.000000,1692875332.858804,0.000000,0.000000,0.000000,0.000000,0.000000,0.000000
1692875332.884092,,,,,,,,,,,,,,,,,,,,,,,,,,,,,,,,,,,,,,,,,,,2507.000000,1692875332.869001,0.000000,0.000000,0.000000,0.000000,0.000000,0.000000
1692875332.889860,1.310353,-0.025652,0.000018,-153.674984,0.000944,0.000008,0.281520,0.001514,0.003589,-0.040455,-0.000197,0.001108,-0.078213,-0.000277,-0.002236,-0.816960,-2.752726,-0.003068,-1.610000,0.003954,-0.017999,0.001225,0.595045,-0.002954,-1.279000,0.064955,-0.014000,0.003680,0.000000,-0.000138,-1.274857,-0.000003,-0.000038,1658.000000,1692875332.859069,1.014629,-1.569998,0.000048,0.000000,0.000153,-0.000048,,,,,,,,,
1692875332.889880,,,,,,,,,,,,,,,,,,,,,,,,,,,,,,,,,,,,,,,,,,,2508.000000,1692875332.878969,0.000000,0.000000,0.000000,0.000000,0.000000,0.000000
1692875332.906695,,,,,,,,,,,,,,,,,,,,,,,,,,,,,,,,,,,,,,,,,,,2509.000000,1692875332.888996,0.000000,0.000000,0.000000,0.000000,0.000000,0.000000
1692875332.909612,0.064709,-0.025268,0.000121,-153.674984,0.000944,0.000008,0.093840,0.001540,0.000046,-0.029667,-0.000217,-0.001682,-0.075516,-0.000277,-0.001524,-0.684480,-2.752737,-0.003141,-1.616000,-0.000227,-0.012000,0.008186,0.596227,0.000000,-1.281000,0.063773,-0.014000,0.000000,0.000000,-0.000138,-1.380000,-0.000003,-0.000038,1659.000000,1692875332.879088,1.035657,-1.569998,0.000048,-0.042057,0.000153,-0.000048,,,,,,,,,
1692875332.928012,,,,,,,,,,,,,,,,,,,,,,,,,,,,,,,,,,,,,,,,,,,2510.000000,1692875332.899050,0.000000,0.000000,0.000000,0.000000,0.000000,0.000000
1692875332.928030,,,,,,,,,,,,,,,,,,,,,,,,,,,,,,,,,,,,,,,,,,0.000000,,,,,,,,
1692875332.934331,0.841215,-0.025268,-0.000593,-153.092882,0.000944,0.000008,0.187680,0.001540,0.000046,-0.032364,-0.000178,0.005007,-0.132153,-0.000257,0.003028,-0.276000,-2.752757,-0.001476,-1.618000,-0.000045,-0.019999,-0.001637,0.595045,-0.003545,-1.279000,0.063954,-0.014000,0.005520,0.000000,-0.000138,-1.196000,-0.000003,-0.000038,1660.000000,1692875332.899061,0.983086,-1.569998,0.000048,-0.094629,0.000153,-0.000048,,,,,,,,,
1692875332.934348,,,,,,,,,,,,,,,,,,,,,,,,,,,,,,,,,,,,,,,,,,,2511.000000,1692875332.908843,0.000000,0.000000,0.000000,0.000000,0.000000,0.000000
1692875332.954111,,,,,,,,,,,,,,,,,,,,,,,,,,,,,,,,,,,,,,,,,,,2512.000000,1692875332.918959,0.000000,0.000000,0.000000,0.000000,0.000000,0.000000
1692875332.954128,0.016177,-0.025268,0.000226,-152.510780,0.000944,0.000008,0.066240,0.001540,0.000046,-0.032364,-0.000197,-0.000158,-0.067425,-0.000277,-0.001246,-0.209760,-2.752757,0.000973,-1.616000,0.001955,-0.012000,0.002866,0.595045,-0.003545,-1.277000,0.064955,-0.017999,0.022080,0.000000,-0.000138,-1.281429,-0.000003,-0.000038,1661.000000,1692875332.919063,1.051429,-1.569998,0.000048,-0.141943,0.000153,-0.000048,,,,,,,,,
1692875332.959878,,,,,,,,,,,,,,,,,,,,,,,,,,,,,,,,,,,,,,,,,,,2513.000000,1692875332.928965,0.000000,0.000000,0.000000,0.000000,0.000000,0.000000
1692875332.967052,,,,,,,,,,,,,,,,,,,,,,,,,,,,,,,,,,,,,,,,,,,2514.000000,1692875332.939091,0.000000,0.000000,0.000000,0.000000,0.000000,0.000000
1692875332.979500,0.452962,-0.025268,-0.000975,-152.219728,0.000944,0.000008,0.011040,0.001540,0.000046,-0.045849,-0.000217,-0.003978,-0.067425,-0.000277,-0.000653,-0.695520,-2.752757,-0.004942,-1.616000,0.003545,-0.012000,0.000817,0.594454,-0.005909,-1.276000,0.066546,-0.013000,-0.001840,0.000000,-0.000138,-1.196000,-0.000003,-0.000038,1662.000000,1692875332.939065,1.056686,-1.569998,0.000048,-0.084114,0.000153,-0.000048,,,,,,,,,
1692875332.979523,,,,,,,,,,,,,,,,,,,,,,,,,,,,,,,,,,,,,,,,,,,2516.000000,1692875332.958985,0.000000,0.000000,0.000000,0.000000,0.000000,0.000000
1692875332.983817,,,,,,,,,,,,,,,,,,,,,,,,,,,,,,,,,,,,,,,,,,,2517.000000,1692875332.969181,0.000000,0.000000,0.000000,0.000000,0.000000,0.000000
1692875332.983835,0.388253,-0.025268,-0.000622,-151.346575,0.000944,0.000008,-0.038640,0.001540,0.000046,-0.018879,-0.000217,-0.002394,-0.053940,-0.000277,-0.000653,-0.353280,-2.752768,-0.001277,-1.610000,0.006363,-0.002000,0.013102,0.595636,0.002954,-1.281000,0.063363,-0.017000,-0.009200,0.000000,-0.000138,-1.202571,-0.000003,-0.000038,1663.000000,1692875332.959064,0.988343,-1.569998,0.000048,-0.152457,0.000153,-0.000048,,,,,,,,,
1692875333.014511,,,,,,,,,,,,,,,,,,,,,,,,,,,,,,,,,,,,,,,,,,,2518.000000,1692875332.979596,0.000000,0.000000,0.000000,0.000000,0.000000,0.000000
1692875333.014531,-0.048532,-0.025268,-0.001409,-151.637626,0.000944,0.000008,-0.292560,0.001529,-0.001314,-0.021576,-0.000197,0.002394,-0.078213,-0.000257,0.003760,-0.574080,-2.752779,-0.006335,-1.608000,0.006363,0.013000,0.007370,0.595636,0.000000,-1.286000,0.059363,-0.012000,-0.055200,0.000000,-0.000138,-1.320857,0.000002,0.000038,1664.000000,1692875332.979063,1.019886,-1.569998,0.000048,-0.010514,0.000153,-0.000048,,,,,,,,,
1692875333.018188,,,,,,,,,,,,,,,,,,,,,,,,,,,,,,,,,,,,,,,,,,,2519.000000,1692875332.988956,0.000000,0.000000,0.000000,0.000000,0.000000,0.000000
1692875333.027217,,,,,,,,,,,,,,,,,,,,,,,,,,,,,,,,,,,,,,,,,,0.000000,,,,,,,,
1692875333.039692,0.792683,-0.025652,0.000034,-151.346575,0.000944,0.000008,-0.220800,0.001519,-0.000046,-0.026970,-0.000197,0.002751,-0.078213,-0.000257,0.001741,-0.253920,-2.752779,0.000544,-1.606000,0.007363,0.013000,0.006549,0.595636,0.000000,-1.281000,0.063363,-0.014999,0.018400,0.000000,-0.000138,-1.327429,0.000002,0.000038,1665.000000,1692875332.999062,0.935771,-1.569998,0.000048,-0.047314,0.000153,-0.000048,,,,,,,,,
1692875333.039714,,,,,,,,,,,,,,,,,,,,,,,,,,,,,,,,,,,,,,,,,,,2522.000000,1692875333.018898,0.000000,0.000000,0.000000,0.000000,0.000000,0.000000
1692875333.064815,1.051518,-0.025652,0.000018,-151.346575,0.000944,0.000008,-0.281520,0.001499,-0.000061,-0.040455,-0.000197,0.001108,-0.072819,-0.000277,-0.002078,-0.331200,-2.752799,-0.001151,-1.610000,0.004364,0.002000,0.011052,0.595636,0.002954,-1.287000,0.060364,-0.028000,-0.001840,0.000000,-0.000138,-1.366857,0.000002,0.000038,1667.000000,1692875333.039066,0.925257,-1.569998,0.000048,-0.126171,0.000153,-0.000048,,,,,,,,,
1692875333.075883,,,,,,,,,,,,,,,,,,,,,,,,,,,,,,,,,,,,,,,,,,,2524.000000,1692875333.039133,0.000000,0.000000,0.000000,0.000000,0.000000,0.000000
1692875333.086460,,,,,,,,,,,,,,,,,,,,,,,,,,,,,,,,,,,,,,,,,,,2526.000000,1692875333.058933,0.000000,0.000000,0.000000,0.000000,0.000000,0.000000
1692875333.087579,0.307367,-0.025652,-0.001193,-150.473422,0.000944,0.000008,-0.093840,0.001493,-0.000046,-0.026970,-0.000197,0.002652,-0.062031,-0.000277,-0.001919,-0.209760,-2.752810,-0.004471,-1.613000,0.002363,0.002000,0.005732,0.595636,0.000000,-1.289000,0.061364,-0.020999,0.012880,0.000000,-0.000138,-1.274857,0.000002,0.000038,1668.000000,1692875333.059057,1.009371,-1.569998,0.000048,-0.094629,0.000153,-0.000048,,,,,,,,,
1692875333.092934,,,,,,,,,,,,,,,,,,,,,,,,,,,,,,,,,,,,,,,,,,,2527.000000,1692875333.069181,0.000000,0.000000,0.000000,0.000000,0.000000,0.000000
1692875333.106682,,,,,,,,,,,,,,,,,,,,,,,,,,,,,,,,,,,,,,,,,,,2529.000000,1692875333.089224,0.000000,0.000000,0.000000,0.000000,0.000000,0.000000
1692875333.116579,1.536834,-0.025652,0.000018,-149.891320,0.000944,0.000008,-0.055200,0.001493,-0.000046,-0.048546,-0.000217,-0.002870,-0.094395,-0.000277,-0.002553,-0.364320,-2.752810,0.000565,-1.611000,0.002954,-0.008000,0.000408,0.595045,-0.005318,-1.289000,0.060955,-0.023000,-0.011040,0.000000,-0.000138,-1.235429,0.000002,0.000038,1669.000000,1692875333.079068,0.956800,-1.569998,0.000048,0.015771,0.000153,-0.000048,,,,,,,,,
1692875333.120603,,,,,,,,,,,,,,,,,,,,,,,,,,,,,,,,,,,,,,,,,,,2530.000000,1692875333.098885,0.000000,0.000000,0.000000,0.000000,0.000000,0.000000
1692875333.130797,,,,,,,,,,,,,,,,,,,,,,,,,,,,,,,,,,,,,,,,,,,2531.000000,1692875333.109074,0.000000,0.000000,0.000000,0.000000,0.000000,0.000000
1692875333.145537,0.922101,-0.025652,0.000018,-149.891320,0.000944,0.000008,-0.016560,0.001493,-0.000046,0.002697,-0.000197,0.000653,0.000000,-0.000197,0.000653,-0.209760,-2.752810,0.007445,-1.610000,0.003363,-0.007000,-0.000817,0.595636,-0.002363,-1.286000,0.064364,-0.001000,0.000000,0.000000,-0.000138,-1.242000,0.000002,0.000038,1671.000000,1692875333.119065,1.046171,-1.569998,0.000048,0.010514,0.000153,-0.000048,,,,,,,,,
1692875333.146832,,,,,,,,,,,,,,,,,,,,,,,,,,,,,,,,,,,,,,,,,,0.000000,,,,,,,,
1692875333.146849,,,,,,,,,,,,,,,,,,,,,,,,,,,,,,,,,,,,,,,,,,,2532.000000,1692875333.118972,0.000000,0.000000,0.000000,0.000000,0.000000,0.000000
1692875333.158796,,,,,,,,,,,,,,,,,,,,,,,,,,,,,,,,,,,,,,,,,,,2533.000000,1692875333.128839,0.000000,0.000000,0.000000,0.000000,0.000000,0.000000
1692875333.163442,0.727974,-0.025652,0.000018,-149.600269,0.000944,0.000008,-0.044160,0.001493,-0.000046,0.002697,-0.000197,0.000653,-0.002697,-0.000197,0.000653,-0.198720,-2.752810,0.005340,-1.610000,0.003363,-0.002000,0.008598,0.595636,0.000590,-1.287000,0.062363,-0.001000,-0.009200,0.000000,-0.000138,-1.274857,0.000002,0.000038,1672.000000,1692875333.139070,1.019886,-1.569998,0.000048,-0.094629,0.000153,-0.000048,,,,,,,,,
1692875333.172996,,,,,,,,,,,,,,,,,,,,,,,,,,,,,,,,,,,,,,,,,,,2535.000000,1692875333.148949,0.000000,0.000000,0.000000,0.000000,0.000000,0.000000
1692875333.184830,,,,,,,,,,,,,,,,,,,,,,,,,,,,,,,,,,,,,,,,,,,2536.000000,1692875333.159221,0.000000,0.000000,0.000000,0.000000,0.000000,0.000000
1692875333.190788,0.064709,-0.025268,-0.001264,-149.309217,0.000944,0.000008,0.132480,0.001493,-0.000046,0.013485,-0.000178,0.000653,0.000000,-0.000197,0.000653,-0.154560,-2.752810,0.000094,-1.606000,0.005772,0.008000,0.008186,0.596227,0.002954,-1.289000,0.061772,-0.009999,-0.038640,0.000000,-0.000138,-1.288000,0.000002,0.000038,1673.000000,1692875333.159064,0.778057,-1.569998,0.000048,-0.115657,0.000153,-0.000048,,,,,,,,,
1692875333.202801,,,,,,,,,,,,,,,,,,,,,,,,,,,,,,,,,,,,,,,,,,,2537.000000,1692875333.169581,0.000000,0.000000,0.000000,0.000000,0.000000,0.000000
1692875333.217601,,,,,,,,,,,,,,,,,,,,,,,,,,,,,,,,,,,,,,,,,,,2538.000000,1692875333.179014,0.000000,0.000000,0.000000,0.000000,0.000000,0.000000
1692875333.217613,,,,,,,,,,,,,,,,,,,,,,,,,,,,,,,,,,,,,,,,,,,2539.000000,1692875333.188950,0.000000,0.000000,0.000000,0.000000,0.000000,0.000000
1692875333.221667,0.226481,-0.025268,-0.000723,-149.018166,0.000944,0.000008,0.126960,0.001493,-0.000046,0.002697,-0.000178,0.000653,0.000000,-0.000197,0.000653,-0.132480,-2.752810,0.000094,-1.608000,0.003954,0.002000,0.005320,0.595045,0.000000,-1.289000,0.062954,-0.009999,0.005520,0.000000,-0.000138,-1.314286,0.000002,0.000038,1674.000000,1692875333.179062,1.082971,-1.569998,0.000048,-0.042057,0.000153,-0.000048,,,,,,,,,
1692875333.224946,,,,,,,,,,,,,,,,,,,,,,,,,,,,,,,,,,,,,,,,,,,2540.000000,1692875333.201182,0.000000,0.000000,0.000000,0.000000,0.000000,0.000000
1692875333.229877,0.517670,-0.025652,-0.000018,-148.436064,0.000944,0.000008,0.115920,0.001493,-0.000046,0.002697,-0.000178,0.000653,0.000000,-0.000197,0.000653,-0.298080,-2.752820,-0.004900,-1.606000,0.004773,0.006000,0.006958,0.596227,0.002363,-1.291000,0.062772,-0.008999,-0.023920,0.000000,-0.000138,-1.235429,0.000002,0.000038,1676.000000,1692875333.219061,0.993600,-1.569998,0.000048,-0.084114,0.000153,-0.000048,,,,,,,,,
1692875333.231522,,,,,,,,,,,,,,,,,,,,,,,,,,,,,,,,,,,,,,,,,,,2542.000000,1692875333.218856,0.000000,0.000000,0.000000,0.000000,0.000000,0.000000
1692875333.242414,,,,,,,,,,,,,,,,,,,,,,,,,,,,,,,,,,,,,,,,,,,2543.000000,1692875333.228941,0.000000,0.000000,0.000000,0.000000,0.000000,0.000000
1692875333.242429,,,,,,,,,,,,,,,,,,,,,,,,,,,,,,,,,,,,,,,,,,0.000000,,,,,,,,
1692875333.254539,,,,,,,,,,,,,,,,,,,,,,,,,,,,,,,,,,,,,,,,,,,2544.000000,1692875333.240028,0.000000,0.000000,0.000000,0.000000,0.000000,0.000000
1692875333.266955,,,,,,,,,,,,,,,,,,,,,,,,,,,,,,,,,,,,,,,,,,,2546.000000,1692875333.258958,0.000000,0.000000,0.000000,0.000000,0.000000,0.000000
1692875333.266980,1.083873,-0.026036,0.001088,-148.436064,0.000944,0.000008,0.115920,0.001499,0.000092,-0.002697,-0.000178,0.000653,0.002697,-0.000197,0.000653,-0.110400,-2.752810,0.000094,-1.606000,0.004182,0.006000,0.006958,0.596818,0.004727,-1.299000,0.056181,-0.004000,-0.007360,0.000000,-0.000138,-1.215714,0.000002,0.000038,1677.000000,1692875333.239064,0.835886,-1.569998,0.000048,-0.047314,0.000153,-0.000048,,,,,,,,,
1692875333.279958,1.391239,-0.025652,-0.000575,-147.853962,0.000944,0.000008,0.171120,0.001504,0.000046,0.002697,-0.000178,0.000653,0.002697,-0.000197,0.000653,-0.132480,-2.752810,0.000094,-1.608000,0.003182,0.006000,0.004091,0.596818,0.004727,-1.297000,0.058181,-0.027000,0.020240,0.000000,-0.000138,-1.412857,0.000002,0.000038,1678.000000,1692875333.259064,0.998857,-1.569998,0.000048,-0.078857,0.000153,-0.000048,,,,,,,,,
1692875333.279997,,,,,,,,,,,,,,,,,,,,,,,,,,,,,,,,,,,,,,,,,,,2547.000000,1692875333.268931,0.000000,0.000000,0.000000,0.000000,0.000000,0.000000
1692875333.289185,,,,,,,,,,,,,,,,,,,,,,,,,,,,,,,,,,,,,,,,,,,2548.000000,1692875333.279116,0.000000,0.000000,0.000000,0.000000,0.000000,0.000000
1692875333.289197,2.119214,-0.025652,-0.000585,-146.980809,0.000944,0.000008,0.149040,0.001509,0.000046,0.005394,-0.000178,0.000653,0.000000,-0.000197,0.000653,-0.375360,-2.752820,-0.001602,-1.610000,0.003182,-0.004000,0.007370,0.596818,0.004727,-1.297000,0.058181,-0.019999,-0.005520,0.000000,-0.000138,-1.320857,0.000002,0.000038,1679.000000,1692875333.279063,1.030400,-1.569998,0.000048,-0.031543,0.000153,-0.000048,,,,,,,,,
1692875333.300004,,,,,,,,,,,,,,,,,,,,,,,,,,,,,,,,,,,,,,,,,,,2549.000000,1692875333.288853,0.000000,0.000000,0.000000,0.000000,0.000000,0.000000
1692875333.309533,1.180936,-0.025652,0.000090,-146.689757,0.000944,0.000008,0.425040,0.001509,0.000046,0.000000,-0.000178,0.000653,0.000000,-0.000197,0.000653,-0.143520,-2.752810,0.000094,-1.608000,0.006590,0.004999,0.001225,0.597409,0.004727,-1.294000,0.062591,-0.008999,-0.012880,0.000000,-0.000138,-1.314286,0.000002,0.000038,1680.000000,1692875333.299060,0.972571,-1.569998,0.000048,-0.089371,0.000153,-0.000048,,,,,,,,,
1692875333.315409,,,,,,,,,,,,,,,,,,,,,,,,,,,,,,,,,,,,,,,,,,,2550.000000,1692875333.300391,0.000000,0.000000,0.000000,0.000000,0.000000,0.000000
1692875333.321804,,,,,,,,,,,,,,,,,,,,,,,,,,,,,,,,,,,,,,,,,,,2551.000000,1692875333.308942,0.000000,0.000000,0.000000,0.000000,0.000000,0.000000
1692875333.321815,,,,,,,,,,,,,,,,,,,,,,,,,,,,,,,,,,,,,,,,,,,2552.000000,1692875333.318970,0.000000,0.000000,0.000000,0.000000,0.000000,0.000000
1692875333.327813,1.213290,-0.025652,0.000018,-146.689757,0.000944,0.000008,0.353280,0.001514,0.000966,0.000000,-0.000178,0.000653,-0.005394,-0.000197,0.000653,-0.298080,-2.752810,0.002544,-1.606000,0.006000,0.008999,0.000000,0.597999,0.007090,-1.294000,0.063001,0.006000,-0.011040,0.000000,-0.000138,-1.268286,-0.000003,-0.000038,1681.000000,1692875333.319061,0.914743,-1.569998,0.000048,-0.215543,0.000153,-0.000048,,,,,,,,,
1692875333.333687,,,,,,,,,,,,,,,,,,,,,,,,,,,,,,,,,,,,,,,,,,,2553.000000,1692875333.329054,0.000000,0.000000,0.000000,0.000000,0.000000,0.000000
1692875333.344153,,,,,,,,,,,,,,,,,,,,,,,,,,,,,,,,,,,,,,,,,,,2554.000000,1692875333.339039,0.000000,0.000000,0.000000,0.000000,0.000000,0.000000
1692875333.347444,,,,,,,,,,,,,,,,,,,,,,,,,,,,,,,,,,,,,,,,,,0.000000,,,,,,,,
1692875333.351566,1.439771,-0.025652,0.000018,-146.107655,0.000944,0.000008,0.132480,0.001514,0.000046,-0.002697,-0.000178,0.000653,-0.002697,-0.000197,0.000653,-0.242880,-2.752820,-0.000691,-1.606000,0.007363,0.013000,-0.000408,0.595636,0.000590,-1.284000,0.069364,0.009999,0.005520,0.000000,-0.000138,-1.340571,-0.000003,-0.000038,1682.000000,1692875333.339062,1.004114,-1.569998,0.000048,-0.162971,0.000153,-0.000048,,,,,,,,,
1692875333.357490,,,,,,,,,,,,,,,,,,,,,,,,,,,,,,,,,,,,,,,,,,,2555.000000,1692875333.349113,0.000000,0.000000,0.000000,0.000000,0.000000,0.000000
1692875333.372275,,,,,,,,,,,,,,,,,,,,,,,,,,,,,,,,,,,,,,,,,,,2556.000000,1692875333.358832,0.000000,0.000000,0.000000,0.000000,0.000000,0.000000
1692875333.372443,2.103036,-0.025652,-0.000163,-146.398706,0.000944,0.000008,0.193200,0.001514,0.000046,0.008091,-0.000178,0.000653,0.002697,-0.000197,0.000653,-0.264960,-2.752810,0.000963,-1.605000,0.007591,0.027000,0.004503,0.597409,0.003545,-1.284000,0.068591,0.028000,0.001840,0.000000,-0.000138,-1.432571,-0.000003,-0.000038,1683.000000,1692875333.359064,1.004114,-1.569998,0.000048,-0.157714,0.000153,-0.007613,,,,,,,,,
1692875333.384589,,,,,,,,,,,,,,,,,,,,,,,,,,,,,,,,,,,,,,,,,,,2557.000000,1692875333.368931,0.000000,0.000000,0.000000,0.000000,0.000000,0.000000
1692875333.387207,,,,,,,,,,,,,,,,,,,,,,,,,,,,,,,,,,,,,,,,,,,2558.000000,1692875333.378987,0.000000,0.000000,0.000000,0.000000,0.000000,0.000000
1692875333.387321,1.277999,-0.025652,0.000018,-145.816604,0.000944,0.000008,0.165600,0.001514,0.000046,-0.002697,-0.000178,0.000653,0.000000,-0.000197,0.000653,-0.165600,-2.752810,0.002481,-1.608000,0.004182,0.004999,0.000408,0.596818,0.002954,-1.281000,0.068182,0.034000,0.014720,0.000000,-0.000138,-1.281429,-0.000003,-0.000038,1684.000000,1692875333.379065,0.977829,-1.569998,0.000048,0.021029,-0.000228,-0.000048,,,,,,,,,
1692875333.396324,,,,,,,,,,,,,,,,,,,,,,,,,,,,,,,,,,,,,,,,,,,2559.000000,1692875333.388989,0.000000,0.000000,0.000000,0.000000,0.000000,0.000000
1692875333.406211,,,,,,,,,,,,,,,,,,,,,,,,,,,,,,,,,,,,,,,,,,,2560.000000,1692875333.398919,0.000000,0.000000,0.000000,0.000000,0.000000,0.000000
1692875333.408103,2.183922,-0.025652,0.000018,-145.816604,0.000944,0.000008,0.165600,0.001514,0.000046,0.005394,-0.000178,0.000653,-0.008091,-0.000197,0.000653,-0.099360,-2.752810,0.000094,-1.603000,0.006772,0.008999,0.000408,0.596227,-0.005909,-1.276000,0.070772,0.026000,0.027600,0.000000,-0.000138,-1.327429,-0.000003,-0.000038,1685.000000,1692875333.399063,0.972571,-1.569998,0.000048,-0.131429,0.000153,-0.000048,,,,,,,,,
1692875333.421544,,,,,,,,,,,,,,,,,,,,,,,,,,,,,,,,,,,,,,,,,,,2561.000000,1692875333.410416,0.000000,0.000000,0.000000,0.000000,0.000000,0.000000
1692875333.435483,1.472125,-0.025652,0.000018,-145.525553,0.000944,0.000008,0.176640,0.001514,0.000046,0.005394,-0.000178,0.000653,-0.002697,-0.000197,0.000653,-0.209760,-2.752810,0.001151,-1.605000,0.005772,0.008999,0.007370,0.596227,0.000000,-1.276000,0.068773,0.028000,0.027600,0.000000,-0.000138,-1.432571,-0.000003,-0.000038,1686.000000,1692875333.419066,0.941029,-1.569998,0.000048,-0.194514,0.000153,-0.000048,,,,,,,,,
1692875333.435797,,,,,,,,,,,,,,,,,,,,,,,,,,,,,,,,,,,,,,,,,,,2562.000000,1692875333.419153,0.000000,0.000000,0.000000,0.000000,0.000000,0.000000
1692875333.438538,,,,,,,,,,,,,,,,,,,,,,,,,,,,,,,,,,,,,,,,,,,2563.000000,1692875333.428859,0.000000,0.000000,0.000000,0.000000,0.000000,0.000000
1692875333.450334,,,,,,,,,,,,,,,,,,,,,,,,,,,,,,,,,,,,,,,,,,,2564.000000,1692875333.438967,0.000000,0.000000,0.000000,0.000000,0.000000,0.000000
1692875333.453509,1.342708,-0.025652,0.000018,-145.234502,0.000944,0.000008,0.138000,0.001514,0.000046,0.005394,-0.000178,0.000653,0.002697,-0.000197,0.000653,-0.110400,-2.752810,0.000094,-1.606000,0.003818,0.004000,0.009415,0.599181,0.014772,-1.286000,0.060819,0.002000,0.022080,0.000000,-0.000138,-1.334000,-0.000003,-0.000038,1687.000000,1692875333.439066,0.909486,-1.569998,0.000048,-0.152457,0.000153,-0.000048,,,,,,,,,
1692875333.456897,,,,,,,,,,,,,,,,,,,,,,,,,,,,,,,,,,,,,,,,,,,2565.000000,1692875333.448978,0.000000,0.000000,0.000000,0.000000,0.000000,0.000000
1692875333.469409,,,,,,,,,,,,,,,,,,,,,,,,,,,,,,,,,,,,,,,,,,0.000000,,,,,,,,
1692875333.481087,,,,,,,,,,,,,,,,,,,,,,,,,,,,,,,,,,,,,,,,,,,2567.000000,1692875333.469001,0.000000,0.000000,0.000000,0.000000,0.000000,0.000000
1692875333.481182,2.070682,-0.026036,0.001557,-145.234502,0.000944,0.000008,0.077280,0.001514,0.000046,0.000000,-0.000178,0.000653,0.000000,-0.000197,0.000653,-0.231840,-2.752820,-0.007456,-1.606000,0.004182,-0.002000,0.009824,0.596818,0.007681,-1.286000,0.063182,-0.008000,0.025760,0.000000,-0.000138,-1.439143,-0.000003,-0.000038,1688.000000,1692875333.459061,0.904229,-1.569998,0.000048,-0.173486,0.000153,-0.000767,,,,,,,,,
1692875333.498719,2.329517,-0.025652,0.000545,-144.361349,0.000944,0.000008,0.093840,0.001514,0.000046,0.005394,-0.000178,0.000653,-0.008091,-0.000197,0.000653,-0.110400,-2.752810,0.000094,-1.605000,0.006363,-0.002000,-0.000817,0.595636,-0.004136,-1.286000,0.064364,-0.008000,0.029440,0.000000,-0.000138,-1.327429,-0.000003,-0.000038,1689.000000,1692875333.479065,0.977829,-1.569998,0.000048,0.036800,-0.000228,-0.000048,,,,,,,,,
1692875333.498759,,,,,,,,,,,,,,,,,,,,,,,,,,,,,,,,,,,,,,,,,,,2568.000000,1692875333.478991,0.000000,0.000000,0.000000,0.000000,0.000000,0.000000
1692875333.505142,,,,,,,,,,,,,,,,,,,,,,,,,,,,,,,,,,,,,,,,,,,2570.000000,1692875333.498813,0.000000,0.000000,0.000000,0.000000,0.000000,0.000000
1692875333.514747,1.229467,-0.025652,-0.000294,-144.361349,0.000944,0.000008,0.049680,0.001514,0.000046,-0.002697,-0.000178,0.000653,-0.016182,-0.000197,0.000653,-0.176640,-2.752810,0.001413,-1.605000,0.005772,-0.002000,-0.000408,0.596227,-0.004136,-1.284000,0.064773,-0.008000,-0.003680,0.000000,-0.000138,-1.274857,-0.000003,-0.000038,1690.000000,1692875333.499060,0.925257,-1.569998,0.000048,-0.010514,-0.000228,-0.000048,,,,,,,,,
1692875333.522805,,,,,,,,,,,,,,,,,,,,,,,,,,,,,,,,,,,,,,,,,,,2571.000000,1692875333.509611,0.000000,0.000000,0.000000,0.000000,0.000000,0.000000
1692875333.529415,1.326531,-0.025652,0.000092,-143.779246,0.000944,0.000008,0.126960,0.001514,0.000046,-0.002697,-0.000178,0.000653,-0.005394,-0.000197,0.000653,-0.077280,-2.752810,0.000094,-1.608000,0.003954,0.007000,0.000000,0.595045,-0.006499,-1.286000,0.063954,-0.012000,0.007360,0.000000,-0.000138,-1.353714,-0.000003,-0.000038,1691.000000,1692875333.519068,0.977829,-1.569998,0.000048,-0.042057,-0.000228,-0.000048,,,,,,,,,
1692875333.535010,,,,,,,,,,,,,,,,,,,,,,,,,,,,,,,,,,,,,,,,,,,2572.000000,1692875333.518965,0.000000,0.000000,0.000000,0.000000,0.000000,0.000000
1692875333.543219,,,,,,,,,,,,,,,,,,,,,,,,,,,,,,,,,,,,,,,,,,,2573.000000,1692875333.529063,0.000000,0.000000,0.000000,0.000000,0.000000,0.000000
1692875333.543230,,,,,,,,,,,,,,,,,,,,,,,,,,,,,,,,,,,,,,,,,,,2574.000000,1692875333.538957,0.000000,0.000000,0.000000,0.000000,0.000000,0.000000
1692875333.549616,2.653061,-0.025652,0.000044,-143.488195,0.000944,0.000008,0.022080,0.001514,0.000046,-0.002697,-0.000178,0.000653,-0.008091,-0.000197,0.000653,-0.220800,-2.752810,0.000094,-1.610000,0.002954,-0.021999,0.013102,0.595045,-0.003545,-1.282000,0.065955,-0.016000,-0.016560,0.000000,-0.000138,-1.196000,-0.000003,-0.000038,1692.000000,1692875333.539068,0.862171,-1.569998,0.000048,-0.068343,-0.000228,-0.000048,,,,,,,,,
1692875333.552958,,,,,,,,,,,,,,,,,,,,,,,,,,,,,,,,,,,,,,,,,,,2575.000000,1692875333.548997,0.000000,0.000000,0.000000,0.000000,0.000000,0.000000
1692875333.563239,,,,,,,,,,,,,,,,,,,,,,,,,,,,,,,,,,,,,,,,,,0.000000,,,,,,,,
1692875333.563265,,,,,,,,,,,,,,,,,,,,,,,,,,,,,,,,,,,,,,,,,,,2576.000000,1692875333.559609,0.000000,0.000000,0.000000,0.000000,0.000000,0.000000
1692875333.579775,2.378049,-0.025652,0.000163,-142.906093,0.000944,0.000008,-0.016560,0.001514,0.000046,0.000000,-0.000178,0.000653,-0.002697,-0.000197,0.000653,-0.220800,-2.752820,-0.002136,-1.610000,0.002772,-0.006000,0.009415,0.596227,0.000000,-1.282000,0.065773,-0.004999,0.027600,0.000000,-0.000138,-1.301143,-0.000003,-0.000038,1693.000000,1692875333.559065,1.009371,-1.569998,0.000048,0.031543,-0.000228,-0.000048,,,,,,,,,
1692875333.585651,,,,,,,,,,,,,,,,,,,,,,,,,,,,,,,,,,,,,,,,,,,2577.000000,1692875333.568822,0.000000,0.000000,0.000000,0.000000,0.000000,0.000000
1692875333.593424,2.507466,-0.025652,0.000359,-143.488195,0.000944,0.000008,0.110400,0.001514,0.000046,0.008091,-0.000178,0.000653,0.000000,-0.000197,0.000653,-0.099360,-2.752810,0.000094,-1.616000,-0.000227,-0.014000,0.002046,0.596227,0.000000,-1.279000,0.068773,0.004999,0.023920,0.000000,-0.000138,-1.248571,-0.000003,-0.000038,1694.000000,1692875333.579062,0.898971,-1.569998,0.000048,-0.015771,-0.000228,-0.000048,,,,,,,,,
1692875333.595531,,,,,,,,,,,,,,,,,,,,,,,,,,,,,,,,,,,,,,,,,,,2579.000000,1692875333.588991,0.000000,0.000000,0.000000,0.000000,0.000000,0.000000
1692875333.610442,,,,,,,,,,,,,,,,,,,,,,,,,,,,,,,,,,,,,,,,,,,2580.000000,1692875333.598979,0.000000,0.000000,0.000000,0.000000,0.000000,0.000000
