__time,/kms40_driver/wrench/header/seq,/kms40_driver/wrench/header/stamp,/kms40_driver/wrench/wrench/force/x,/kms40_driver/wrench/wrench/force/y,/kms40_driver/wrench/wrench/force/z,/kms40_driver/wrench/wrench/torque/x,/kms40_driver/wrench/wrench/torque/y,/kms40_driver/wrench/wrench/torque/z
1696852341.657866,4097545.000000000,1696852341.658548117,0.029000000,-0.161000000,-0.015000000,0.003000000,0.009000000,0.007000000
1696852341.659889,4097546.000000000,1696852341.660557270,0.029000000,-0.162000000,-0.014000000,0.003000000,0.009000000,0.007000000
1696852341.661652,4097547.000000000,1696852341.662564278,0.030000000,-0.162000000,-0.015000000,0.003000000,0.009000000,0.007000000
1696852341.663645,4097548.000000000,1696852341.664534807,0.030000000,-0.162000000,-0.015000000,0.004000000,0.009000000,0.007000000
1696852341.665882,4097549.000000000,1696852341.666543961,0.031000000,-0.162000000,-0.015000000,0.004000000,0.009000000,0.007000000
1696852341.667617,4097550.000000000,1696852341.668540955,0.031000000,-0.161000000,-0.014000000,0.003000000,0.009000000,0.007000000
1696852341.669602,4097551.000000000,1696852341.670539856,0.030000000,-0.159000000,-0.013000000,0.003000000,0.009000000,0.007000000
1696852341.671572,4097552.000000000,1696852341.672536373,0.030000000,-0.158000000,-0.013000000,0.003000000,0.009000000,0.007000000
1696852341.673601,4097553.000000000,1696852341.674562216,0.030000000,-0.157000000,-0.012000000,0.003000000,0.009000000,0.007000000
1696852341.675611,4097554.000000000,1696852341.676556587,0.030000000,-0.157000000,-0.013000000,0.003000000,0.009000000,0.007000000
1696852341.677568,4097555.000000000,1696852341.678538561,0.030000000,-0.157000000,-0.014000000,0.003000000,0.009000000,0.007000000
1696852341.679567,4097556.000000000,1696852341.680539608,0.030000000,-0.158000000,-0.013000000,0.003000000,0.009000000,0.007000000
1696852341.681763,4097557.000000000,1696852341.682550669,0.031000000,-0.159000000,-0.014000000,0.003000000,0.009000000,0.007000000
1696852341.683610,4097558.000000000,1696852341.684571028,0.031000000,-0.160000000,-0.015000000,0.003000000,0.009000000,0.007000000
1696852341.685576,4097559.000000000,1696852341.686531305,0.031000000,-0.160000000,-0.016000000,0.004000000,0.009000000,0.007000000
1696852341.687557,4097560.000000000,1696852341.688531637,0.031000000,-0.160000000,-0.017000000,0.004000000,0.009000000,0.007000000
1696852341.689581,4097561.000000000,1696852341.690540791,0.032000000,-0.159000000,-0.017000000,0.003000000,0.009000000,0.007000000
1696852341.691570,4097562.000000000,1696852341.692531824,0.031000000,-0.157000000,-0.015000000,0.003000000,0.009000000,0.007000000
1696852341.693587,4097563.000000000,1696852341.694528580,0.031000000,-0.156000000,-0.016000000,0.003000000,0.009000000,0.007000000
1696852341.695588,4097564.000000000,1696852341.696530581,0.031000000,-0.155000000,-0.015000000,0.003000000,0.009000000,0.007000000
1696852341.697637,4097565.000000000,1696852341.698564053,0.031000000,-0.155000000,-0.017000000,0.003000000,0.009000000,0.007000000
1696852341.699613,4097566.000000000,1696852341.700554848,0.030000000,-0.155000000,-0.016000000,0.003000000,0.009000000,0.007000000
1696852341.701579,4097567.000000000,1696852341.702546835,0.031000000,-0.156000000,-0.018000000,0.003000000,0.009000000,0.007000000
1696852341.703591,4097568.000000000,1696852341.704552889,0.031000000,-0.157000000,-0.018000000,0.003000000,0.009000000,0.007000000
1696852341.707001,4097569.000000000,1696852341.706593037,0.031000000,-0.158000000,-0.019000000,0.003000000,0.009000000,0.007000000
1696852341.707578,4097570.000000000,1696852341.708550692,0.031000000,-0.158000000,-0.020000000,0.003000000,0.009000000,0.007000000
1696852341.709563,4097571.000000000,1696852341.710534811,0.031000000,-0.159000000,-0.020000000,0.003000000,0.009000000,0.007000000
1696852341.711682,4097572.000000000,1696852341.712591648,0.031000000,-0.158000000,-0.021000000,0.003000000,0.009000000,0.007000000
1696852341.713799,4097573.000000000,1696852341.714585304,0.031000000,-0.157000000,-0.020000000,0.003000000,0.009000000,0.007000000
1696852341.715655,4097574.000000000,1696852341.716579437,0.031000000,-0.156000000,-0.020000000,0.003000000,0.009000000,0.007000000
1696852341.717621,4097575.000000000,1696852341.718545914,0.030000000,-0.155000000,-0.019000000,0.003000000,0.009000000,0.007000000
1696852341.719588,4097576.000000000,1696852341.720537424,0.030000000,-0.155000000,-0.021000000,0.003000000,0.009000000,0.007000000
1696852341.721869,4097577.000000000,1696852341.722560883,0.030000000,-0.155000000,-0.023000000,0.003000000,0.009000000,0.007000000
1696852341.723789,4097578.000000000,1696852341.724541664,0.030000000,-0.155000000,-0.023000000,0.003000000,0.009000000,0.007000000
1696852341.725732,4097579.000000000,1696852341.726576567,0.030000000,-0.156000000,-0.025000000,0.003000000,0.009000000,0.007000000
1696852341.727743,4097580.000000000,1696852341.728573799,0.030000000,-0.158000000,-0.026000000,0.003000000,0.009000000,0.007000000
1696852341.729710,4097581.000000000,1696852341.730557203,0.030000000,-0.159000000,-0.029000000,0.003000000,0.009000000,0.007000000
1696852341.731654,4097582.000000000,1696852341.732541323,0.030000000,-0.158000000,-0.029000000,0.003000000,0.009000000,0.007000000
1696852341.733587,4097583.000000000,1696852341.734531403,0.030000000,-0.158000000,-0.031000000,0.003000000,0.009000000,0.007000000
1696852341.735584,4097584.000000000,1696852341.736537457,0.029000000,-0.157000000,-0.032000000,0.003000000,0.009000000,0.007000000
1696852341.737872,4097585.000000000,1696852341.738539934,0.029000000,-0.156000000,-0.033000000,0.003000000,0.009000000,0.008000000
1696852341.739687,4097586.000000000,1696852341.740594387,0.028000000,-0.154000000,-0.035000000,0.003000000,0.009000000,0.008000000
1696852341.741556,4097587.000000000,1696852341.742537975,0.028000000,-0.153000000,-0.037000000,0.003000000,0.009000000,0.008000000
1696852341.743631,4097588.000000000,1696852341.744534016,0.027000000,-0.153000000,-0.040000000,0.003000000,0.009000000,0.008000000
1696852341.745596,4097589.000000000,1696852341.746545076,0.027000000,-0.153000000,-0.043000000,0.003000000,0.009000000,0.008000000
1696852341.747876,4097590.000000000,1696852341.748577356,0.027000000,-0.153000000,-0.048000000,0.003000000,0.009000000,0.008000000
1696852341.750602,4097591.000000000,1696852341.751542330,0.026000000,-0.154000000,-0.052000000,0.003000000,0.009000000,0.008000000
1696852341.751823,4097592.000000000,1696852341.752677679,0.026000000,-0.154000000,-0.055000000,0.003000000,0.009000000,0.008000000
1696852341.753743,4097593.000000000,1696852341.754575729,0.026000000,-0.154000000,-0.062000000,0.003000000,0.009000000,0.008000000
1696852341.755613,4097594.000000000,1696852341.756542206,0.026000000,-0.153000000,-0.064000000,0.003000000,0.009000000,0.008000000
1696852341.757649,4097595.000000000,1696852341.758533478,0.025000000,-0.152000000,-0.068000000,0.003000000,0.009000000,0.008000000
1696852341.759652,4097596.000000000,1696852341.760554552,0.025000000,-0.150000000,-0.072000000,0.003000000,0.009000000,0.008000000
1696852341.761624,4097597.000000000,1696852341.762542248,0.024000000,-0.148000000,-0.076000000,0.003000000,0.009000000,0.008000000
1696852341.763671,4097598.000000000,1696852341.764544010,0.023000000,-0.146000000,-0.080000000,0.003000000,0.009000000,0.008000000
1696852341.765575,4097599.000000000,1696852341.766532898,0.022000000,-0.145000000,-0.085000000,0.003000000,0.009000000,0.009000000
1696852341.767559,4097600.000000000,1696852341.768532991,0.022000000,-0.145000000,-0.091000000,0.003000000,0.009000000,0.009000000
1696852341.769749,4097601.000000000,1696852341.770565033,0.021000000,-0.144000000,-0.094000000,0.003000000,0.009000000,0.009000000
1696852341.771653,4097602.000000000,1696852341.772601366,0.021000000,-0.145000000,-0.100000000,0.003000000,0.009000000,0.009000000
1696852341.773581,4097603.000000000,1696852341.774545431,0.021000000,-0.145000000,-0.104000000,0.003000000,0.009000000,0.009000000
1696852341.775582,4097604.000000000,1696852341.776546955,0.021000000,-0.145000000,-0.110000000,0.004000000,0.009000000,0.009000000
1696852341.777706,4097605.000000000,1696852341.778547525,0.020000000,-0.144000000,-0.113000000,0.004000000,0.009000000,0.009000000
1696852341.779583,4097606.000000000,1696852341.780539751,0.020000000,-0.143000000,-0.117000000,0.004000000,0.009000000,0.009000000
1696852341.781631,4097607.000000000,1696852341.782548428,0.019000000,-0.141000000,-0.120000000,0.004000000,0.009000000,0.009000000
1696852341.783578,4097608.000000000,1696852341.784541130,0.019000000,-0.140000000,-0.123000000,0.003000000,0.009000000,0.009000000
1696852341.785742,4097609.000000000,1696852341.786557913,0.018000000,-0.138000000,-0.125000000,0.003000000,0.009000000,0.009000000
1696852341.787595,4097610.000000000,1696852341.788535357,0.018000000,-0.137000000,-0.129000000,0.003000000,0.009000000,0.010000000
1696852341.789626,4097611.000000000,1696852341.790535450,0.017000000,-0.137000000,-0.131000000,0.003000000,0.009000000,0.010000000
1696852341.792150,4097612.000000000,1696852341.792542934,0.017000000,-0.137000000,-0.133000000,0.003000000,0.009000000,0.010000000
1696852341.793709,4097613.000000000,1696852341.794600487,0.017000000,-0.138000000,-0.135000000,0.003000000,0.009000000,0.010000000
1696852341.795865,4097614.000000000,1696852341.796553373,0.017000000,-0.139000000,-0.136000000,0.003000000,0.009000000,0.010000000
1696852341.797693,4097615.000000000,1696852341.798615217,0.018000000,-0.140000000,-0.137000000,0.003000000,0.009000000,0.010000000
1696852341.799643,4097616.000000000,1696852341.800560474,0.018000000,-0.140000000,-0.137000000,0.004000000,0.009000000,0.010000000
1696852341.801635,4097617.000000000,1696852341.802568913,0.018000000,-0.141000000,-0.137000000,0.004000000,0.009000000,0.010000000
1696852341.803637,4097618.000000000,1696852341.804577589,0.018000000,-0.140000000,-0.135000000,0.003000000,0.009000000,0.010000000
1696852341.805669,4097619.000000000,1696852341.806537390,0.018000000,-0.139000000,-0.133000000,0.003000000,0.009000000,0.010000000
1696852341.807589,4097620.000000000,1696852341.808548212,0.018000000,-0.139000000,-0.131000000,0.003000000,0.009000000,0.010000000
1696852341.809586,4097621.000000000,1696852341.810541868,0.018000000,-0.139000000,-0.127000000,0.003000000,0.009000000,0.009000000
1696852341.811622,4097622.000000000,1696852341.812570810,0.017000000,-0.139000000,-0.124000000,0.003000000,0.009000000,0.009000000
1696852341.813636,4097623.000000000,1696852341.814566612,0.017000000,-0.140000000,-0.121000000,0.003000000,0.009000000,0.009000000
1696852341.815629,4097624.000000000,1696852341.816579342,0.018000000,-0.142000000,-0.117000000,0.003000000,0.009000000,0.009000000
1696852341.817595,4097625.000000000,1696852341.818541765,0.018000000,-0.144000000,-0.112000000,0.003000000,0.009000000,0.009000000
1696852341.819613,4097626.000000000,1696852341.820539474,0.018000000,-0.146000000,-0.110000000,0.003000000,0.009000000,0.009000000
1696852341.821618,4097627.000000000,1696852341.822547674,0.019000000,-0.147000000,-0.104000000,0.003000000,0.009000000,0.009000000
1696852341.823818,4097628.000000000,1696852341.824545383,0.019000000,-0.149000000,-0.100000000,0.003000000,0.009000000,0.009000000
1696852341.825656,4097629.000000000,1696852341.826519251,0.019000000,-0.148000000,-0.093000000,0.003000000,0.009000000,0.009000000
1696852341.827658,4097630.000000000,1696852341.828551769,0.019000000,-0.149000000,-0.087000000,0.003000000,0.009000000,0.009000000
1696852341.829635,4097631.000000000,1696852341.830544233,0.019000000,-0.148000000,-0.081000000,0.003000000,0.009000000,0.008000000
1696852341.831899,4097632.000000000,1696852341.832541227,0.018000000,-0.148000000,-0.075000000,0.003000000,0.009000000,0.008000000
1696852341.833778,4097633.000000000,1696852341.834552050,0.018000000,-0.149000000,-0.070000000,0.003000000,0.009000000,0.008000000
1696852341.835802,4097634.000000000,1696852341.836537123,0.018000000,-0.150000000,-0.065000000,0.003000000,0.009000000,0.008000000
1696852341.837678,4097635.000000000,1696852341.838566303,0.018000000,-0.151000000,-0.059000000,0.003000000,0.009000000,0.008000000
1696852341.839555,4097636.000000000,1696852341.840540886,0.018000000,-0.153000000,-0.055000000,0.003000000,0.009000000,0.008000000
1696852341.841722,4097637.000000000,1696852341.842546225,0.018000000,-0.155000000,-0.049000000,0.003000000,0.009000000,0.008000000
1696852341.843600,4097638.000000000,1696852341.844536066,0.018000000,-0.156000000,-0.046000000,0.003000000,0.009000000,0.008000000
1696852341.845751,4097639.000000000,1696852341.846536875,0.019000000,-0.157000000,-0.042000000,0.003000000,0.009000000,0.008000000
1696852341.847607,4097640.000000000,1696852341.848555565,0.018000000,-0.157000000,-0.037000000,0.003000000,0.009000000,0.007000000
1696852341.849676,4097641.000000000,1696852341.850563288,0.018000000,-0.157000000,-0.032000000,0.003000000,0.009000000,0.007000000
1696852341.851601,4097642.000000000,1696852341.852545261,0.018000000,-0.157000000,-0.028000000,0.003000000,0.009000000,0.007000000
1696852341.853616,4097643.000000000,1696852341.854544401,0.017000000,-0.156000000,-0.024000000,0.003000000,0.009000000,0.007000000
1696852341.855630,4097644.000000000,1696852341.856562376,0.017000000,-0.155000000,-0.021000000,0.003000000,0.009000000,0.007000000
1696852341.857642,4097645.000000000,1696852341.858557701,0.017000000,-0.155000000,-0.018000000,0.003000000,0.009000000,0.007000000
1696852341.859697,4097646.000000000,1696852341.860587835,0.017000000,-0.156000000,-0.017000000,0.003000000,0.009000000,0.007000000
1696852341.861571,4097647.000000000,1696852341.862539053,0.016000000,-0.157000000,-0.014000000,0.003000000,0.009000000,0.007000000
1696852341.863583,4097648.000000000,1696852341.864541769,0.016000000,-0.158000000,-0.014000000,0.003000000,0.009000000,0.007000000
1696852341.865913,4097649.000000000,1696852341.866555452,0.017000000,-0.159000000,-0.013000000,0.003000000,0.009000000,0.007000000
1696852341.867568,4097650.000000000,1696852341.868538618,0.017000000,-0.160000000,-0.012000000,0.003000000,0.009000000,0.007000000
1696852341.869607,4097651.000000000,1696852341.870549440,0.017000000,-0.160000000,-0.012000000,0.003000000,0.009000000,0.007000000
1696852341.871753,4097652.000000000,1696852341.872643948,0.017000000,-0.159000000,-0.011000000,0.003000000,0.009000000,0.007000000
1696852341.873723,4097653.000000000,1696852341.874531746,0.017000000,-0.158000000,-0.010000000,0.003000000,0.009000000,0.007000000
1696852341.875616,4097654.000000000,1696852341.876560211,0.016000000,-0.157000000,-0.010000000,0.003000000,0.009000000,0.007000000
1696852341.879623,4097655.000000000,1696852341.878542900,0.016000000,-0.156000000,-0.008000000,0.003000000,0.009000000,0.007000000
1696852341.880161,4097656.000000000,1696852341.880538702,0.016000000,-0.156000000,-0.011000000,0.003000000,0.009000000,0.007000000
1696852341.881817,4097657.000000000,1696852341.882588863,0.016000000,-0.156000000,-0.010000000,0.003000000,0.009000000,0.007000000
1696852341.883578,4097658.000000000,1696852341.884539843,0.016000000,-0.157000000,-0.011000000,0.003000000,0.009000000,0.007000000
1696852341.885636,4097659.000000000,1696852341.886539936,0.017000000,-0.158000000,-0.014000000,0.003000000,0.009000000,0.007000000
1696852341.887643,4097660.000000000,1696852341.888544083,0.017000000,-0.159000000,-0.015000000,0.003000000,0.009000000,0.007000000
1696852341.889772,4097661.000000000,1696852341.890541077,0.017000000,-0.159000000,-0.015000000,0.004000000,0.009000000,0.007000000
1696852341.891980,4097662.000000000,1696852341.892542362,0.018000000,-0.159000000,-0.018000000,0.004000000,0.009000000,0.007000000
1696852341.893657,4097663.000000000,1696852341.894540071,0.018000000,-0.159000000,-0.018000000,0.004000000,0.009000000,0.007000000
1696852341.895842,4097664.000000000,1696852341.896540403,0.018000000,-0.159000000,-0.017000000,0.004000000,0.009000000,0.007000000
1696852341.897575,4097665.000000000,1696852341.898540497,0.018000000,-0.158000000,-0.018000000,0.003000000,0.009000000,0.007000000
1696852341.899627,4097666.000000000,1696852341.900563717,0.018000000,-0.157000000,-0.018000000,0.003000000,0.009000000,0.007000000
1696852341.901584,4097667.000000000,1696852341.902541161,0.018000000,-0.157000000,-0.019000000,0.003000000,0.009000000,0.007000000
1696852341.903634,4097668.000000000,1696852341.904577494,0.018000000,-0.157000000,-0.019000000,0.003000000,0.009000000,0.007000000
1696852341.905801,4097669.000000000,1696852341.906556129,0.018000000,-0.158000000,-0.020000000,0.003000000,0.009000000,0.007000000
1696852341.907595,4097670.000000000,1696852341.908557653,0.018000000,-0.159000000,-0.021000000,0.003000000,0.009000000,0.007000000
1696852341.909590,4097671.000000000,1696852341.910544634,0.019000000,-0.160000000,-0.021000000,0.004000000,0.009000000,0.007000000
1696852341.911770,4097672.000000000,1696852341.912578821,0.019000000,-0.161000000,-0.022000000,0.004000000,0.009000000,0.007000000
1696852341.913803,4097673.000000000,1696852341.914549828,0.020000000,-0.162000000,-0.024000000,0.004000000,0.009000000,0.007000000
1696852341.915692,4097674.000000000,1696852341.916544914,0.020000000,-0.162000000,-0.022000000,0.004000000,0.009000000,0.007000000
1696852341.917709,4097675.000000000,1696852341.918544054,0.020000000,-0.162000000,-0.022000000,0.004000000,0.009000000,0.007000000
1696852341.919787,4097676.000000000,1696852341.920615673,0.020000000,-0.161000000,-0.022000000,0.003000000,0.009000000,0.007000000
1696852341.921789,4097677.000000000,1696852341.922552824,0.020000000,-0.161000000,-0.021000000,0.003000000,0.009000000,0.007000000
1696852341.923709,4097678.000000000,1696852341.924569368,0.019000000,-0.160000000,-0.022000000,0.003000000,0.009000000,0.007000000
1696852341.925708,4097679.000000000,1696852341.926569462,0.019000000,-0.160000000,-0.022000000,0.003000000,0.009000000,0.007000000
1696852341.927860,4097680.000000000,1696852341.928550482,0.019000000,-0.161000000,-0.022000000,0.003000000,0.009000000,0.007000000
1696852341.929708,4097681.000000000,1696852341.930547237,0.019000000,-0.162000000,-0.022000000,0.003000000,0.009000000,0.007000000
1696852341.931648,4097682.000000000,1696852341.932541132,0.020000000,-0.163000000,-0.022000000,0.003000000,0.009000000,0.007000000
1696852341.933564,4097683.000000000,1696852341.934528828,0.020000000,-0.165000000,-0.023000000,0.003000000,0.009000000,0.007000000
1696852341.935565,4097684.000000000,1696852341.936536074,0.020000000,-0.165000000,-0.023000000,0.003000000,0.009000000,0.007000000
1696852341.937646,4097685.000000000,1696852341.938563585,0.020000000,-0.166000000,-0.024000000,0.003000000,0.009000000,0.007000000
1696852341.939903,4097686.000000000,1696852341.940540791,0.020000000,-0.165000000,-0.024000000,0.003000000,0.009000000,0.007000000
1696852341.942195,4097687.000000000,1696852341.942549467,0.020000000,-0.165000000,-0.024000000,0.003000000,0.009000000,0.007000000
1696852341.943582,4097688.000000000,1696852341.944534779,0.020000000,-0.164000000,-0.024000000,0.003000000,0.009000000,0.007000000
1696852341.945761,4097689.000000000,1696852341.946670771,0.020000000,-0.163000000,-0.024000000,0.003000000,0.009000000,0.007000000
1696852341.947844,4097690.000000000,1696852341.948640347,0.019000000,-0.162000000,-0.023000000,0.003000000,0.009000000,0.007000000
1696852341.949755,4097691.000000000,1696852341.950577259,0.019000000,-0.163000000,-0.025000000,0.003000000,0.009000000,0.007000000
1696852341.951707,4097692.000000000,1696852341.952561378,0.019000000,-0.163000000,-0.026000000,0.003000000,0.009000000,0.007000000
1696852341.954014,4097693.000000000,1696852341.954549789,0.019000000,-0.165000000,-0.027000000,0.003000000,0.009000000,0.007000000
1696852341.956556,4097694.000000000,1696852341.956546068,0.020000000,-0.165000000,-0.029000000,0.003000000,0.009000000,0.007000000
1696852341.957678,4097695.000000000,1696852341.958555698,0.020000000,-0.166000000,-0.030000000,0.003000000,0.009000000,0.007000000
1696852341.959668,4097696.000000000,1696852341.960557461,0.020000000,-0.167000000,-0.031000000,0.004000000,0.009000000,0.007000000
1696852341.961856,4097697.000000000,1696852341.962547541,0.020000000,-0.166000000,-0.032000000,0.003000000,0.009000000,0.007000000
1696852341.963614,4097698.000000000,1696852341.964542627,0.020000000,-0.165000000,-0.031000000,0.003000000,0.009000000,0.007000000
1696852341.965904,4097699.000000000,1696852341.966539383,0.020000000,-0.164000000,-0.033000000,0.003000000,0.009000000,0.007000000
1696852341.967612,4097700.000000000,1696852341.968546629,0.020000000,-0.163000000,-0.032000000,0.003000000,0.009000000,0.007000000
1696852341.969760,4097701.000000000,1696852341.970579386,0.020000000,-0.163000000,-0.035000000,0.003000000,0.009000000,0.008000000
1696852341.971659,4097702.000000000,1696852341.972545862,0.019000000,-0.162000000,-0.035000000,0.003000000,0.009000000,0.008000000
1696852341.973665,4097703.000000000,1696852341.974545956,0.020000000,-0.163000000,-0.036000000,0.003000000,0.009000000,0.008000000
1696852341.975658,4097704.000000000,1696852341.976548195,0.019000000,-0.163000000,-0.037000000,0.003000000,0.009000000,0.008000000
1696852341.977776,4097705.000000000,1696852341.978581429,0.020000000,-0.165000000,-0.038000000,0.004000000,0.009000000,0.008000000
1696852341.979687,4097706.000000000,1696852341.980546236,0.020000000,-0.165000000,-0.040000000,0.004000000,0.009000000,0.008000000
1696852341.981758,4097707.000000000,1696852341.982558727,0.020000000,-0.166000000,-0.041000000,0.004000000,0.009000000,0.008000000
1696852341.983725,4097708.000000000,1696852341.984546661,0.020000000,-0.165000000,-0.042000000,0.004000000,0.009000000,0.008000000
1696852341.985666,4097709.000000000,1696852341.986546755,0.020000000,-0.165000000,-0.042000000,0.004000000,0.009000000,0.008000000
1696852341.987944,4097710.000000000,1696852341.988544464,0.020000000,-0.164000000,-0.041000000,0.004000000,0.009000000,0.008000000
1696852341.989625,4097711.000000000,1696852341.990546703,0.020000000,-0.162000000,-0.041000000,0.004000000,0.009000000,0.008000000
1696852341.991611,4097712.000000000,1696852341.992577791,0.020000000,-0.161000000,-0.041000000,0.003000000,0.009000000,0.008000000
1696852341.993563,4097713.000000000,1696852341.994549513,0.020000000,-0.161000000,-0.042000000,0.003000000,0.009000000,0.008000000
1696852341.995605,4097714.000000000,1696852341.996570587,0.019000000,-0.161000000,-0.041000000,0.003000000,0.009000000,0.008000000
1696852341.997572,4097715.000000000,1696852341.998555660,0.019000000,-0.162000000,-0.041000000,0.004000000,0.009000000,0.008000000
1696852341.999611,4097716.000000000,1696852342.000564575,0.020000000,-0.162000000,-0.042000000,0.004000000,0.009000000,0.008000000
1696852342.002075,4097717.000000000,1696852342.002562523,0.020000000,-0.164000000,-0.042000000,0.004000000,0.009000000,0.008000000
1696852342.004129,4097718.000000000,1696852342.004548550,0.020000000,-0.164000000,-0.042000000,0.004000000,0.009000000,0.008000000
1696852342.005621,4097719.000000000,1696852342.006551266,0.020000000,-0.164000000,-0.042000000,0.004000000,0.009000000,0.008000000
1696852342.007654,4097720.000000000,1696852342.008550406,0.020000000,-0.163000000,-0.042000000,0.004000000,0.009000000,0.008000000
1696852342.009727,4097721.000000000,1696852342.010541677,0.020000000,-0.163000000,-0.042000000,0.004000000,0.009000000,0.008000000
1696852342.011759,4097722.000000000,1696852342.012580395,0.020000000,-0.161000000,-0.041000000,0.004000000,0.009000000,0.008000000
1696852342.013778,4097723.000000000,1696852342.014579296,0.019000000,-0.160000000,-0.040000000,0.004000000,0.009000000,0.008000000
1696852342.015725,4097724.000000000,1696852342.016548157,0.019000000,-0.159000000,-0.040000000,0.003000000,0.009000000,0.008000000
1696852342.018020,4097725.000000000,1696852342.018563271,0.019000000,-0.159000000,-0.040000000,0.003000000,0.009000000,0.008000000
1696852342.021426,4097726.000000000,1696852342.020562410,0.019000000,-0.159000000,-0.041000000,0.004000000,0.009000000,0.008000000
1696852342.021769,4097727.000000000,1696852342.022547007,0.019000000,-0.159000000,-0.042000000,0.004000000,0.009000000,0.008000000
1696852342.023987,4097728.000000000,1696852342.024544716,0.019000000,-0.160000000,-0.043000000,0.004000000,0.009000000,0.008000000
1696852342.025961,4097729.000000000,1696852342.026575327,0.019000000,-0.160000000,-0.045000000,0.004000000,0.009000000,0.008000000
1696852342.027636,4097730.000000000,1696852342.028550386,0.019000000,-0.160000000,-0.046000000,0.004000000,0.009000000,0.008000000
1696852342.029637,4097731.000000000,1696852342.030547142,0.019000000,-0.159000000,-0.047000000,0.004000000,0.009000000,0.008000000
1696852342.032995,4097732.000000000,1696852342.032544851,0.019000000,-0.158000000,-0.048000000,0.004000000,0.009000000,0.008000000
1696852342.034107,4097733.000000000,1696852342.034560919,0.019000000,-0.156000000,-0.049000000,0.004000000,0.009000000,0.008000000
1696852342.035761,4097734.000000000,1696852342.036575556,0.018000000,-0.154000000,-0.050000000,0.003000000,0.009000000,0.008000000
1696852342.037701,4097735.000000000,1696852342.038556576,0.018000000,-0.153000000,-0.053000000,0.003000000,0.009000000,0.008000000
1696852342.041397,4097736.000000000,1696852342.041825533,0.018000000,-0.152000000,-0.055000000,0.003000000,0.009000000,0.008000000
1696852342.042200,4097737.000000000,1696852342.043060780,0.017000000,-0.151000000,-0.058000000,0.003000000,0.009000000,0.008000000
1696852342.043641,4097738.000000000,1696852342.044536829,0.017000000,-0.151000000,-0.061000000,0.003000000,0.009000000,0.008000000
1696852342.045607,4097739.000000000,1696852342.046525478,0.017000000,-0.151000000,-0.065000000,0.004000000,0.009000000,0.008000000
1696852342.047581,4097740.000000000,1696852342.048544407,0.018000000,-0.150000000,-0.068000000,0.004000000,0.009000000,0.008000000
1696852342.049989,4097741.000000000,1696852342.050653696,0.017000000,-0.150000000,-0.072000000,0.004000000,0.009000000,0.008000000
1696852342.051585,4097742.000000000,1696852342.052555799,0.017000000,-0.149000000,-0.075000000,0.004000000,0.009000000,0.008000000
1696852342.053601,4097743.000000000,1696852342.054550886,0.017000000,-0.148000000,-0.079000000,0.004000000,0.009000000,0.008000000
1696852342.055569,4097744.000000000,1696852342.056540251,0.017000000,-0.145000000,-0.081000000,0.003000000,0.009000000,0.008000000
1696852342.057688,4097745.000000000,1696852342.058616400,0.016000000,-0.143000000,-0.084000000,0.003000000,0.009000000,0.009000000
1696852342.059652,4097746.000000000,1696852342.060538769,0.016000000,-0.141000000,-0.088000000,0.003000000,0.009000000,0.009000000
1696852342.061570,4097747.000000000,1696852342.062544823,0.016000000,-0.140000000,-0.091000000,0.003000000,0.009000000,0.009000000
1696852342.063652,4097748.000000000,1696852342.064539194,0.015000000,-0.139000000,-0.095000000,0.003000000,0.009000000,0.009000000
1696852342.066362,4097749.000000000,1696852342.066545486,0.015000000,-0.138000000,-0.098000000,0.003000000,0.009000000,0.009000000
1696852342.067736,4097750.000000000,1696852342.068553209,0.015000000,-0.139000000,-0.102000000,0.003000000,0.009000000,0.009000000
1696852342.069738,4097751.000000000,1696852342.070569038,0.015000000,-0.139000000,-0.105000000,0.003000000,0.009000000,0.009000000
1696852342.071813,4097752.000000000,1696852342.072621346,0.015000000,-0.139000000,-0.108000000,0.003000000,0.009000000,0.009000000
1696852342.073755,4097753.000000000,1696852342.074550390,0.015000000,-0.138000000,-0.111000000,0.003000000,0.009000000,0.009000000
1696852342.075660,4097754.000000000,1696852342.076544762,0.015000000,-0.137000000,-0.113000000,0.003000000,0.009000000,0.009000000
1696852342.077677,4097755.000000000,1696852342.078544855,0.015000000,-0.136000000,-0.114000000,0.003000000,0.009000000,0.009000000
1696852342.079768,4097756.000000000,1696852342.080577135,0.014000000,-0.135000000,-0.115000000,0.003000000,0.009000000,0.009000000
1696852342.081703,4097757.000000000,1696852342.082585096,0.014000000,-0.134000000,-0.116000000,0.003000000,0.009000000,0.009000000
1696852342.084149,4097758.000000000,1696852342.084554195,0.014000000,-0.133000000,-0.117000000,0.003000000,0.009000000,0.009000000
1696852342.085829,4097759.000000000,1696852342.086555958,0.013000000,-0.132000000,-0.116000000,0.003000000,0.009000000,0.009000000
1696852342.087696,4097760.000000000,1696852342.088545084,0.013000000,-0.133000000,-0.117000000,0.003000000,0.009000000,0.009000000
1696852342.089803,4097761.000000000,1696852342.090568304,0.013000000,-0.134000000,-0.118000000,0.003000000,0.009000000,0.009000000
1696852342.091718,4097762.000000000,1696852342.092549086,0.014000000,-0.135000000,-0.118000000,0.003000000,0.009000000,0.009000000
1696852342.093821,4097763.000000000,1696852342.094540358,0.014000000,-0.137000000,-0.117000000,0.003000000,0.009000000,0.009000000
1696852342.095684,4097764.000000000,1696852342.096539736,0.014000000,-0.138000000,-0.116000000,0.003000000,0.009000000,0.009000000
1696852342.097822,4097765.000000000,1696852342.098625183,0.014000000,-0.138000000,-0.114000000,0.003000000,0.009000000,0.009000000
1696852342.099711,4097766.000000000,1696852342.100569010,0.015000000,-0.139000000,-0.112000000,0.003000000,0.009000000,0.009000000
1696852342.101745,4097767.000000000,1696852342.102591991,0.015000000,-0.139000000,-0.109000000,0.003000000,0.009000000,0.009000000
1696852342.103785,4097768.000000000,1696852342.104576349,0.015000000,-0.139000000,-0.107000000,0.003000000,0.009000000,0.009000000
1696852342.105719,4097769.000000000,1696852342.106563330,0.015000000,-0.139000000,-0.104000000,0.003000000,0.009000000,0.009000000
1696852342.107706,4097770.000000000,1696852342.108572960,0.015000000,-0.140000000,-0.101000000,0.003000000,0.009000000,0.009000000
1696852342.109710,4097771.000000000,1696852342.110560656,0.015000000,-0.141000000,-0.098000000,0.003000000,0.009000000,0.009000000
1696852342.111797,4097772.000000000,1696852342.112592936,0.016000000,-0.143000000,-0.095000000,0.003000000,0.009000000,0.009000000
1696852342.114128,4097773.000000000,1696852342.114570856,0.017000000,-0.145000000,-0.092000000,0.003000000,0.009000000,0.009000000
1696852342.115840,4097774.000000000,1696852342.116551161,0.017000000,-0.148000000,-0.090000000,0.003000000,0.009000000,0.009000000
1696852342.117843,4097775.000000000,1696852342.118579865,0.018000000,-0.150000000,-0.087000000,0.003000000,0.009000000,0.009000000
1696852342.119771,4097776.000000000,1696852342.120561123,0.018000000,-0.151000000,-0.083000000,0.003000000,0.009000000,0.009000000
1696852342.121942,4097777.000000000,1696852342.122553349,0.018000000,-0.152000000,-0.080000000,0.003000000,0.009000000,0.009000000
1696852342.123963,4097778.000000000,1696852342.124606609,0.019000000,-0.153000000,-0.076000000,0.003000000,0.009000000,0.009000000
1696852342.125879,4097779.000000000,1696852342.126540899,0.020000000,-0.153000000,-0.073000000,0.003000000,0.009000000,0.008000000
1696852342.127657,4097780.000000000,1696852342.128541946,0.020000000,-0.154000000,-0.069000000,0.003000000,0.009000000,0.008000000
1696852342.130121,4097781.000000000,1696852342.130558968,0.020000000,-0.154000000,-0.066000000,0.003000000,0.009000000,0.008000000
1696852342.131816,4097782.000000000,1696852342.132549524,0.020000000,-0.155000000,-0.063000000,0.003000000,0.009000000,0.008000000
1696852342.133749,4097783.000000000,1696852342.134553909,0.020000000,-0.157000000,-0.061000000,0.003000000,0.009000000,0.008000000
1696852342.138191,4097784.000000000,1696852342.136544228,0.021000000,-0.159000000,-0.058000000,0.003000000,0.009000000,0.008000000
1696852342.138608,4097785.000000000,1696852342.138570070,0.021000000,-0.161000000,-0.056000000,0.003000000,0.009000000,0.008000000
1696852342.139760,4097786.000000000,1696852342.140546322,0.022000000,-0.163000000,-0.054000000,0.003000000,0.009000000,0.008000000
1696852342.141725,4097787.000000000,1696852342.142551184,0.022000000,-0.164000000,-0.052000000,0.003000000,0.009000000,0.008000000
1696852342.143630,4097788.000000000,1696852342.144545794,0.023000000,-0.165000000,-0.049000000,0.003000000,0.009000000,0.008000000
1696852342.145736,4097789.000000000,1696852342.146589518,0.022000000,-0.165000000,-0.047000000,0.003000000,0.009000000,0.008000000
1696852342.147681,4097790.000000000,1696852342.148543119,0.023000000,-0.164000000,-0.045000000,0.003000000,0.009000000,0.008000000
1696852342.149779,4097791.000000000,1696852342.150652409,0.023000000,-0.163000000,-0.042000000,0.003000000,0.009000000,0.008000000
1696852342.151652,4097792.000000000,1696852342.152551889,0.022000000,-0.163000000,-0.040000000,0.003000000,0.009000000,0.008000000
1696852342.154312,4097793.000000000,1696852342.154551744,0.022000000,-0.163000000,-0.038000000,0.003000000,0.009000000,0.008000000
1696852342.155677,4097794.000000000,1696852342.156545877,0.022000000,-0.163000000,-0.037000000,0.003000000,0.009000000,0.008000000
1696852342.157710,4097795.000000000,1696852342.158544302,0.022000000,-0.164000000,-0.037000000,0.003000000,0.009000000,0.008000000
1696852342.159730,4097796.000000000,1696852342.160542488,0.022000000,-0.165000000,-0.035000000,0.004000000,0.009000000,0.008000000
1696852342.161939,4097797.000000000,1696852342.162557840,0.022000000,-0.166000000,-0.035000000,0.004000000,0.009000000,0.008000000
1696852342.163789,4097798.000000000,1696852342.164543152,0.023000000,-0.167000000,-0.035000000,0.004000000,0.009000000,0.008000000
1696852342.165969,4097799.000000000,1696852342.166528463,0.022000000,-0.167000000,-0.033000000,0.004000000,0.009000000,0.008000000
1696852342.167757,4097800.000000000,1696852342.168572426,0.022000000,-0.166000000,-0.032000000,0.004000000,0.009000000,0.008000000
1696852342.169834,4097801.000000000,1696852342.170561790,0.022000000,-0.165000000,-0.029000000,0.004000000,0.009000000,0.008000000
1696852342.171771,4097802.000000000,1696852342.172548532,0.021000000,-0.163000000,-0.028000000,0.004000000,0.009000000,0.008000000
1696852342.173795,4097803.000000000,1696852342.174547195,0.021000000,-0.162000000,-0.027000000,0.003000000,0.009000000,0.007000000
1696852342.175775,4097804.000000000,1696852342.176551580,0.020000000,-0.161000000,-0.026000000,0.003000000,0.009000000,0.007000000
1696852342.177920,4097805.000000000,1696852342.178582668,0.020000000,-0.160000000,-0.025000000,0.003000000,0.009000000,0.007000000
1696852342.179703,4097806.000000000,1696852342.180567265,0.020000000,-0.161000000,-0.024000000,0.003000000,0.009000000,0.007000000
1696852342.181741,4097807.000000000,1696852342.182560205,0.019000000,-0.161000000,-0.023000000,0.004000000,0.009000000,0.007000000
1696852342.183718,4097808.000000000,1696852342.184570313,0.019000000,-0.162000000,-0.023000000,0.004000000,0.009000000,0.007000000
1696852342.185731,4097809.000000000,1696852342.186548948,0.019000000,-0.162000000,-0.023000000,0.004000000,0.009000000,0.007000000
1696852342.187645,4097810.000000000,1696852342.188551664,0.019000000,-0.162000000,-0.022000000,0.004000000,0.009000000,0.007000000
1696852342.189790,4097811.000000000,1696852342.190590858,0.019000000,-0.161000000,-0.021000000,0.004000000,0.009000000,0.007000000
1696852342.191692,4097812.000000000,1696852342.192575455,0.019000000,-0.160000000,-0.019000000,0.004000000,0.009000000,0.007000000
1696852342.193750,4097813.000000000,1696852342.194574356,0.018000000,-0.159000000,-0.017000000,0.003000000,0.009000000,0.007000000
1696852342.195698,4097814.000000000,1696852342.196558475,0.018000000,-0.157000000,-0.015000000,0.003000000,0.009000000,0.007000000
1696852342.197770,4097815.000000000,1696852342.198554993,0.018000000,-0.156000000,-0.014000000,0.003000000,0.009000000,0.007000000
1696852342.199741,4097816.000000000,1696852342.200582504,0.018000000,-0.156000000,-0.014000000,0.003000000,0.009000000,0.007000000
1696852342.201706,4097817.000000000,1696852342.202569723,0.017000000,-0.156000000,-0.013000000,0.003000000,0.009000000,0.007000000
1696852342.203662,4097818.000000000,1696852342.204565287,0.017000000,-0.156000000,-0.012000000,0.003000000,0.009000000,0.007000000
1696852342.205697,4097819.000000000,1696852342.206558943,0.017000000,-0.157000000,-0.012000000,0.003000000,0.009000000,0.007000000
1696852342.207649,4097820.000000000,1696852342.208567142,0.018000000,-0.158000000,-0.012000000,0.003000000,0.009000000,0.007000000
1696852342.209768,4097821.000000000,1696852342.210559130,0.018000000,-0.158000000,-0.011000000,0.003000000,0.009000000,0.007000000
1696852342.211710,4097822.000000000,1696852342.212635756,0.018000000,-0.158000000,-0.009000000,0.003000000,0.009000000,0.007000000
1696852342.213692,4097823.000000000,1696852342.214565039,0.018000000,-0.157000000,-0.009000000,0.003000000,0.009000000,0.007000000
1696852342.216025,4097824.000000000,1696852342.216553688,0.018000000,-0.156000000,-0.008000000,0.003000000,0.009000000,0.007000000
1696852342.217658,4097825.000000000,1696852342.218570232,0.018000000,-0.155000000,-0.006000000,0.003000000,0.009000000,0.007000000
1696852342.219759,4097826.000000000,1696852342.220565796,0.018000000,-0.154000000,-0.006000000,0.003000000,0.009000000,0.007000000
1696852342.221634,4097827.000000000,1696852342.222568035,0.018000000,-0.153000000,-0.005000000,0.003000000,0.009000000,0.007000000
1696852342.224248,4097828.000000000,1696852342.224566460,0.017000000,-0.153000000,-0.005000000,0.003000000,0.009000000,0.007000000
1696852342.225791,4097829.000000000,1696852342.226564169,0.018000000,-0.154000000,-0.005000000,0.003000000,0.009000000,0.007000000
1696852342.227665,4097830.000000000,1696852342.228550673,0.018000000,-0.155000000,-0.006000000,0.003000000,0.009000000,0.007000000
1696852342.229622,4097831.000000000,1696852342.230554581,0.019000000,-0.156000000,-0.006000000,0.003000000,0.009000000,0.007000000
1696852342.231908,4097832.000000000,1696852342.232561827,0.019000000,-0.157000000,-0.005000000,0.003000000,0.009000000,0.007000000
1696852342.233694,4097833.000000000,1696852342.234607935,0.019000000,-0.157000000,-0.006000000,0.003000000,0.009000000,0.007000000
1696852342.235675,4097834.000000000,1696852342.236548185,0.020000000,-0.157000000,-0.006000000,0.003000000,0.009000000,0.007000000
1696852342.237632,4097835.000000000,1696852342.238565445,0.020000000,-0.156000000,-0.005000000,0.003000000,0.009000000,0.007000000
1696852342.239705,4097836.000000000,1696852342.240556717,0.020000000,-0.155000000,-0.004000000,0.003000000,0.009000000,0.007000000
1696852342.241734,4097837.000000000,1696852342.242583275,0.020000000,-0.154000000,-0.004000000,0.003000000,0.009000000,0.007000000
1696852342.243663,4097838.000000000,1696852342.244548321,0.020000000,-0.154000000,-0.004000000,0.003000000,0.009000000,0.007000000
1696852342.245607,4097839.000000000,1696852342.246534586,0.020000000,-0.154000000,-0.005000000,0.003000000,0.009000000,0.007000000
1696852342.247594,4097840.000000000,1696852342.248547792,0.020000000,-0.155000000,-0.006000000,0.003000000,0.009000000,0.007000000
1696852342.249754,4097841.000000000,1696852342.250638962,0.021000000,-0.156000000,-0.006000000,0.003000000,0.009000000,0.007000000
1696852342.251605,4097842.000000000,1696852342.252559900,0.021000000,-0.157000000,-0.007000000,0.003000000,0.009000000,0.007000000
1696852342.253639,4097843.000000000,1696852342.254580975,0.022000000,-0.158000000,-0.008000000,0.003000000,0.009000000,0.007000000
1696852342.255620,4097844.000000000,1696852342.256572247,0.022000000,-0.159000000,-0.008000000,0.003000000,0.009000000,0.007000000
1696852342.257724,4097845.000000000,1696852342.258576632,0.022000000,-0.159000000,-0.009000000,0.003000000,0.009000000,0.007000000
1696852342.259622,4097846.000000000,1696852342.260540724,0.023000000,-0.159000000,-0.009000000,0.003000000,0.009000000,0.007000000
1696852342.261621,4097847.000000000,1696852342.262559891,0.023000000,-0.158000000,-0.009000000,0.003000000,0.009000000,0.007000000
1696852342.264176,4097848.000000000,1696852342.264543295,0.023000000,-0.157000000,-0.010000000,0.003000000,0.009000000,0.007000000
1696852342.266189,4097849.000000000,1696852342.266573668,0.023000000,-0.156000000,-0.010000000,0.003000000,0.009000000,0.007000000
1696852342.267708,4097850.000000000,1696852342.268525124,0.024000000,-0.156000000,-0.011000000,0.003000000,0.009000000,0.007000000
1696852342.269711,4097851.000000000,1696852342.270583391,0.024000000,-0.157000000,-0.012000000,0.003000000,0.009000000,0.007000000
1696852342.271597,4097852.000000000,1696852342.272522211,0.024000000,-0.158000000,-0.014000000,0.003000000,0.009000000,0.007000000
1696852342.273783,4097853.000000000,1696852342.274592400,0.025000000,-0.159000000,-0.015000000,0.003000000,0.009000000,0.007000000
1696852342.275683,4097854.000000000,1696852342.276584387,0.025000000,-0.160000000,-0.016000000,0.004000000,0.009000000,0.007000000
1696852342.277704,4097855.000000000,1696852342.278598547,0.025000000,-0.161000000,-0.018000000,0.004000000,0.009000000,0.007000000
1696852342.279697,4097856.000000000,1696852342.280574560,0.026000000,-0.161000000,-0.018000000,0.004000000,0.009000000,0.007000000
1696852342.281724,4097857.000000000,1696852342.282633781,0.026000000,-0.161000000,-0.019000000,0.004000000,0.009000000,0.007000000
1696852342.284118,4097858.000000000,1696852342.284588099,0.026000000,-0.160000000,-0.020000000,0.004000000,0.009000000,0.007000000
1696852342.285654,4097859.000000000,1696852342.286542892,0.026000000,-0.159000000,-0.020000000,0.004000000,0.009000000,0.007000000
1696852342.287667,4097860.000000000,1696852342.288566828,0.026000000,-0.159000000,-0.020000000,0.003000000,0.009000000,0.007000000
1696852342.289686,4097861.000000000,1696852342.290595531,0.026000000,-0.158000000,-0.021000000,0.003000000,0.009000000,0.007000000
1696852342.291639,4097862.000000000,1696852342.292597294,0.026000000,-0.158000000,-0.022000000,0.003000000,0.009000000,0.007000000
1696852342.293607,4097863.000000000,1696852342.294558048,0.026000000,-0.159000000,-0.023000000,0.003000000,0.009000000,0.007000000
1696852342.295855,4097864.000000000,1696852342.296807051,0.026000000,-0.160000000,-0.023000000,0.004000000,0.009000000,0.007000000
1696852342.297879,4097865.000000000,1696852342.298601389,0.026000000,-0.161000000,-0.025000000,0.004000000,0.009000000,0.008000000
1696852342.299684,4097866.000000000,1696852342.300610065,0.026000000,-0.162000000,-0.027000000,0.004000000,0.009000000,0.008000000
1696852342.301792,4097867.000000000,1696852342.302715063,0.026000000,-0.162000000,-0.028000000,0.004000000,0.009000000,0.008000000
1696852342.304497,4097868.000000000,1696852342.304584265,0.026000000,-0.162000000,-0.029000000,0.004000000,0.009000000,0.008000000
1696852342.305890,4097869.000000000,1696852342.306599617,0.026000000,-0.161000000,-0.029000000,0.004000000,0.009000000,0.008000000
1696852342.307641,4097870.000000000,1696852342.308590174,0.025000000,-0.160000000,-0.030000000,0.004000000,0.009000000,0.008000000
1696852342.309819,4097871.000000000,1696852342.310579777,0.025000000,-0.158000000,-0.030000000,0.003000000,0.009000000,0.008000000
1696852342.311670,4097872.000000000,1696852342.312600613,0.024000000,-0.157000000,-0.030000000,0.003000000,0.009000000,0.008000000
1696852342.313816,4097873.000000000,1696852342.314578533,0.023000000,-0.157000000,-0.032000000,0.003000000,0.009000000,0.008000000
1696852342.315755,4097874.000000000,1696852342.316692114,0.022000000,-0.157000000,-0.034000000,0.003000000,0.009000000,0.008000000
1696852342.317642,4097875.000000000,1696852342.318571568,0.022000000,-0.157000000,-0.036000000,0.003000000,0.009000000,0.008000000
1696852342.320067,4097876.000000000,1696852342.320607901,0.021000000,-0.158000000,-0.037000000,0.004000000,0.009000000,0.008000000
1696852342.321792,4097877.000000000,1696852342.322600126,0.021000000,-0.158000000,-0.040000000,0.004000000,0.009000000,0.008000000
1696852342.323627,4097878.000000000,1696852342.324562550,0.020000000,-0.158000000,-0.042000000,0.004000000,0.009000000,0.008000000
1696852342.325678,4097879.000000000,1696852342.326550245,0.019000000,-0.157000000,-0.045000000,0.004000000,0.009000000,0.008000000
1696852342.327673,4097880.000000000,1696852342.328596830,0.018000000,-0.156000000,-0.046000000,0.004000000,0.009000000,0.008000000
1696852342.330002,4097881.000000000,1696852342.330569506,0.017000000,-0.154000000,-0.048000000,0.003000000,0.009000000,0.008000000
1696852342.332615,4097882.000000000,1696852342.333437681,0.016000000,-0.152000000,-0.049000000,0.003000000,0.009000000,0.008000000
1696852342.333734,4097883.000000000,1696852342.334559917,0.015000000,-0.151000000,-0.054000000,0.003000000,0.009000000,0.008000000
1696852342.335751,4097884.000000000,1696852342.336561203,0.014000000,-0.149000000,-0.056000000,0.003000000,0.009000000,0.008000000
1696852342.338015,4097885.000000000,1696852342.338569164,0.013000000,-0.148000000,-0.059000000,0.003000000,0.009000000,0.008000000
1696852342.339687,4097886.000000000,1696852342.340559244,0.012000000,-0.148000000,-0.063000000,0.003000000,0.009000000,0.008000000
1696852342.341674,4097887.000000000,1696852342.342563868,0.012000000,-0.149000000,-0.067000000,0.003000000,0.009000000,0.008000000
1696852342.343742,4097888.000000000,1696852342.344591141,0.011000000,-0.149000000,-0.071000000,0.003000000,0.009000000,0.008000000
1696852342.345826,4097889.000000000,1696852342.346569777,0.010000000,-0.149000000,-0.076000000,0.003000000,0.009000000,0.009000000
1696852342.347731,4097890.000000000,1696852342.348579884,0.010000000,-0.148000000,-0.079000000,0.003000000,0.009000000,0.009000000
1696852342.349719,4097891.000000000,1696852342.350575686,0.009000000,-0.147000000,-0.083000000,0.003000000,0.009000000,0.009000000
1696852342.352101,4097892.000000000,1696852342.352580786,0.008000000,-0.145000000,-0.086000000,0.003000000,0.009000000,0.009000000
1696852342.353961,4097893.000000000,1696852342.354653120,0.008000000,-0.143000000,-0.089000000,0.003000000,0.009000000,0.009000000
1696852342.355717,4097894.000000000,1696852342.356580496,0.007000000,-0.141000000,-0.092000000,0.003000000,0.009000000,0.009000000
1696852342.358528,4097895.000000000,1696852342.358567715,0.006000000,-0.140000000,-0.096000000,0.003000000,0.009000000,0.009000000
1696852342.359723,4097896.000000000,1696852342.360576630,0.005000000,-0.139000000,-0.098000000,0.003000000,0.009000000,0.009000000
1696852342.361876,4097897.000000000,1696852342.362552643,0.005000000,-0.140000000,-0.103000000,0.003000000,0.009000000,0.009000000
1696852342.363655,4097898.000000000,1696852342.364546776,0.005000000,-0.140000000,-0.106000000,0.003000000,0.009000000,0.009000000
1696852342.366357,4097899.000000000,1696852342.366601706,0.005000000,-0.141000000,-0.109000000,0.003000000,0.009000000,0.009000000
1696852342.367660,4097900.000000000,1696852342.368565798,0.005000000,-0.141000000,-0.113000000,0.003000000,0.009000000,0.009000000
1696852342.369636,4097901.000000000,1696852342.370591402,0.005000000,-0.142000000,-0.115000000,0.003000000,0.009000000,0.009000000
1696852342.371682,4097902.000000000,1696852342.372582912,0.005000000,-0.142000000,-0.117000000,0.003000000,0.009000000,0.009000000
1696852342.373809,4097903.000000000,1696852342.374592066,0.005000000,-0.141000000,-0.119000000,0.003000000,0.009000000,0.010000000
1696852342.375613,4097904.000000000,1696852342.376564264,0.005000000,-0.140000000,-0.119000000,0.003000000,0.009000000,0.010000000
1696852342.378050,4097905.000000000,1696852342.378572226,0.005000000,-0.139000000,-0.119000000,0.003000000,0.009000000,0.010000000
1696852342.380380,4097906.000000000,1696852342.380553007,0.006000000,-0.139000000,-0.120000000,0.003000000,0.009000000,0.010000000
1696852342.381671,4097907.000000000,1696852342.382563114,0.005000000,-0.139000000,-0.119000000,0.003000000,0.009000000,0.010000000
1696852342.383632,4097908.000000000,1696852342.384568930,0.006000000,-0.140000000,-0.120000000,0.003000000,0.009000000,0.010000000
1696852342.385772,4097909.000000000,1696852342.386570215,0.007000000,-0.141000000,-0.120000000,0.003000000,0.009000000,0.010000000
1696852342.387620,4097910.000000000,1696852342.388582945,0.007000000,-0.143000000,-0.120000000,0.003000000,0.009000000,0.010000000
1696852342.389684,4097911.000000000,1696852342.390570402,0.008000000,-0.144000000,-0.119000000,0.003000000,0.009000000,0.010000000
1696852342.391651,4097912.000000000,1696852342.392562389,0.008000000,-0.146000000,-0.118000000,0.003000000,0.009000000,0.009000000
1696852342.393806,4097913.000000000,1696852342.394569874,0.009000000,-0.147000000,-0.116000000,0.003000000,0.009000000,0.009000000
1696852342.395661,4097914.000000000,1696852342.396571875,0.009000000,-0.148000000,-0.114000000,0.003000000,0.009000000,0.009000000
1696852342.397608,4097915.000000000,1696852342.398573875,0.010000000,-0.147000000,-0.111000000,0.003000000,0.009000000,0.009000000
1696852342.399693,4097916.000000000,1696852342.400573969,0.010000000,-0.147000000,-0.108000000,0.003000000,0.009000000,0.009000000
1696852342.401761,4097917.000000000,1696852342.402608156,0.010000000,-0.147000000,-0.105000000,0.003000000,0.009000000,0.009000000
1696852342.403666,4097918.000000000,1696852342.404557228,0.010000000,-0.148000000,-0.101000000,0.003000000,0.009000000,0.009000000
1696852342.405692,4097919.000000000,1696852342.406569958,0.011000000,-0.149000000,-0.098000000,0.003000000,0.009000000,0.009000000
1696852342.407685,4097920.000000000,1696852342.408549547,0.012000000,-0.151000000,-0.097000000,0.003000000,0.009000000,0.009000000
1696852342.409797,4097921.000000000,1696852342.410619736,0.012000000,-0.153000000,-0.094000000,0.003000000,0.009000000,0.009000000
1696852342.412318,4097922.000000000,1696852342.412575960,0.013000000,-0.155000000,-0.091000000,0.003000000,0.009000000,0.009000000
1696852342.413959,4097923.000000000,1696852342.414564371,0.014000000,-0.157000000,-0.088000000,0.004000000,0.009000000,0.009000000
1696852342.415731,4097924.000000000,1696852342.416556358,0.015000000,-0.158000000,-0.086000000,0.004000000,0.009000000,0.009000000
1696852342.417691,4097925.000000000,1696852342.418559313,0.015000000,-0.159000000,-0.083000000,0.004000000,0.009000000,0.009000000
1696852342.419706,4097926.000000000,1696852342.420552969,0.016000000,-0.159000000,-0.080000000,0.004000000,0.009000000,0.009000000
1696852342.421727,4097927.000000000,1696852342.422556639,0.016000000,-0.159000000,-0.075000000,0.004000000,0.009000000,0.008000000
1696852342.424039,4097928.000000000,1696852342.424573660,0.016000000,-0.159000000,-0.072000000,0.003000000,0.009000000,0.008000000
1696852342.425705,4097929.000000000,1696852342.426550388,0.016000000,-0.159000000,-0.070000000,0.003000000,0.009000000,0.008000000
1696852342.427719,4097930.000000000,1696852342.428551435,0.017000000,-0.160000000,-0.068000000,0.003000000,0.009000000,0.008000000
1696852342.429655,4097931.000000000,1696852342.430560112,0.017000000,-0.161000000,-0.065000000,0.003000000,0.009000000,0.008000000
1696852342.432088,4097932.000000000,1696852342.432679653,0.017000000,-0.162000000,-0.063000000,0.004000000,0.009000000,0.008000000
1696852342.433773,4097933.000000000,1696852342.434574366,0.018000000,-0.164000000,-0.062000000,0.004000000,0.009000000,0.008000000
1696852342.435760,4097934.000000000,1696852342.436570168,0.019000000,-0.165000000,-0.061000000,0.004000000,0.009000000,0.008000000
1696852342.437897,4097935.000000000,1696852342.438625097,0.019000000,-0.167000000,-0.060000000,0.004000000,0.009000000,0.008000000
1696852342.439756,4097936.000000000,1696852342.440591097,0.020000000,-0.167000000,-0.059000000,0.004000000,0.009000000,0.008000000
1696852342.442080,4097937.000000000,1696852342.442584991,0.020000000,-0.167000000,-0.057000000,0.004000000,0.009000000,0.008000000
1696852342.443702,4097938.000000000,1696852342.444579363,0.020000000,-0.166000000,-0.056000000,0.004000000,0.009000000,0.008000000
1696852342.445804,4097939.000000000,1696852342.446569443,0.020000000,-0.165000000,-0.054000000,0.004000000,0.009000000,0.008000000
1696852342.447726,4097940.000000000,1696852342.448571920,0.020000000,-0.165000000,-0.053000000,0.004000000,0.009000000,0.008000000
1696852342.449773,4097941.000000000,1696852342.450618505,0.021000000,-0.164000000,-0.053000000,0.004000000,0.009000000,0.008000000
1696852342.451685,4097942.000000000,1696852342.452569008,0.021000000,-0.165000000,-0.052000000,0.004000000,0.009000000,0.008000000
1696852342.453820,4097943.000000000,1696852342.454644918,0.021000000,-0.165000000,-0.052000000,0.004000000,0.009000000,0.008000000
1696852342.455672,4097944.000000000,1696852342.456566334,0.021000000,-0.166000000,-0.051000000,0.004000000,0.009000000,0.008000000
1696852342.458027,4097945.000000000,1696852342.458609581,0.021000000,-0.168000000,-0.052000000,0.004000000,0.009000000,0.008000000
1696852342.459698,4097946.000000000,1696852342.460572481,0.022000000,-0.169000000,-0.053000000,0.004000000,0.009000000,0.008000000
1696852342.461724,4097947.000000000,1696852342.462545872,0.022000000,-0.169000000,-0.050000000,0.004000000,0.009000000,0.008000000
1696852342.463703,4097948.000000000,1696852342.464570522,0.022000000,-0.168000000,-0.050000000,0.004000000,0.009000000,0.008000000
1696852342.466099,4097949.000000000,1696852342.466583252,0.022000000,-0.167000000,-0.049000000,0.004000000,0.009000000,0.008000000
1696852342.468261,4097950.000000000,1696852342.468549490,0.022000000,-0.166000000,-0.048000000,0.004000000,0.009000000,0.008000000
1696852342.469680,4097951.000000000,1696852342.470571518,0.022000000,-0.165000000,-0.047000000,0.003000000,0.009000000,0.008000000
1696852342.471719,4097952.000000000,1696852342.472562790,0.022000000,-0.164000000,-0.046000000,0.003000000,0.009000000,0.008000000
1696852342.474207,4097953.000000000,1696852342.474581242,0.022000000,-0.164000000,-0.045000000,0.003000000,0.009000000,0.008000000
1696852342.475773,4097954.000000000,1696852342.476619720,0.022000000,-0.164000000,-0.045000000,0.003000000,0.009000000,0.008000000
1696852342.477654,4097955.000000000,1696852342.478563070,0.022000000,-0.165000000,-0.045000000,0.003000000,0.009000000,0.008000000
1696852342.479741,4097956.000000000,1696852342.480568171,0.022000000,-0.166000000,-0.045000000,0.004000000,0.009000000,0.008000000
1696852342.481796,4097957.000000000,1696852342.482618809,0.023000000,-0.167000000,-0.044000000,0.004000000,0.009000000,0.008000000
1696852342.483756,4097958.000000000,1696852342.484593391,0.023000000,-0.168000000,-0.044000000,0.004000000,0.009000000,0.008000000
1696852342.485821,4097959.000000000,1696852342.486578941,0.023000000,-0.167000000,-0.043000000,0.004000000,0.009000000,0.008000000
1696852342.487709,4097960.000000000,1696852342.488571644,0.023000000,-0.167000000,-0.042000000,0.004000000,0.009000000,0.008000000
1696852342.489696,4097961.000000000,1696852342.490562201,0.023000000,-0.166000000,-0.040000000,0.004000000,0.009000000,0.008000000
1696852342.491782,4097962.000000000,1696852342.492573977,0.023000000,-0.164000000,-0.039000000,0.003000000,0.009000000,0.008000000
1696852342.493710,4097963.000000000,1696852342.494564056,0.022000000,-0.163000000,-0.037000000,0.003000000,0.009000000,0.008000000
1696852342.495725,4097964.000000000,1696852342.496573687,0.022000000,-0.163000000,-0.036000000,0.003000000,0.009000000,0.008000000
1696852342.497798,4097965.000000000,1696852342.498625040,0.022000000,-0.163000000,-0.035000000,0.003000000,0.009000000,0.007000000
1696852342.499692,4097966.000000000,1696852342.500555038,0.022000000,-0.163000000,-0.035000000,0.003000000,0.009000000,0.008000000
1696852342.501719,4097967.000000000,1696852342.502592802,0.022000000,-0.164000000,-0.035000000,0.004000000,0.009000000,0.008000000
1696852342.503757,4097968.000000000,1696852342.504627705,0.023000000,-0.165000000,-0.035000000,0.004000000,0.009000000,0.007000000
1696852342.506034,4097969.000000000,1696852342.506580830,0.023000000,-0.166000000,-0.036000000,0.004000000,0.009000000,0.007000000
1696852342.507763,4097970.000000000,1696852342.508575439,0.023000000,-0.166000000,-0.036000000,0.004000000,0.009000000,0.007000000
1696852342.509794,4097971.000000000,1696852342.510577917,0.023000000,-0.166000000,-0.036000000,0.004000000,0.009000000,0.007000000
1696852342.512911,4097972.000000000,1696852342.512612343,0.023000000,-0.165000000,-0.035000000,0.004000000,0.009000000,0.008000000
1696852342.514185,4097973.000000000,1696852342.514581203,0.023000000,-0.163000000,-0.035000000,0.004000000,0.009000000,0.008000000
1696852342.515777,4097974.000000000,1696852342.516593218,0.023000000,-0.162000000,-0.034000000,0.004000000,0.009000000,0.008000000
1696852342.517797,4097975.000000000,1696852342.518579960,0.023000000,-0.162000000,-0.034000000,0.004000000,0.009000000,0.008000000
1696852342.519779,4097976.000000000,1696852342.520603418,0.023000000,-0.161000000,-0.035000000,0.004000000,0.009000000,0.008000000
1696852342.521750,4097977.000000000,1696852342.522579432,0.023000000,-0.162000000,-0.036000000,0.004000000,0.009000000,0.008000000
1696852342.523720,4097978.000000000,1696852342.524569750,0.023000000,-0.163000000,-0.036000000,0.004000000,0.009000000,0.008000000
1696852342.525908,4097979.000000000,1696852342.526576042,0.023000000,-0.164000000,-0.039000000,0.004000000,0.009000000,0.008000000
1696852342.527780,4097980.000000000,1696852342.528570175,0.024000000,-0.165000000,-0.040000000,0.004000000,0.009000000,0.008000000
1696852342.529803,4097981.000000000,1696852342.530575037,0.024000000,-0.165000000,-0.041000000,0.004000000,0.009000000,0.008000000
1696852342.532067,4097982.000000000,1696852342.532584190,0.024000000,-0.165000000,-0.041000000,0.004000000,0.009000000,0.008000000
1696852342.533823,4097983.000000000,1696852342.534569502,0.024000000,-0.165000000,-0.043000000,0.004000000,0.009000000,0.008000000
1696852342.535743,4097984.000000000,1696852342.536576271,0.024000000,-0.164000000,-0.042000000,0.004000000,0.009000000,0.008000000
1696852342.537738,4097985.000000000,1696852342.538605213,0.024000000,-0.163000000,-0.042000000,0.004000000,0.009000000,0.008000000
1696852342.539817,4097986.000000000,1696852342.540573120,0.024000000,-0.162000000,-0.042000000,0.004000000,0.009000000,0.008000000
1696852342.541770,4097987.000000000,1696852342.542605162,0.024000000,-0.162000000,-0.044000000,0.004000000,0.009000000,0.008000000
1696852342.543653,4097988.000000000,1696852342.544570923,0.024000000,-0.162000000,-0.044000000,0.004000000,0.009000000,0.008000000
1696852342.545642,4097989.000000000,1696852342.546571970,0.024000000,-0.163000000,-0.046000000,0.004000000,0.009000000,0.008000000
1696852342.548021,4097990.000000000,1696852342.548572302,0.024000000,-0.164000000,-0.046000000,0.004000000,0.009000000,0.008000000
1696852342.549821,4097991.000000000,1696852342.550647736,0.025000000,-0.165000000,-0.048000000,0.004000000,0.009000000,0.008000000
1696852342.551650,4097992.000000000,1696852342.552579641,0.025000000,-0.166000000,-0.048000000,0.004000000,0.009000000,0.008000000
1696852342.553813,4097993.000000000,1696852342.554716349,0.025000000,-0.167000000,-0.050000000,0.004000000,0.009000000,0.008000000
1696852342.556170,4097994.000000000,1696852342.556589603,0.025000000,-0.166000000,-0.049000000,0.004000000,0.009000000,0.008000000
1696852342.557958,4097995.000000000,1696852342.558572054,0.025000000,-0.166000000,-0.048000000,0.004000000,0.009000000,0.008000000
1696852342.559798,4097996.000000000,1696852342.560587883,0.025000000,-0.165000000,-0.048000000,0.004000000,0.009000000,0.008000000
1696852342.561692,4097997.000000000,1696852342.562580109,0.025000000,-0.164000000,-0.048000000,0.004000000,0.009000000,0.008000000
1696852342.563716,4097998.000000000,1696852342.564603806,0.025000000,-0.163000000,-0.046000000,0.004000000,0.009000000,0.008000000
1696852342.565707,4097999.000000000,1696852342.566577673,0.025000000,-0.163000000,-0.047000000,0.004000000,0.009000000,0.008000000
