__time,/kms40_driver/wrench/header/seq,/kms40_driver/wrench/header/stamp,/kms40_driver/wrench/wrench/force/x,/kms40_driver/wrench/wrench/force/y,/kms40_driver/wrench/wrench/force/z,/kms40_driver/wrench/wrench/torque/x,/kms40_driver/wrench/wrench/torque/y,/kms40_driver/wrench/wrench/torque/z
1696853122.958195,4488179.000000000,1696853122.958640099,-0.072000000,-0.111000000,0.097000000,0.009000000,-0.001000000,-0.010000000
1696853122.960170,4488180.000000000,1696853122.960596800,-0.073000000,-0.111000000,0.098000000,0.009000000,-0.001000000,-0.010000000
1696853122.962306,4488181.000000000,1696853122.962630510,-0.073000000,-0.111000000,0.098000000,0.009000000,-0.001000000,-0.010000000
1696853122.964523,4488182.000000000,1696853122.964639187,-0.074000000,-0.110000000,0.099000000,0.008000000,-0.001000000,-0.010000000
1696853122.966586,4488183.000000000,1696853122.966604948,-0.074000000,-0.109000000,0.101000000,0.008000000,-0.001000000,-0.010000000
1696853122.969034,4488184.000000000,1696853122.968598127,-0.074000000,-0.109000000,0.101000000,0.008000000,-0.001000000,-0.010000000
1696853122.970227,4488185.000000000,1696853122.970619440,-0.075000000,-0.109000000,0.102000000,0.008000000,-0.001000000,-0.010000000
1696853122.972288,4488186.000000000,1696853122.972606421,-0.075000000,-0.110000000,0.102000000,0.008000000,-0.001000000,-0.010000000
1696853122.974279,4488187.000000000,1696853122.974602222,-0.075000000,-0.111000000,0.102000000,0.009000000,-0.001000000,-0.010000000
1696853122.976316,4488188.000000000,1696853122.976601601,-0.076000000,-0.112000000,0.103000000,0.009000000,-0.001000000,-0.010000000
1696853122.978415,4488189.000000000,1696853122.978600979,-0.076000000,-0.113000000,0.103000000,0.009000000,-0.001000000,-0.010000000
1696853122.980373,4488190.000000000,1696853122.980746031,-0.076000000,-0.114000000,0.103000000,0.009000000,-0.001000000,-0.010000000
1696853122.982242,4488191.000000000,1696853122.982674122,-0.076000000,-0.114000000,0.104000000,0.009000000,-0.001000000,-0.010000000
1696853122.984232,4488192.000000000,1696853122.984638691,-0.076000000,-0.113000000,0.104000000,0.009000000,-0.001000000,-0.010000000
1696853122.986413,4488193.000000000,1696853122.986588717,-0.077000000,-0.112000000,0.106000000,0.009000000,-0.001000000,-0.010000000
1696853122.988297,4488194.000000000,1696853122.988596916,-0.077000000,-0.110000000,0.106000000,0.009000000,-0.001000000,-0.010000000
1696853122.990284,4488195.000000000,1696853122.990594864,-0.078000000,-0.108000000,0.108000000,0.009000000,-0.001000000,-0.010000000
1696853122.992192,4488196.000000000,1696853122.992613077,-0.079000000,-0.107000000,0.107000000,0.009000000,-0.001000000,-0.010000000
1696853122.994472,4488197.000000000,1696853122.994626760,-0.079000000,-0.107000000,0.106000000,0.009000000,-0.001000000,-0.010000000
1696853122.996235,4488198.000000000,1696853122.996609211,-0.079000000,-0.106000000,0.105000000,0.009000000,-0.001000000,-0.010000000
1696853122.998277,4488199.000000000,1696853122.998602390,-0.079000000,-0.107000000,0.103000000,0.009000000,-0.001000000,-0.010000000
1696853123.000266,4488200.000000000,1696853123.000606298,-0.079000000,-0.106000000,0.102000000,0.009000000,-0.001000000,-0.010000000
1696853123.002362,4488201.000000000,1696853123.002661943,-0.079000000,-0.106000000,0.100000000,0.009000000,-0.001000000,-0.010000000
1696853123.004251,4488202.000000000,1696853123.004597902,-0.079000000,-0.105000000,0.098000000,0.009000000,-0.001000000,-0.010000000
1696853123.006358,4488203.000000000,1696853123.006650925,-0.079000000,-0.103000000,0.096000000,0.009000000,-0.001000000,-0.010000000
1696853123.008286,4488204.000000000,1696853123.008605480,-0.080000000,-0.100000000,0.095000000,0.009000000,-0.001000000,-0.010000000
1696853123.011518,4488205.000000000,1696853123.011415005,-0.080000000,-0.097000000,0.092000000,0.009000000,-0.001000000,-0.010000000
1696853123.014594,4488206.000000000,1696853123.013281107,-0.080000000,-0.094000000,0.089000000,0.009000000,-0.001000000,-0.010000000
1696853123.015407,4488207.000000000,1696853123.014593840,-0.080000000,-0.091000000,0.088000000,0.009000000,-0.001000000,-0.010000000
1696853123.016251,4488208.000000000,1696853123.016616106,-0.080000000,-0.089000000,0.082000000,0.009000000,-0.001000000,-0.010000000
1696853123.018286,4488209.000000000,1696853123.018601179,-0.080000000,-0.088000000,0.077000000,0.009000000,-0.001000000,-0.010000000
1696853123.020240,4488210.000000000,1696853123.020612955,-0.079000000,-0.087000000,0.073000000,0.009000000,-0.001000000,-0.010000000
1696853123.022287,4488211.000000000,1696853123.022600889,-0.079000000,-0.086000000,0.068000000,0.009000000,-0.001000000,-0.010000000
1696853123.024868,4488212.000000000,1696853123.024667978,-0.078000000,-0.085000000,0.063000000,0.009000000,-0.001000000,-0.010000000
1696853123.026223,4488213.000000000,1696853123.026598930,-0.078000000,-0.084000000,0.058000000,0.009000000,-0.001000000,-0.009000000
1696853123.028219,4488214.000000000,1696853123.028616428,-0.077000000,-0.082000000,0.052000000,0.009000000,-0.001000000,-0.009000000
1696853123.030203,4488215.000000000,1696853123.030601263,-0.077000000,-0.079000000,0.048000000,0.009000000,-0.001000000,-0.009000000
1696853123.032421,4488216.000000000,1696853123.032609701,-0.077000000,-0.076000000,0.044000000,0.009000000,-0.001000000,-0.009000000
1696853123.034176,4488217.000000000,1696853123.034597397,-0.076000000,-0.073000000,0.040000000,0.009000000,-0.001000000,-0.009000000
1696853123.036182,4488218.000000000,1696853123.036604881,-0.076000000,-0.071000000,0.035000000,0.009000000,-0.001000000,-0.009000000
1696853123.038209,4488219.000000000,1696853123.038597584,-0.075000000,-0.069000000,0.030000000,0.009000000,-0.001000000,-0.009000000
1696853123.040249,4488220.000000000,1696853123.040607214,-0.075000000,-0.068000000,0.025000000,0.009000000,-0.001000000,-0.009000000
1696853123.042180,4488221.000000000,1696853123.042594194,-0.073000000,-0.068000000,0.019000000,0.009000000,-0.001000000,-0.008000000
1696853123.044173,4488222.000000000,1696853123.044597149,-0.072000000,-0.068000000,0.015000000,0.009000000,-0.001000000,-0.008000000
1696853123.046214,4488223.000000000,1696853123.046637058,-0.072000000,-0.068000000,0.011000000,0.009000000,-0.001000000,-0.008000000
1696853123.048169,4488224.000000000,1696853123.048598528,-0.071000000,-0.068000000,0.007000000,0.009000000,-0.001000000,-0.008000000
1696853123.050282,4488225.000000000,1696853123.050634861,-0.070000000,-0.068000000,0.003000000,0.009000000,-0.001000000,-0.008000000
1696853123.052888,4488226.000000000,1696853123.052604675,-0.068000000,-0.067000000,0.000000000,0.009000000,-0.001000000,-0.008000000
1696853123.054195,4488227.000000000,1696853123.054600716,-0.068000000,-0.066000000,-0.001000000,0.009000000,-0.001000000,-0.008000000
1696853123.056234,4488228.000000000,1696853123.056606770,-0.067000000,-0.065000000,-0.002000000,0.009000000,-0.001000000,-0.008000000
1696853123.058236,4488229.000000000,1696853123.058592796,-0.067000000,-0.064000000,-0.004000000,0.008000000,-0.001000000,-0.008000000
1696853123.060309,4488230.000000000,1696853123.060615540,-0.066000000,-0.064000000,-0.006000000,0.008000000,-0.001000000,-0.008000000
1696853123.062300,4488231.000000000,1696853123.062611103,-0.065000000,-0.064000000,-0.006000000,0.008000000,-0.001000000,-0.008000000
1696853123.065217,4488232.000000000,1696853123.064644575,-0.065000000,-0.066000000,-0.007000000,0.008000000,-0.001000000,-0.008000000
1696853123.066961,4488233.000000000,1696853123.066821098,-0.064000000,-0.068000000,-0.007000000,0.009000000,-0.001000000,-0.008000000
1696853123.068259,4488234.000000000,1696853123.068641901,-0.063000000,-0.070000000,-0.007000000,0.009000000,-0.001000000,-0.008000000
1696853123.070289,4488235.000000000,1696853123.070618629,-0.062000000,-0.073000000,-0.006000000,0.009000000,-0.001000000,-0.008000000
1696853123.072225,4488236.000000000,1696853123.072605133,-0.061000000,-0.075000000,-0.006000000,0.009000000,-0.001000000,-0.008000000
1696853123.074788,4488237.000000000,1696853123.074603796,-0.061000000,-0.076000000,-0.004000000,0.009000000,-0.001000000,-0.008000000
1696853123.076202,4488238.000000000,1696853123.076597691,-0.060000000,-0.077000000,-0.001000000,0.009000000,-0.001000000,-0.008000000
1696853123.078186,4488239.000000000,1696853123.078596592,-0.060000000,-0.077000000,0.002000000,0.009000000,-0.001000000,-0.008000000
1696853123.080241,4488240.000000000,1696853123.080598116,-0.060000000,-0.078000000,0.006000000,0.009000000,-0.001000000,-0.008000000
1696853123.082429,4488241.000000000,1696853123.082613707,-0.060000000,-0.079000000,0.010000000,0.009000000,-0.001000000,-0.008000000
1696853123.084164,4488242.000000000,1696853123.084602118,-0.060000000,-0.081000000,0.014000000,0.009000000,-0.001000000,-0.008000000
1696853123.086182,4488243.000000000,1696853123.086604834,-0.060000000,-0.083000000,0.018000000,0.009000000,-0.001000000,-0.008000000
1696853123.088199,4488244.000000000,1696853123.088602543,-0.060000000,-0.086000000,0.021000000,0.009000000,-0.001000000,-0.008000000
1696853123.090337,4488245.000000000,1696853123.090646744,-0.059000000,-0.089000000,0.025000000,0.009000000,-0.001000000,-0.008000000
1696853123.092201,4488246.000000000,1696853123.092600822,-0.059000000,-0.093000000,0.030000000,0.009000000,-0.001000000,-0.008000000
1696853123.094165,4488247.000000000,1696853123.094594479,-0.059000000,-0.095000000,0.034000000,0.009000000,-0.001000000,-0.009000000
1696853123.096172,4488248.000000000,1696853123.096597195,-0.060000000,-0.097000000,0.040000000,0.009000000,-0.001000000,-0.009000000
1696853123.098178,4488249.000000000,1696853123.098599672,-0.059000000,-0.098000000,0.044000000,0.009000000,-0.001000000,-0.009000000
1696853123.100295,4488250.000000000,1696853123.100607634,-0.060000000,-0.099000000,0.050000000,0.009000000,-0.001000000,-0.009000000
1696853123.102183,4488251.000000000,1696853123.102614880,-0.061000000,-0.099000000,0.056000000,0.009000000,-0.001000000,-0.009000000
1696853123.105095,4488252.000000000,1696853123.104722738,-0.062000000,-0.100000000,0.062000000,0.009000000,-0.001000000,-0.009000000
1696853123.106275,4488253.000000000,1696853123.106619120,-0.063000000,-0.101000000,0.068000000,0.009000000,-0.001000000,-0.009000000
1696853123.108205,4488254.000000000,1696853123.108601570,-0.063000000,-0.103000000,0.071000000,0.009000000,-0.001000000,-0.009000000
1696853123.110213,4488255.000000000,1696853123.110604048,-0.064000000,-0.104000000,0.075000000,0.009000000,-0.001000000,-0.009000000
1696853123.112864,4488256.000000000,1696853123.112655163,-0.064000000,-0.107000000,0.080000000,0.009000000,-0.001000000,-0.010000000
1696853123.114921,4488257.000000000,1696853123.114611864,-0.064000000,-0.109000000,0.085000000,0.009000000,-0.001000000,-0.010000000
1696853123.116285,4488258.000000000,1696853123.116600752,-0.065000000,-0.111000000,0.088000000,0.009000000,-0.001000000,-0.010000000
1696853123.118254,4488259.000000000,1696853123.118608475,-0.065000000,-0.112000000,0.092000000,0.009000000,-0.001000000,-0.010000000
1696853123.120379,4488260.000000000,1696853123.120624304,-0.065000000,-0.112000000,0.095000000,0.009000000,-0.001000000,-0.010000000
1696853123.122182,4488261.000000000,1696853123.122590780,-0.066000000,-0.112000000,0.100000000,0.009000000,-0.001000000,-0.010000000
1696853123.124259,4488262.000000000,1696853123.124591589,-0.067000000,-0.111000000,0.104000000,0.009000000,-0.001000000,-0.010000000
1696853123.126148,4488263.000000000,1696853123.126569510,-0.068000000,-0.110000000,0.110000000,0.009000000,-0.001000000,-0.010000000
1696853123.128182,4488264.000000000,1696853123.128603697,-0.069000000,-0.109000000,0.112000000,0.009000000,-0.001000000,-0.010000000
1696853123.130148,4488265.000000000,1696853123.130585432,-0.069000000,-0.109000000,0.115000000,0.009000000,-0.001000000,-0.010000000
1696853123.132175,4488266.000000000,1696853123.132605791,-0.069000000,-0.110000000,0.117000000,0.009000000,-0.001000000,-0.010000000
1696853123.134244,4488267.000000000,1696853123.134715796,-0.070000000,-0.111000000,0.119000000,0.009000000,-0.001000000,-0.010000000
1696853123.136193,4488268.000000000,1696853123.136636972,-0.070000000,-0.112000000,0.121000000,0.009000000,-0.001000000,-0.011000000
1696853123.138162,4488269.000000000,1696853123.138602018,-0.070000000,-0.113000000,0.123000000,0.009000000,-0.001000000,-0.011000000
1696853123.140169,4488270.000000000,1696853123.140602112,-0.071000000,-0.113000000,0.126000000,0.009000000,-0.001000000,-0.011000000
1696853123.142151,4488271.000000000,1696853123.142605543,-0.070000000,-0.113000000,0.126000000,0.009000000,-0.001000000,-0.011000000
1696853123.144162,4488272.000000000,1696853123.144601107,-0.071000000,-0.112000000,0.130000000,0.009000000,-0.001000000,-0.011000000
1696853123.146327,4488273.000000000,1696853123.146605730,-0.072000000,-0.110000000,0.132000000,0.009000000,-0.001000000,-0.011000000
1696853123.148138,4488274.000000000,1696853123.148606062,-0.072000000,-0.108000000,0.135000000,0.009000000,-0.001000000,-0.011000000
1696853123.150109,4488275.000000000,1696853123.150600672,-0.073000000,-0.107000000,0.137000000,0.009000000,-0.001000000,-0.011000000
1696853123.152153,4488276.000000000,1696853123.152615786,-0.073000000,-0.106000000,0.138000000,0.008000000,-0.001000000,-0.011000000
1696853123.154214,4488277.000000000,1696853123.154615402,-0.073000000,-0.106000000,0.138000000,0.008000000,-0.001000000,-0.011000000
1696853123.156179,4488278.000000000,1696853123.156646967,-0.073000000,-0.106000000,0.139000000,0.009000000,-0.001000000,-0.011000000
1696853123.158138,4488279.000000000,1696853123.158601999,-0.073000000,-0.107000000,0.139000000,0.009000000,-0.001000000,-0.011000000
1696853123.160184,4488280.000000000,1696853123.160603762,-0.073000000,-0.108000000,0.139000000,0.009000000,-0.001000000,-0.011000000
1696853123.162275,4488281.000000000,1696853123.162629604,-0.073000000,-0.109000000,0.139000000,0.009000000,-0.001000000,-0.011000000
1696853123.164871,4488282.000000000,1696853123.164648533,-0.072000000,-0.108000000,0.140000000,0.009000000,-0.001000000,-0.011000000
1696853123.166283,4488283.000000000,1696853123.166608334,-0.072000000,-0.108000000,0.140000000,0.009000000,-0.001000000,-0.011000000
1696853123.168214,4488284.000000000,1696853123.168605804,-0.072000000,-0.106000000,0.142000000,0.008000000,-0.001000000,-0.011000000
1696853123.170244,4488285.000000000,1696853123.170619249,-0.072000000,-0.105000000,0.142000000,0.008000000,-0.001000000,-0.011000000
1696853123.172215,4488286.000000000,1696853123.172616720,-0.073000000,-0.103000000,0.143000000,0.008000000,-0.001000000,-0.011000000
1696853123.174275,4488287.000000000,1696853123.174605608,-0.073000000,-0.102000000,0.143000000,0.008000000,-0.001000000,-0.011000000
1696853123.176225,4488288.000000000,1696853123.176613092,-0.073000000,-0.102000000,0.143000000,0.008000000,-0.001000000,-0.011000000
1696853123.178451,4488289.000000000,1696853123.178663731,-0.073000000,-0.102000000,0.142000000,0.008000000,-0.001000000,-0.011000000
1696853123.180189,4488290.000000000,1696853123.180606127,-0.072000000,-0.103000000,0.142000000,0.008000000,-0.001000000,-0.011000000
1696853123.182252,4488291.000000000,1696853123.182618856,-0.072000000,-0.104000000,0.140000000,0.008000000,-0.001000000,-0.011000000
1696853123.184193,4488292.000000000,1696853123.184606314,-0.072000000,-0.106000000,0.139000000,0.008000000,-0.001000000,-0.011000000
1696853123.186285,4488293.000000000,1696853123.186634541,-0.071000000,-0.106000000,0.138000000,0.009000000,-0.001000000,-0.011000000
1696853123.188144,4488294.000000000,1696853123.188585997,-0.071000000,-0.106000000,0.137000000,0.009000000,-0.001000000,-0.011000000
1696853123.190191,4488295.000000000,1696853123.190602541,-0.071000000,-0.105000000,0.136000000,0.008000000,-0.001000000,-0.011000000
1696853123.192160,4488296.000000000,1696853123.192600489,-0.071000000,-0.104000000,0.136000000,0.008000000,-0.001000000,-0.011000000
1696853123.194091,4488297.000000000,1696853123.194581032,-0.071000000,-0.102000000,0.136000000,0.008000000,-0.001000000,-0.011000000
1696853123.196122,4488298.000000000,1696853123.196594477,-0.071000000,-0.101000000,0.135000000,0.008000000,-0.001000000,-0.011000000
1696853123.198144,4488299.000000000,1696853123.198604584,-0.071000000,-0.101000000,0.133000000,0.008000000,-0.001000000,-0.011000000
1696853123.200241,4488300.000000000,1696853123.200659513,-0.071000000,-0.101000000,0.132000000,0.008000000,-0.001000000,-0.011000000
1696853123.202370,4488301.000000000,1696853123.202594757,-0.070000000,-0.102000000,0.130000000,0.008000000,-0.001000000,-0.011000000
1696853123.204606,4488302.000000000,1696853123.204605103,-0.070000000,-0.104000000,0.128000000,0.009000000,-0.001000000,-0.011000000
1696853123.206155,4488303.000000000,1696853123.206606627,-0.069000000,-0.105000000,0.127000000,0.009000000,-0.001000000,-0.011000000
1696853123.209265,4488304.000000000,1696853123.208607197,-0.069000000,-0.106000000,0.125000000,0.009000000,-0.001000000,-0.011000000
1696853123.210284,4488305.000000000,1696853123.210621834,-0.068000000,-0.106000000,0.123000000,0.009000000,-0.001000000,-0.011000000
1696853123.212146,4488306.000000000,1696853123.212616682,-0.068000000,-0.106000000,0.122000000,0.009000000,-0.001000000,-0.011000000
1696853123.214194,4488307.000000000,1696853123.214598894,-0.068000000,-0.105000000,0.122000000,0.009000000,-0.001000000,-0.011000000
1696853123.216190,4488308.000000000,1696853123.216608763,-0.068000000,-0.103000000,0.122000000,0.009000000,-0.001000000,-0.011000000
1696853123.218140,4488309.000000000,1696853123.218601704,-0.069000000,-0.102000000,0.122000000,0.009000000,-0.001000000,-0.011000000
1696853123.220290,4488310.000000000,1696853123.220604420,-0.069000000,-0.102000000,0.121000000,0.009000000,-0.001000000,-0.011000000
1696853123.222204,4488311.000000000,1696853123.222663879,-0.069000000,-0.102000000,0.119000000,0.009000000,-0.001000000,-0.011000000
1696853123.224181,4488312.000000000,1696853123.224624157,-0.069000000,-0.103000000,0.119000000,0.009000000,-0.001000000,-0.011000000
1696853123.226327,4488313.000000000,1696853123.226601124,-0.069000000,-0.104000000,0.117000000,0.009000000,-0.001000000,-0.011000000
1696853123.228166,4488314.000000000,1696853123.228606462,-0.068000000,-0.106000000,0.116000000,0.009000000,-0.001000000,-0.011000000
1696853123.230170,4488315.000000000,1696853123.230604649,-0.068000000,-0.106000000,0.115000000,0.009000000,-0.001000000,-0.011000000
1696853123.232391,4488316.000000000,1696853123.232628822,-0.068000000,-0.107000000,0.114000000,0.009000000,-0.001000000,-0.011000000
1696853123.234155,4488317.000000000,1696853123.234607458,-0.067000000,-0.107000000,0.113000000,0.009000000,-0.001000000,-0.011000000
1696853123.236161,4488318.000000000,1696853123.236612082,-0.068000000,-0.106000000,0.114000000,0.009000000,-0.001000000,-0.011000000
1696853123.238163,4488319.000000000,1696853123.238604307,-0.068000000,-0.104000000,0.115000000,0.009000000,-0.001000000,-0.011000000
1696853123.240140,4488320.000000000,1696853123.240605354,-0.068000000,-0.103000000,0.114000000,0.009000000,-0.001000000,-0.010000000
1696853123.242158,4488321.000000000,1696853123.242617369,-0.069000000,-0.102000000,0.114000000,0.009000000,-0.001000000,-0.010000000
1696853123.244599,4488322.000000000,1696853123.244651079,-0.069000000,-0.102000000,0.114000000,0.009000000,-0.001000000,-0.010000000
1696853123.246149,4488323.000000000,1696853123.246600866,-0.069000000,-0.102000000,0.113000000,0.009000000,-0.001000000,-0.010000000
1696853123.248252,4488324.000000000,1696853123.248609543,-0.069000000,-0.103000000,0.112000000,0.009000000,-0.001000000,-0.010000000
1696853123.250147,4488325.000000000,1696853123.250608683,-0.069000000,-0.104000000,0.112000000,0.009000000,-0.001000000,-0.010000000
1696853123.252137,4488326.000000000,1696853123.252618551,-0.069000000,-0.106000000,0.112000000,0.009000000,-0.001000000,-0.010000000
1696853123.254206,4488327.000000000,1696853123.254610777,-0.069000000,-0.106000000,0.110000000,0.009000000,-0.001000000,-0.010000000
1696853123.256692,4488328.000000000,1696853123.256608248,-0.069000000,-0.106000000,0.109000000,0.009000000,-0.001000000,-0.010000000
1696853123.258165,4488329.000000000,1696853123.258619070,-0.069000000,-0.105000000,0.109000000,0.009000000,-0.001000000,-0.010000000
1696853123.260139,4488330.000000000,1696853123.260607243,-0.070000000,-0.104000000,0.110000000,0.009000000,-0.001000000,-0.010000000
1696853123.262168,4488331.000000000,1696853123.262613297,-0.070000000,-0.103000000,0.111000000,0.009000000,-0.001000000,-0.010000000
1696853123.264962,4488332.000000000,1696853123.264657974,-0.071000000,-0.102000000,0.111000000,0.009000000,-0.001000000,-0.010000000
1696853123.266812,4488333.000000000,1696853123.266670704,-0.071000000,-0.101000000,0.109000000,0.009000000,-0.001000000,-0.010000000
1696853123.268413,4488334.000000000,1696853123.268881559,-0.071000000,-0.101000000,0.108000000,0.009000000,-0.001000000,-0.010000000
1696853123.270233,4488335.000000000,1696853123.270606995,-0.072000000,-0.102000000,0.107000000,0.009000000,-0.001000000,-0.010000000
1696853123.272332,4488336.000000000,1696853123.272820234,-0.072000000,-0.103000000,0.105000000,0.009000000,-0.001000000,-0.010000000
1696853123.274289,4488337.000000000,1696853123.274694443,-0.072000000,-0.104000000,0.104000000,0.009000000,-0.001000000,-0.010000000
1696853123.276181,4488338.000000000,1696853123.276609898,-0.072000000,-0.105000000,0.102000000,0.009000000,-0.001000000,-0.010000000
1696853123.278160,4488339.000000000,1696853123.278612852,-0.072000000,-0.105000000,0.100000000,0.009000000,-0.001000000,-0.010000000
1696853123.280123,4488340.000000000,1696853123.280599117,-0.072000000,-0.104000000,0.099000000,0.009000000,-0.001000000,-0.010000000
1696853123.282146,4488341.000000000,1696853123.282640219,-0.073000000,-0.103000000,0.098000000,0.009000000,-0.001000000,-0.010000000
1696853123.284954,4488342.000000000,1696853123.284634352,-0.073000000,-0.102000000,0.097000000,0.009000000,-0.001000000,-0.010000000
1696853123.286238,4488343.000000000,1696853123.286655426,-0.073000000,-0.100000000,0.095000000,0.009000000,-0.001000000,-0.010000000
1696853123.288200,4488344.000000000,1696853123.288661718,-0.074000000,-0.099000000,0.093000000,0.009000000,-0.001000000,-0.010000000
1696853123.290274,4488345.000000000,1696853123.290668726,-0.075000000,-0.099000000,0.090000000,0.009000000,-0.001000000,-0.010000000
1696853123.292467,4488346.000000000,1696853123.292768717,-0.075000000,-0.099000000,0.087000000,0.009000000,-0.001000000,-0.010000000
1696853123.294313,4488347.000000000,1696853123.294762611,-0.075000000,-0.100000000,0.084000000,0.009000000,-0.001000000,-0.010000000
1696853123.296215,4488348.000000000,1696853123.296626091,-0.075000000,-0.101000000,0.080000000,0.009000000,-0.001000000,-0.010000000
1696853123.298441,4488349.000000000,1696853123.298660755,-0.075000000,-0.102000000,0.077000000,0.009000000,-0.001000000,-0.010000000
1696853123.300668,4488350.000000000,1696853123.300569534,-0.075000000,-0.102000000,0.073000000,0.009000000,-0.001000000,-0.010000000
1696853123.302047,4488351.000000000,1696853123.302543640,-0.075000000,-0.101000000,0.068000000,0.009000000,-0.001000000,-0.010000000
1696853123.304982,4488352.000000000,1696853123.304676056,-0.076000000,-0.100000000,0.066000000,0.009000000,-0.001000000,-0.010000000
1696853123.306121,4488353.000000000,1696853123.306584120,-0.076000000,-0.098000000,0.062000000,0.009000000,-0.001000000,-0.009000000
1696853123.308044,4488354.000000000,1696853123.308549166,-0.077000000,-0.096000000,0.059000000,0.009000000,-0.001000000,-0.009000000
1696853123.310177,4488355.000000000,1696853123.310662031,-0.077000000,-0.094000000,0.056000000,0.009000000,-0.001000000,-0.009000000
1696853123.313569,4488356.000000000,1696853123.313181877,-0.078000000,-0.093000000,0.051000000,0.009000000,-0.001000000,-0.009000000
1696853123.314285,4488357.000000000,1696853123.314608335,-0.078000000,-0.092000000,0.046000000,0.009000000,-0.001000000,-0.009000000
1696853123.316189,4488358.000000000,1696853123.316644430,-0.078000000,-0.092000000,0.041000000,0.009000000,-0.001000000,-0.009000000
1696853123.318151,4488359.000000000,1696853123.318588495,-0.078000000,-0.093000000,0.036000000,0.009000000,-0.001000000,-0.009000000
1696853123.320204,4488360.000000000,1696853123.320637465,-0.078000000,-0.093000000,0.031000000,0.009000000,-0.001000000,-0.009000000
1696853123.322197,4488361.000000000,1696853123.322643042,-0.078000000,-0.093000000,0.026000000,0.009000000,-0.001000000,-0.008000000
1696853123.324775,4488362.000000000,1696853123.324634314,-0.079000000,-0.092000000,0.022000000,0.009000000,-0.001000000,-0.008000000
1696853123.326141,4488363.000000000,1696853123.326598644,-0.079000000,-0.091000000,0.018000000,0.009000000,-0.001000000,-0.008000000
1696853123.328136,4488364.000000000,1696853123.328609705,-0.079000000,-0.089000000,0.014000000,0.009000000,-0.001000000,-0.008000000
1696853123.330245,4488365.000000000,1696853123.330613613,-0.079000000,-0.087000000,0.011000000,0.009000000,-0.001000000,-0.008000000
1696853123.332216,4488366.000000000,1696853123.332619190,-0.080000000,-0.085000000,0.008000000,0.009000000,-0.001000000,-0.008000000
1696853123.334109,4488367.000000000,1696853123.334599257,-0.080000000,-0.083000000,0.005000000,0.009000000,-0.001000000,-0.008000000
1696853123.336180,4488368.000000000,1696853123.336598635,-0.080000000,-0.082000000,0.000000000,0.009000000,-0.001000000,-0.008000000
1696853123.338182,4488369.000000000,1696853123.338651657,-0.080000000,-0.082000000,-0.002000000,0.009000000,-0.001000000,-0.008000000
1696853123.340205,4488370.000000000,1696853123.340601683,-0.080000000,-0.083000000,-0.005000000,0.009000000,-0.001000000,-0.008000000
1696853123.342094,4488371.000000000,1696853123.342597485,-0.080000000,-0.084000000,-0.007000000,0.009000000,-0.001000000,-0.007000000
1696853123.344108,4488372.000000000,1696853123.344598055,-0.080000000,-0.084000000,-0.010000000,0.009000000,-0.001000000,-0.007000000
1696853123.346189,4488373.000000000,1696853123.346660376,-0.080000000,-0.084000000,-0.012000000,0.009000000,-0.001000000,-0.007000000
1696853123.348104,4488374.000000000,1696853123.348617792,-0.079000000,-0.084000000,-0.014000000,0.009000000,-0.001000000,-0.007000000
1696853123.350054,4488375.000000000,1696853123.350587130,-0.079000000,-0.082000000,-0.013000000,0.009000000,-0.001000000,-0.007000000
1696853123.352165,4488376.000000000,1696853123.352594376,-0.079000000,-0.081000000,-0.013000000,0.009000000,-0.001000000,-0.007000000
1696853123.354269,4488377.000000000,1696853123.354669094,-0.079000000,-0.079000000,-0.011000000,0.009000000,-0.001000000,-0.007000000
1696853123.356777,4488378.000000000,1696853123.356621265,-0.079000000,-0.079000000,-0.011000000,0.009000000,-0.001000000,-0.007000000
1696853123.358257,4488379.000000000,1696853123.358594656,-0.079000000,-0.078000000,-0.009000000,0.009000000,-0.001000000,-0.007000000
1696853123.360263,4488380.000000000,1696853123.360648394,-0.079000000,-0.079000000,-0.008000000,0.009000000,-0.001000000,-0.007000000
1696853123.362225,4488381.000000000,1696853123.362649441,-0.079000000,-0.081000000,-0.006000000,0.009000000,-0.001000000,-0.007000000
1696853123.364950,4488382.000000000,1696853123.364653826,-0.078000000,-0.082000000,-0.003000000,0.009000000,-0.001000000,-0.007000000
1696853123.366115,4488383.000000000,1696853123.366595507,-0.077000000,-0.084000000,-0.001000000,0.009000000,-0.001000000,-0.007000000
1696853123.368235,4488384.000000000,1696853123.368607998,-0.077000000,-0.085000000,0.001000000,0.009000000,-0.001000000,-0.008000000
1696853123.370262,4488385.000000000,1696853123.370603085,-0.076000000,-0.086000000,0.005000000,0.009000000,-0.001000000,-0.008000000
1696853123.372128,4488386.000000000,1696853123.372603655,-0.076000000,-0.086000000,0.010000000,0.009000000,-0.001000000,-0.008000000
1696853123.374115,4488387.000000000,1696853123.374606371,-0.075000000,-0.086000000,0.014000000,0.009000000,-0.001000000,-0.008000000
1696853123.376276,4488388.000000000,1696853123.376687765,-0.075000000,-0.086000000,0.021000000,0.009000000,-0.001000000,-0.008000000
1696853123.378466,4488389.000000000,1696853123.378614187,-0.075000000,-0.086000000,0.026000000,0.008000000,-0.001000000,-0.008000000
1696853123.380128,4488390.000000000,1696853123.380595207,-0.075000000,-0.086000000,0.031000000,0.008000000,-0.001000000,-0.008000000
1696853123.382189,4488391.000000000,1696853123.382667542,-0.075000000,-0.087000000,0.037000000,0.008000000,-0.001000000,-0.008000000
1696853123.384754,4488392.000000000,1696853123.384604216,-0.074000000,-0.089000000,0.041000000,0.008000000,-0.001000000,-0.008000000
1696853123.386227,4488393.000000000,1696853123.386637449,-0.074000000,-0.092000000,0.048000000,0.009000000,-0.001000000,-0.009000000
1696853123.388332,4488394.000000000,1696853123.388678074,-0.073000000,-0.094000000,0.053000000,0.009000000,-0.001000000,-0.009000000
1696853123.390209,4488395.000000000,1696853123.390632629,-0.073000000,-0.096000000,0.058000000,0.009000000,-0.001000000,-0.009000000
1696853123.392252,4488396.000000000,1696853123.392654181,-0.073000000,-0.098000000,0.062000000,0.009000000,-0.001000000,-0.009000000
1696853123.394451,4488397.000000000,1696853123.394649267,-0.073000000,-0.098000000,0.070000000,0.009000000,-0.001000000,-0.009000000
1696853123.396248,4488398.000000000,1696853123.396616697,-0.073000000,-0.098000000,0.076000000,0.009000000,-0.001000000,-0.009000000
1696853123.398212,4488399.000000000,1696853123.398639202,-0.073000000,-0.098000000,0.081000000,0.009000000,-0.001000000,-0.009000000
1696853123.400214,4488400.000000000,1696853123.400608301,-0.073000000,-0.098000000,0.088000000,0.008000000,-0.001000000,-0.010000000
1696853123.402196,4488401.000000000,1696853123.402616024,-0.073000000,-0.098000000,0.093000000,0.008000000,-0.001000000,-0.010000000
1696853123.405008,4488402.000000000,1696853123.404689550,-0.073000000,-0.099000000,0.098000000,0.008000000,-0.001000000,-0.010000000
1696853123.406450,4488403.000000000,1696853123.406621695,-0.073000000,-0.101000000,0.102000000,0.008000000,-0.001000000,-0.010000000
1696853123.408272,4488404.000000000,1696853123.408609867,-0.073000000,-0.103000000,0.105000000,0.009000000,-0.001000000,-0.010000000
1696853123.410326,4488405.000000000,1696853123.410624981,-0.073000000,-0.105000000,0.108000000,0.009000000,-0.001000000,-0.010000000
1696853123.412228,4488406.000000000,1696853123.412616253,-0.073000000,-0.107000000,0.110000000,0.009000000,-0.001000000,-0.010000000
1696853123.414250,4488407.000000000,1696853123.414616108,-0.073000000,-0.108000000,0.114000000,0.009000000,-0.001000000,-0.010000000
1696853123.416430,4488408.000000000,1696853123.416620016,-0.073000000,-0.109000000,0.116000000,0.009000000,-0.001000000,-0.010000000
1696853123.418304,4488409.000000000,1696853123.418634176,-0.073000000,-0.108000000,0.120000000,0.009000000,-0.001000000,-0.010000000
1696853123.420302,4488410.000000000,1696853123.420661926,-0.074000000,-0.108000000,0.122000000,0.009000000,-0.001000000,-0.011000000
1696853123.422236,4488411.000000000,1696853123.422622442,-0.075000000,-0.107000000,0.126000000,0.009000000,-0.001000000,-0.011000000
1696853123.425070,4488412.000000000,1696853123.424643517,-0.075000000,-0.107000000,0.127000000,0.009000000,-0.001000000,-0.011000000
1696853123.426242,4488413.000000000,1696853123.426640034,-0.075000000,-0.107000000,0.128000000,0.009000000,-0.001000000,-0.011000000
1696853123.428204,4488414.000000000,1696853123.428623199,-0.076000000,-0.107000000,0.129000000,0.009000000,-0.001000000,-0.011000000
1696853123.430192,4488415.000000000,1696853123.430616379,-0.076000000,-0.108000000,0.130000000,0.009000000,-0.001000000,-0.011000000
1696853123.433193,4488416.000000000,1696853123.432781458,-0.076000000,-0.110000000,0.129000000,0.009000000,-0.001000000,-0.011000000
1696853123.434195,4488417.000000000,1696853123.434645653,-0.076000000,-0.112000000,0.129000000,0.009000000,-0.001000000,-0.011000000
1696853123.436312,4488418.000000000,1696853123.436717987,-0.076000000,-0.113000000,0.129000000,0.009000000,-0.001000000,-0.011000000
1696853123.438153,4488419.000000000,1696853123.438616991,-0.076000000,-0.113000000,0.129000000,0.009000000,-0.001000000,-0.011000000
1696853123.440506,4488420.000000000,1696853123.440690517,-0.076000000,-0.113000000,0.128000000,0.009000000,-0.001000000,-0.011000000
1696853123.442200,4488421.000000000,1696853123.442655802,-0.076000000,-0.113000000,0.129000000,0.009000000,-0.001000000,-0.011000000
1696853123.444229,4488422.000000000,1696853123.444693565,-0.076000000,-0.112000000,0.130000000,0.009000000,-0.001000000,-0.011000000
1696853123.446170,4488423.000000000,1696853123.446607351,-0.077000000,-0.111000000,0.129000000,0.009000000,-0.001000000,-0.011000000
1696853123.448625,4488424.000000000,1696853123.448687553,-0.077000000,-0.110000000,0.129000000,0.009000000,-0.001000000,-0.011000000
1696853123.450949,4488425.000000000,1696853123.450659275,-0.077000000,-0.111000000,0.129000000,0.009000000,-0.002000000,-0.011000000
1696853123.452260,4488426.000000000,1696853123.452685356,-0.077000000,-0.112000000,0.127000000,0.009000000,-0.002000000,-0.011000000
1696853123.454159,4488427.000000000,1696853123.454591990,-0.076000000,-0.113000000,0.125000000,0.009000000,-0.002000000,-0.011000000
1696853123.456337,4488428.000000000,1696853123.456681252,-0.076000000,-0.115000000,0.124000000,0.009000000,-0.001000000,-0.011000000
1696853123.458318,4488429.000000000,1696853123.458643198,-0.075000000,-0.116000000,0.122000000,0.009000000,-0.001000000,-0.011000000
1696853123.460305,4488430.000000000,1696853123.460682392,-0.075000000,-0.117000000,0.122000000,0.009000000,-0.001000000,-0.011000000
1696853123.462289,4488431.000000000,1696853123.462654114,-0.074000000,-0.117000000,0.122000000,0.009000000,-0.001000000,-0.011000000
1696853123.464303,4488432.000000000,1696853123.464689732,-0.074000000,-0.117000000,0.122000000,0.009000000,-0.001000000,-0.011000000
1696853123.466260,4488433.000000000,1696853123.466656923,-0.074000000,-0.116000000,0.122000000,0.009000000,-0.001000000,-0.011000000
1696853123.468185,4488434.000000000,1696853123.468613625,-0.074000000,-0.115000000,0.122000000,0.008000000,-0.001000000,-0.011000000
1696853123.470268,4488435.000000000,1696853123.470607042,-0.073000000,-0.115000000,0.121000000,0.008000000,-0.001000000,-0.011000000
1696853123.472199,4488436.000000000,1696853123.472615242,-0.073000000,-0.115000000,0.121000000,0.008000000,-0.002000000,-0.011000000
1696853123.474514,4488437.000000000,1696853123.474639177,-0.072000000,-0.116000000,0.120000000,0.008000000,-0.002000000,-0.010000000
1696853123.476330,4488438.000000000,1696853123.476643562,-0.072000000,-0.117000000,0.120000000,0.008000000,-0.001000000,-0.010000000
1696853123.478188,4488439.000000000,1696853123.478603840,-0.072000000,-0.118000000,0.119000000,0.008000000,-0.001000000,-0.010000000
1696853123.480308,4488440.000000000,1696853123.480623245,-0.071000000,-0.120000000,0.119000000,0.009000000,-0.001000000,-0.010000000
1696853123.482339,4488441.000000000,1696853123.482628822,-0.070000000,-0.121000000,0.117000000,0.009000000,-0.001000000,-0.010000000
1696853123.484299,4488442.000000000,1696853123.484623909,-0.069000000,-0.121000000,0.117000000,0.009000000,-0.001000000,-0.010000000
1696853123.486293,4488443.000000000,1696853123.486676216,-0.069000000,-0.121000000,0.117000000,0.009000000,-0.001000000,-0.010000000
1696853123.488311,4488444.000000000,1696853123.488676548,-0.069000000,-0.120000000,0.118000000,0.008000000,-0.001000000,-0.010000000
1696853123.490256,4488445.000000000,1696853123.490657091,-0.068000000,-0.119000000,0.118000000,0.008000000,-0.001000000,-0.010000000
1696853123.492171,4488446.000000000,1696853123.492606163,-0.068000000,-0.118000000,0.118000000,0.008000000,-0.001000000,-0.010000000
1696853123.494164,4488447.000000000,1696853123.494602442,-0.068000000,-0.118000000,0.118000000,0.008000000,-0.001000000,-0.010000000
1696853123.496200,4488448.000000000,1696853123.496600866,-0.067000000,-0.118000000,0.119000000,0.008000000,-0.001000000,-0.010000000
1696853123.498212,4488449.000000000,1696853123.498642683,-0.067000000,-0.119000000,0.118000000,0.008000000,-0.001000000,-0.010000000
1696853123.500431,4488450.000000000,1696853123.500627756,-0.066000000,-0.120000000,0.116000000,0.008000000,-0.001000000,-0.010000000
1696853123.502114,4488451.000000000,1696853123.502591372,-0.066000000,-0.122000000,0.117000000,0.008000000,-0.001000000,-0.010000000
1696853123.504165,4488452.000000000,1696853123.504602909,-0.065000000,-0.123000000,0.116000000,0.009000000,-0.001000000,-0.010000000
1696853123.506260,4488453.000000000,1696853123.506668806,-0.065000000,-0.123000000,0.117000000,0.009000000,-0.001000000,-0.010000000
1696853123.508165,4488454.000000000,1696853123.508655787,-0.065000000,-0.123000000,0.116000000,0.009000000,-0.001000000,-0.010000000
1696853123.510170,4488455.000000000,1696853123.510593891,-0.065000000,-0.122000000,0.117000000,0.008000000,-0.001000000,-0.010000000
1696853123.512181,4488456.000000000,1696853123.512599945,-0.065000000,-0.121000000,0.119000000,0.008000000,-0.001000000,-0.010000000
1696853123.514177,4488457.000000000,1696853123.514633179,-0.065000000,-0.120000000,0.119000000,0.008000000,-0.001000000,-0.010000000
1696853123.516200,4488458.000000000,1696853123.516618252,-0.066000000,-0.119000000,0.119000000,0.008000000,-0.001000000,-0.011000000
1696853123.518181,4488459.000000000,1696853123.518599987,-0.066000000,-0.119000000,0.119000000,0.008000000,-0.001000000,-0.010000000
1696853123.520363,4488460.000000000,1696853123.520724297,-0.066000000,-0.120000000,0.119000000,0.008000000,-0.001000000,-0.011000000
1696853123.522238,4488461.000000000,1696853123.522635937,-0.066000000,-0.121000000,0.119000000,0.008000000,-0.001000000,-0.010000000
1696853123.524183,4488462.000000000,1696853123.524651289,-0.066000000,-0.121000000,0.117000000,0.008000000,-0.001000000,-0.010000000
1696853123.526127,4488463.000000000,1696853123.526601076,-0.066000000,-0.123000000,0.118000000,0.009000000,-0.001000000,-0.011000000
1696853123.528346,4488464.000000000,1696853123.528611422,-0.066000000,-0.123000000,0.118000000,0.009000000,-0.001000000,-0.011000000
1696853123.530204,4488465.000000000,1696853123.530677319,-0.067000000,-0.123000000,0.119000000,0.009000000,-0.001000000,-0.011000000
1696853123.532221,4488466.000000000,1696853123.532682896,-0.067000000,-0.123000000,0.120000000,0.009000000,-0.001000000,-0.011000000
1696853123.534124,4488467.000000000,1696853123.534611940,-0.068000000,-0.121000000,0.120000000,0.009000000,-0.001000000,-0.011000000
1696853123.536600,4488468.000000000,1696853123.536635160,-0.068000000,-0.120000000,0.121000000,0.008000000,-0.001000000,-0.011000000
1696853123.538229,4488469.000000000,1696853123.538654089,-0.070000000,-0.119000000,0.122000000,0.008000000,-0.001000000,-0.011000000
1696853123.540221,4488470.000000000,1696853123.540620089,-0.070000000,-0.119000000,0.122000000,0.008000000,-0.001000000,-0.011000000
1696853123.542134,4488471.000000000,1696853123.542628765,-0.071000000,-0.119000000,0.122000000,0.008000000,-0.001000000,-0.011000000
1696853123.544720,4488472.000000000,1696853123.544621706,-0.071000000,-0.120000000,0.123000000,0.008000000,-0.001000000,-0.011000000
1696853123.546426,4488473.000000000,1696853123.546642065,-0.071000000,-0.121000000,0.122000000,0.009000000,-0.001000000,-0.011000000
1696853123.548114,4488474.000000000,1696853123.548612595,-0.072000000,-0.123000000,0.122000000,0.009000000,-0.001000000,-0.011000000
1696853123.550181,4488475.000000000,1696853123.550610542,-0.072000000,-0.123000000,0.122000000,0.009000000,-0.001000000,-0.011000000
1696853123.552246,4488476.000000000,1696853123.552673340,-0.073000000,-0.123000000,0.121000000,0.009000000,-0.001000000,-0.011000000
1696853123.554168,4488477.000000000,1696853123.554632425,-0.073000000,-0.123000000,0.122000000,0.009000000,-0.001000000,-0.011000000
1696853123.556194,4488478.000000000,1696853123.556640863,-0.074000000,-0.122000000,0.123000000,0.009000000,-0.001000000,-0.011000000
1696853123.558146,4488479.000000000,1696853123.558619738,-0.075000000,-0.121000000,0.123000000,0.009000000,-0.001000000,-0.011000000
1696853123.560166,4488480.000000000,1696853123.560627937,-0.076000000,-0.120000000,0.124000000,0.008000000,-0.001000000,-0.011000000
1696853123.562190,4488481.000000000,1696853123.562638521,-0.077000000,-0.119000000,0.125000000,0.008000000,-0.001000000,-0.011000000
1696853123.564621,4488482.000000000,1696853123.564639330,-0.078000000,-0.119000000,0.125000000,0.008000000,-0.001000000,-0.011000000
1696853123.566331,4488483.000000000,1696853123.566610336,-0.078000000,-0.120000000,0.124000000,0.008000000,-0.001000000,-0.011000000
1696853123.568322,4488484.000000000,1696853123.568614960,-0.078000000,-0.121000000,0.123000000,0.009000000,-0.001000000,-0.011000000
1696853123.570343,4488485.000000000,1696853123.570755482,-0.079000000,-0.122000000,0.122000000,0.009000000,-0.001000000,-0.011000000
1696853123.572286,4488486.000000000,1696853123.572642565,-0.079000000,-0.123000000,0.122000000,0.009000000,-0.001000000,-0.011000000
1696853123.574277,4488487.000000000,1696853123.574669838,-0.079000000,-0.123000000,0.121000000,0.009000000,-0.001000000,-0.011000000
1696853123.576258,4488488.000000000,1696853123.576656342,-0.079000000,-0.122000000,0.120000000,0.009000000,-0.001000000,-0.011000000
1696853123.578269,4488489.000000000,1696853123.578644037,-0.080000000,-0.121000000,0.120000000,0.009000000,-0.001000000,-0.010000000
1696853123.580204,4488490.000000000,1696853123.580618382,-0.080000000,-0.120000000,0.119000000,0.009000000,-0.001000000,-0.010000000
1696853123.582360,4488491.000000000,1696853123.582659721,-0.081000000,-0.118000000,0.119000000,0.008000000,-0.001000000,-0.010000000
1696853123.584128,4488492.000000000,1696853123.584620476,-0.081000000,-0.117000000,0.118000000,0.008000000,-0.001000000,-0.010000000
1696853123.586341,4488493.000000000,1696853123.586698771,-0.082000000,-0.116000000,0.117000000,0.008000000,-0.001000000,-0.010000000
1696853123.588182,4488494.000000000,1696853123.588675499,-0.082000000,-0.116000000,0.115000000,0.008000000,-0.001000000,-0.010000000
1696853123.590233,4488495.000000000,1696853123.590633392,-0.082000000,-0.116000000,0.112000000,0.008000000,-0.001000000,-0.010000000
1696853123.592647,4488496.000000000,1696853123.592624426,-0.081000000,-0.117000000,0.108000000,0.008000000,-0.001000000,-0.010000000
1696853123.594972,4488497.000000000,1696853123.594635725,-0.081000000,-0.117000000,0.106000000,0.008000000,-0.001000000,-0.010000000
1696853123.596232,4488498.000000000,1696853123.596647501,-0.080000000,-0.117000000,0.103000000,0.009000000,-0.001000000,-0.010000000
1696853123.598120,4488499.000000000,1696853123.598607063,-0.080000000,-0.116000000,0.100000000,0.009000000,-0.001000000,-0.010000000
1696853123.600194,4488500.000000000,1696853123.600612879,-0.080000000,-0.115000000,0.097000000,0.008000000,-0.001000000,-0.010000000
1696853123.602358,4488501.000000000,1696853123.602757454,-0.080000000,-0.112000000,0.095000000,0.008000000,-0.001000000,-0.010000000
1696853123.605285,4488502.000000000,1696853123.605329514,-0.080000000,-0.110000000,0.092000000,0.008000000,-0.001000000,-0.010000000
1696853123.606128,4488503.000000000,1696853123.606607199,-0.080000000,-0.108000000,0.088000000,0.008000000,-0.001000000,-0.010000000
1696853123.608183,4488504.000000000,1696853123.608615398,-0.079000000,-0.106000000,0.084000000,0.008000000,-0.001000000,-0.010000000
1696853123.610157,4488505.000000000,1696853123.610616684,-0.079000000,-0.105000000,0.081000000,0.008000000,-0.001000000,-0.010000000
1696853123.612205,4488506.000000000,1696853123.612613201,-0.079000000,-0.104000000,0.077000000,0.008000000,-0.001000000,-0.010000000
1696853123.614449,4488507.000000000,1696853123.614748716,-0.078000000,-0.104000000,0.073000000,0.008000000,-0.001000000,-0.010000000
1696853123.616348,4488508.000000000,1696853123.616646767,-0.077000000,-0.104000000,0.067000000,0.008000000,-0.001000000,-0.009000000
1696853123.618438,4488509.000000000,1696853123.618728399,-0.077000000,-0.103000000,0.064000000,0.008000000,-0.001000000,-0.009000000
1696853123.620214,4488510.000000000,1696853123.620605946,-0.076000000,-0.102000000,0.059000000,0.008000000,-0.001000000,-0.009000000
1696853123.622154,4488511.000000000,1696853123.622622490,-0.076000000,-0.100000000,0.057000000,0.008000000,-0.001000000,-0.009000000
1696853123.624562,4488512.000000000,1696853123.624641180,-0.075000000,-0.098000000,0.053000000,0.008000000,-0.001000000,-0.009000000
1696853123.626299,4488513.000000000,1696853123.626664877,-0.074000000,-0.095000000,0.049000000,0.008000000,-0.001000000,-0.009000000
1696853123.628171,4488514.000000000,1696853123.628633738,-0.074000000,-0.093000000,0.047000000,0.008000000,-0.001000000,-0.009000000
1696853123.630118,4488515.000000000,1696853123.630614519,-0.074000000,-0.090000000,0.043000000,0.008000000,-0.001000000,-0.009000000
1696853123.632347,4488516.000000000,1696853123.632640362,-0.074000000,-0.089000000,0.041000000,0.008000000,-0.001000000,-0.009000000
1696853123.634265,4488517.000000000,1696853123.634617090,-0.073000000,-0.088000000,0.037000000,0.008000000,-0.001000000,-0.009000000
1696853123.637037,4488518.000000000,1696853123.636675358,-0.072000000,-0.089000000,0.035000000,0.008000000,-0.001000000,-0.009000000
1696853123.638192,4488519.000000000,1696853123.638640642,-0.071000000,-0.089000000,0.032000000,0.008000000,-0.001000000,-0.009000000
1696853123.640247,4488520.000000000,1696853123.640682220,-0.070000000,-0.089000000,0.029000000,0.008000000,-0.001000000,-0.009000000
1696853123.642233,4488521.000000000,1696853123.642677307,-0.069000000,-0.089000000,0.026000000,0.009000000,-0.001000000,-0.009000000
1696853123.644207,4488522.000000000,1696853123.644663811,-0.069000000,-0.088000000,0.025000000,0.009000000,-0.001000000,-0.009000000
1696853123.646153,4488523.000000000,1696853123.646648884,-0.069000000,-0.086000000,0.025000000,0.009000000,-0.001000000,-0.009000000
1696853123.648104,4488524.000000000,1696853123.648609877,-0.068000000,-0.085000000,0.025000000,0.008000000,-0.001000000,-0.009000000
1696853123.650261,4488525.000000000,1696853123.650673151,-0.068000000,-0.083000000,0.025000000,0.008000000,-0.001000000,-0.009000000
1696853123.652108,4488526.000000000,1696853123.652612209,-0.068000000,-0.082000000,0.026000000,0.008000000,-0.001000000,-0.009000000
1696853123.654160,4488527.000000000,1696853123.654657125,-0.067000000,-0.082000000,0.026000000,0.008000000,-0.001000000,-0.009000000
1696853123.656123,4488528.000000000,1696853123.656608582,-0.067000000,-0.082000000,0.027000000,0.008000000,-0.001000000,-0.009000000
1696853123.658448,4488529.000000000,1696853123.658667326,-0.066000000,-0.083000000,0.027000000,0.009000000,-0.001000000,-0.009000000
1696853123.660171,4488530.000000000,1696853123.660623789,-0.066000000,-0.084000000,0.027000000,0.009000000,-0.001000000,-0.009000000
1696853123.662243,4488531.000000000,1696853123.662683249,-0.065000000,-0.086000000,0.029000000,0.009000000,-0.001000000,-0.009000000
1696853123.664258,4488532.000000000,1696853123.664693356,-0.065000000,-0.087000000,0.031000000,0.009000000,-0.001000000,-0.009000000
1696853123.666490,4488533.000000000,1696853123.666630983,-0.064000000,-0.088000000,0.033000000,0.009000000,-0.001000000,-0.009000000
1696853123.668373,4488534.000000000,1696853123.668628216,-0.063000000,-0.088000000,0.035000000,0.009000000,-0.001000000,-0.009000000
1696853123.670163,4488535.000000000,1696853123.670627356,-0.063000000,-0.087000000,0.039000000,0.009000000,-0.001000000,-0.009000000
1696853123.672170,4488536.000000000,1696853123.672626734,-0.063000000,-0.087000000,0.042000000,0.009000000,-0.001000000,-0.009000000
1696853123.674342,4488537.000000000,1696853123.674635410,-0.063000000,-0.087000000,0.044000000,0.009000000,-0.001000000,-0.009000000
1696853123.676181,4488538.000000000,1696853123.676630259,-0.063000000,-0.087000000,0.048000000,0.009000000,-0.001000000,-0.009000000
1696853123.678185,4488539.000000000,1696853123.678640604,-0.063000000,-0.088000000,0.050000000,0.009000000,-0.001000000,-0.009000000
1696853123.680183,4488540.000000000,1696853123.680611134,-0.062000000,-0.090000000,0.053000000,0.009000000,-0.001000000,-0.009000000
1696853123.682173,4488541.000000000,1696853123.682621479,-0.062000000,-0.092000000,0.056000000,0.009000000,-0.001000000,-0.009000000
1696853123.684155,4488542.000000000,1696853123.684669495,-0.061000000,-0.094000000,0.057000000,0.009000000,-0.001000000,-0.009000000
1696853123.686235,4488543.000000000,1696853123.686656713,-0.061000000,-0.096000000,0.060000000,0.009000000,-0.001000000,-0.009000000
1696853123.688279,4488544.000000000,1696853123.688652754,-0.060000000,-0.097000000,0.063000000,0.009000000,-0.001000000,-0.010000000
1696853123.690233,4488545.000000000,1696853123.690651655,-0.060000000,-0.098000000,0.066000000,0.009000000,-0.001000000,-0.010000000
1696853123.692882,4488546.000000000,1696853123.692714691,-0.060000000,-0.098000000,0.068000000,0.009000000,-0.001000000,-0.010000000
1696853123.694166,4488547.000000000,1696853123.694637775,-0.060000000,-0.098000000,0.071000000,0.009000000,-0.001000000,-0.010000000
1696853123.696285,4488548.000000000,1696853123.696643591,-0.060000000,-0.097000000,0.075000000,0.009000000,-0.001000000,-0.010000000
1696853123.698205,4488549.000000000,1696853123.698635578,-0.060000000,-0.097000000,0.077000000,0.009000000,-0.001000000,-0.010000000
1696853123.700191,4488550.000000000,1696853123.700636625,-0.060000000,-0.098000000,0.080000000,0.009000000,-0.001000000,-0.010000000
1696853123.702188,4488551.000000000,1696853123.702638149,-0.060000000,-0.099000000,0.081000000,0.009000000,-0.001000000,-0.010000000
1696853123.704876,4488552.000000000,1696853123.704656124,-0.060000000,-0.100000000,0.082000000,0.009000000,-0.001000000,-0.010000000
1696853123.706289,4488553.000000000,1696853123.706726074,-0.060000000,-0.102000000,0.083000000,0.009000000,-0.001000000,-0.010000000
1696853123.708210,4488554.000000000,1696853123.708640337,-0.059000000,-0.103000000,0.084000000,0.009000000,-0.001000000,-0.010000000
1696853123.710200,4488555.000000000,1696853123.710649490,-0.059000000,-0.105000000,0.085000000,0.009000000,-0.001000000,-0.010000000
1696853123.712315,4488556.000000000,1696853123.712650537,-0.059000000,-0.105000000,0.085000000,0.009000000,-0.001000000,-0.010000000
1696853123.714833,4488557.000000000,1696853123.714631319,-0.059000000,-0.105000000,0.086000000,0.009000000,-0.001000000,-0.010000000
1696853123.716303,4488558.000000000,1696853123.716658115,-0.059000000,-0.103000000,0.088000000,0.009000000,-0.001000000,-0.010000000
1696853123.718263,4488559.000000000,1696853123.718626976,-0.059000000,-0.102000000,0.089000000,0.009000000,-0.001000000,-0.010000000
1696853123.720264,4488560.000000000,1696853123.720638990,-0.060000000,-0.101000000,0.090000000,0.009000000,-0.001000000,-0.010000000
1696853123.722281,4488561.000000000,1696853123.722664118,-0.060000000,-0.101000000,0.091000000,0.009000000,-0.001000000,-0.010000000
1696853123.724956,4488562.000000000,1696853123.724681377,-0.060000000,-0.101000000,0.090000000,0.009000000,-0.001000000,-0.010000000
1696853123.726140,4488563.000000000,1696853123.726603985,-0.060000000,-0.102000000,0.091000000,0.009000000,-0.001000000,-0.010000000
1696853123.728186,4488564.000000000,1696853123.728670835,-0.060000000,-0.103000000,0.090000000,0.009000000,-0.001000000,-0.010000000
1696853123.730152,4488565.000000000,1696853123.730624914,-0.060000000,-0.104000000,0.089000000,0.009000000,-0.001000000,-0.010000000
1696853123.732266,4488566.000000000,1696853123.732668400,-0.060000000,-0.105000000,0.089000000,0.009000000,-0.001000000,-0.010000000
1696853123.734286,4488567.000000000,1696853123.734638453,-0.060000000,-0.105000000,0.090000000,0.009000000,-0.001000000,-0.010000000
1696853123.736199,4488568.000000000,1696853123.736612082,-0.061000000,-0.105000000,0.090000000,0.009000000,-0.001000000,-0.010000000
1696853123.738357,4488569.000000000,1696853123.738620520,-0.061000000,-0.104000000,0.090000000,0.009000000,-0.001000000,-0.010000000
1696853123.740640,4488570.000000000,1696853123.740699530,-0.062000000,-0.102000000,0.091000000,0.009000000,-0.001000000,-0.010000000
1696853123.742876,4488571.000000000,1696853123.742698669,-0.062000000,-0.101000000,0.091000000,0.009000000,-0.001000000,-0.010000000
1696853123.744143,4488572.000000000,1696853123.744634390,-0.062000000,-0.100000000,0.092000000,0.009000000,-0.001000000,-0.010000000
1696853123.746196,4488573.000000000,1696853123.746618032,-0.063000000,-0.101000000,0.092000000,0.008000000,-0.001000000,-0.010000000
1696853123.748122,4488574.000000000,1696853123.748627186,-0.064000000,-0.101000000,0.092000000,0.009000000,-0.001000000,-0.010000000
1696853123.750145,4488575.000000000,1696853123.750657320,-0.064000000,-0.102000000,0.092000000,0.009000000,-0.001000000,-0.010000000
1696853123.752140,4488576.000000000,1696853123.752638578,-0.064000000,-0.104000000,0.091000000,0.009000000,-0.001000000,-0.010000000
1696853123.754208,4488577.000000000,1696853123.754638672,-0.064000000,-0.105000000,0.091000000,0.009000000,-0.001000000,-0.010000000
1696853123.756137,4488578.000000000,1696853123.756630421,-0.064000000,-0.106000000,0.091000000,0.009000000,-0.001000000,-0.010000000
1696853123.758142,4488579.000000000,1696853123.758635521,-0.065000000,-0.106000000,0.092000000,0.009000000,-0.001000000,-0.010000000
1696853123.760192,4488580.000000000,1696853123.760638952,-0.065000000,-0.106000000,0.093000000,0.009000000,-0.001000000,-0.010000000
1696853123.762244,4488581.000000000,1696853123.762628078,-0.066000000,-0.106000000,0.094000000,0.009000000,-0.001000000,-0.010000000
1696853123.765090,4488582.000000000,1696853123.764667988,-0.066000000,-0.105000000,0.094000000,0.009000000,-0.001000000,-0.010000000
1696853123.766234,4488583.000000000,1696853123.766644001,-0.067000000,-0.104000000,0.095000000,0.008000000,-0.001000000,-0.010000000
1696853123.768265,4488584.000000000,1696853123.768643856,-0.067000000,-0.104000000,0.095000000,0.008000000,-0.001000000,-0.010000000
1696853123.770183,4488585.000000000,1696853123.770614862,-0.068000000,-0.105000000,0.095000000,0.009000000,-0.001000000,-0.010000000
1696853123.772223,4488586.000000000,1696853123.772681713,-0.068000000,-0.107000000,0.096000000,0.009000000,-0.001000000,-0.010000000
1696853123.774236,4488587.000000000,1696853123.774653196,-0.068000000,-0.108000000,0.095000000,0.009000000,-0.001000000,-0.010000000
1696853123.776191,4488588.000000000,1696853123.776644707,-0.068000000,-0.110000000,0.095000000,0.009000000,-0.001000000,-0.010000000
1696853123.778361,4488589.000000000,1696853123.778648138,-0.068000000,-0.112000000,0.095000000,0.009000000,-0.001000000,-0.010000000
1696853123.780163,4488590.000000000,1696853123.780632496,-0.068000000,-0.112000000,0.095000000,0.009000000,-0.001000000,-0.010000000
1696853123.782190,4488591.000000000,1696853123.782644987,-0.068000000,-0.112000000,0.097000000,0.009000000,-0.001000000,-0.010000000
1696853123.784746,4488592.000000000,1696853123.784637928,-0.068000000,-0.112000000,0.097000000,0.009000000,-0.001000000,-0.010000000
1696853123.786528,4488593.000000000,1696853123.786648273,-0.069000000,-0.111000000,0.098000000,0.009000000,-0.001000000,-0.010000000
1696853123.788144,4488594.000000000,1696853123.788629055,-0.069000000,-0.110000000,0.098000000,0.009000000,-0.001000000,-0.010000000
1696853123.790182,4488595.000000000,1696853123.790618420,-0.069000000,-0.110000000,0.099000000,0.009000000,-0.001000000,-0.010000000
1696853123.792270,4488596.000000000,1696853123.792713881,-0.069000000,-0.110000000,0.098000000,0.009000000,-0.001000000,-0.010000000
1696853123.794203,4488597.000000000,1696853123.794648170,-0.069000000,-0.112000000,0.098000000,0.009000000,-0.001000000,-0.010000000
1696853123.796206,4488598.000000000,1696853123.796624184,-0.069000000,-0.113000000,0.099000000,0.009000000,-0.001000000,-0.010000000
1696853123.798124,4488599.000000000,1696853123.798628569,-0.069000000,-0.114000000,0.098000000,0.009000000,-0.001000000,-0.010000000
1696853123.800147,4488600.000000000,1696853123.800628662,-0.068000000,-0.115000000,0.097000000,0.009000000,-0.001000000,-0.010000000
1696853123.802224,4488601.000000000,1696853123.802660942,-0.068000000,-0.116000000,0.098000000,0.009000000,-0.001000000,-0.010000000
1696853123.804977,4488602.000000000,1696853123.804718494,-0.068000000,-0.116000000,0.098000000,0.009000000,-0.001000000,-0.010000000
1696853123.806108,4488603.000000000,1696853123.806614161,-0.068000000,-0.116000000,0.098000000,0.009000000,-0.001000000,-0.010000000
1696853123.808171,4488604.000000000,1696853123.808617353,-0.068000000,-0.115000000,0.100000000,0.009000000,-0.001000000,-0.010000000
1696853123.810169,4488605.000000000,1696853123.810636759,-0.067000000,-0.114000000,0.100000000,0.009000000,-0.001000000,-0.010000000
1696853123.812190,4488606.000000000,1696853123.812629223,-0.067000000,-0.113000000,0.100000000,0.009000000,-0.001000000,-0.010000000
1696853123.814141,4488607.000000000,1696853123.814619303,-0.067000000,-0.113000000,0.101000000,0.009000000,-0.001000000,-0.010000000
1696853123.816248,4488608.000000000,1696853123.816652536,-0.067000000,-0.113000000,0.101000000,0.009000000,-0.001000000,-0.010000000
1696853123.818394,4488609.000000000,1696853123.818603516,-0.067000000,-0.114000000,0.101000000,0.009000000,-0.001000000,-0.010000000
1696853123.820213,4488610.000000000,1696853123.820615053,-0.067000000,-0.115000000,0.100000000,0.009000000,-0.001000000,-0.010000000
1696853123.822155,4488611.000000000,1696853123.822626829,-0.066000000,-0.117000000,0.100000000,0.009000000,-0.001000000,-0.010000000
1696853123.825050,4488612.000000000,1696853123.824646235,-0.065000000,-0.117000000,0.100000000,0.009000000,-0.001000000,-0.010000000
1696853123.826166,4488613.000000000,1696853123.826622009,-0.065000000,-0.117000000,0.101000000,0.009000000,-0.001000000,-0.010000000
1696853123.828237,4488614.000000000,1696853123.828637600,-0.065000000,-0.117000000,0.100000000,0.009000000,-0.001000000,-0.010000000
1696853123.830133,4488615.000000000,1696853123.830626249,-0.065000000,-0.116000000,0.101000000,0.009000000,-0.001000000,-0.010000000
1696853123.832967,4488616.000000000,1696853123.832700014,-0.065000000,-0.115000000,0.103000000,0.009000000,-0.001000000,-0.010000000
1696853123.835942,4488617.000000000,1696853123.834665298,-0.065000000,-0.114000000,0.103000000,0.009000000,-0.001000000,-0.010000000
1696853123.836313,4488618.000000000,1696853123.836663961,-0.066000000,-0.113000000,0.104000000,0.009000000,-0.001000000,-0.010000000
1696853123.838175,4488619.000000000,1696853123.838669300,-0.065000000,-0.114000000,0.103000000,0.009000000,-0.001000000,-0.010000000
1696853123.840571,4488620.000000000,1696853123.840687275,-0.065000000,-0.114000000,0.103000000,0.009000000,-0.001000000,-0.010000000
1696853123.842168,4488621.000000000,1696853123.842633724,-0.065000000,-0.116000000,0.104000000,0.009000000,-0.001000000,-0.010000000
1696853123.844855,4488622.000000000,1696853123.844650269,-0.065000000,-0.117000000,0.102000000,0.009000000,-0.001000000,-0.010000000
1696853123.846332,4488623.000000000,1696853123.846653461,-0.065000000,-0.118000000,0.101000000,0.009000000,-0.001000000,-0.010000000
1696853123.848176,4488624.000000000,1696853123.848657608,-0.065000000,-0.119000000,0.102000000,0.009000000,-0.001000000,-0.010000000
1696853123.850170,4488625.000000000,1696853123.850639105,-0.065000000,-0.119000000,0.102000000,0.009000000,-0.001000000,-0.010000000
1696853123.852166,4488626.000000000,1696853123.852647066,-0.065000000,-0.118000000,0.102000000,0.009000000,-0.001000000,-0.010000000
