__time,/kms40_driver/wrench/header/seq,/kms40_driver/wrench/header/stamp,/kms40_driver/wrench/wrench/force/x,/kms40_driver/wrench/wrench/force/y,/kms40_driver/wrench/wrench/force/z,/kms40_driver/wrench/wrench/torque/x,/kms40_driver/wrench/wrench/torque/y,/kms40_driver/wrench/wrench/torque/z,/wrench/header/seq,/wrench/header/stamp,/wrench/wrench/force/x,/wrench/wrench/force/y,/wrench/wrench/force/z,/wrench/wrench/torque/x,/wrench/wrench/torque/y,/wrench/wrench/torque/z
1696595426.856443,1241531.000000000,1696595426.854297400,0.005000000,-0.002000000,-0.025000000,0.000000000,0.000000000,0.000000000,,,,,,,,
1696595426.858397,1241532.000000000,1696595426.856270075,0.003000000,-0.002000000,-0.028000000,0.000000000,0.000000000,0.000000000,,,,,,,,
1696595426.860313,1241533.000000000,1696595426.858236790,0.003000000,-0.001000000,-0.031000000,0.000000000,0.000000000,0.000000000,,,,,,,,
1696595426.862554,1241534.000000000,1696595426.860411167,0.002000000,-0.001000000,-0.034000000,0.000000000,0.000000000,0.000000000,,,,,,,,
1696595426.863313,,,,,,,,,342079.000000000,1696595426.860377789,34.231962982,1.393870631,-0.811662609,0.366594972,-7.600953180,1.429820839
1696595426.864443,1241535.000000000,1696595426.862313747,0.001000000,0.000000000,-0.035000000,0.000000000,0.000000000,0.000000000,,,,,,,,
1696595426.866603,1241536.000000000,1696595426.864495277,0.001000000,0.000000000,-0.038000000,0.000000000,0.000000000,0.000000000,,,,,,,,
1696595426.868516,1241537.000000000,1696595426.866333008,0.001000000,0.001000000,-0.040000000,0.000000000,0.000000000,0.000000000,,,,,,,,
1696595426.870519,1241538.000000000,1696595426.868327856,0.001000000,0.002000000,-0.042000000,0.000000000,0.000000000,0.000000000,,,,,,,,
1696595426.870909,,,,,,,,,342080.000000000,1696595426.868425608,34.816820233,2.003627005,-0.635567754,0.695508594,-7.962092211,1.207477671
1696595426.872437,1241539.000000000,1696595426.870305538,0.001000000,0.002000000,-0.045000000,0.000000000,0.000000000,0.001000000,,,,,,,,
1696595426.874474,1241540.000000000,1696595426.872275829,0.001000000,0.003000000,-0.047000000,0.000000000,0.000000000,0.001000000,,,,,,,,
1696595426.876386,1241541.000000000,1696595426.874282598,0.000000000,0.005000000,-0.051000000,0.000000000,0.000000000,0.001000000,,,,,,,,
1696595426.878367,1241542.000000000,1696595426.876268864,0.000000000,0.006000000,-0.053000000,0.000000000,0.000000000,0.001000000,,,,,,,,
1696595426.878714,,,,,,,,,342081.000000000,1696595426.876393080,33.787782598,0.503075808,-0.948003311,0.239332248,-7.334958481,1.325486863
1696595426.880401,1241543.000000000,1696595426.878304482,-0.002000000,0.007000000,-0.057000000,0.000000000,0.000000000,0.001000000,,,,,,,,
1696595426.882396,1241544.000000000,1696595426.880278349,-0.004000000,0.008000000,-0.060000000,0.000000000,0.000000000,0.001000000,,,,,,,,
1696595426.884429,1241545.000000000,1696595426.882288694,-0.004000000,0.009000000,-0.063000000,0.000000000,0.000000000,0.001000000,,,,,,,,
1696595426.886353,1241546.000000000,1696595426.884263277,-0.005000000,0.010000000,-0.065000000,0.000000000,0.000000000,0.001000000,,,,,,,,
1696595426.887180,,,,,,,,,342082.000000000,1696595426.884377241,34.504536140,0.628072100,-0.049208543,0.207841192,-7.859570918,1.438061560
1696595426.888367,1241547.000000000,1696595426.886290789,-0.006000000,0.011000000,-0.067000000,0.000000000,0.000000000,0.001000000,,,,,,,,
1696595426.890392,1241548.000000000,1696595426.888286114,-0.006000000,0.013000000,-0.069000000,0.000000000,0.000000000,0.001000000,,,,,,,,
1696595426.892415,1241549.000000000,1696595426.890312672,-0.006000000,0.014000000,-0.072000000,0.000000000,0.000000000,0.001000000,,,,,,,,
1696595426.895344,1241550.000000000,1696595426.892276764,-0.006000000,0.015000000,-0.073000000,0.000000000,0.000000000,0.001000000,,,,,,,,
1696595426.896039,,,,,,,,,342083.000000000,1696595426.892416239,34.211641055,1.233313516,-1.731988528,0.423930191,-7.582537930,1.444893077
1696595426.897021,1241551.000000000,1696595426.894297838,-0.007000000,0.017000000,-0.075000000,0.000000000,0.000000000,0.001000000,,,,,,,,
1696595426.898437,1241552.000000000,1696595426.896329165,-0.007000000,0.018000000,-0.077000000,0.000000000,0.000000000,0.001000000,,,,,,,,
1696595426.900430,1241553.000000000,1696595426.898300171,-0.008000000,0.019000000,-0.079000000,0.000000000,0.000000000,0.001000000,,,,,,,,
1696595426.902398,1241554.000000000,1696595426.900270939,-0.009000000,0.020000000,-0.080000000,0.000000000,0.000000000,0.001000000,,,,,,,,
1696595426.903027,,,,,,,,,342084.000000000,1696595426.900405169,34.956646418,1.181388630,-0.589724805,0.398292323,-7.944579267,1.311757301
1696595426.904424,1241555.000000000,1696595426.902301788,-0.010000000,0.021000000,-0.082000000,0.000000000,0.000000000,0.001000000,,,,,,,,
1696595426.906496,1241556.000000000,1696595426.904265165,-0.011000000,0.022000000,-0.082000000,0.000000000,0.000000000,0.001000000,,,,,,,,
1696595426.908931,1241557.000000000,1696595426.906271219,-0.012000000,0.023000000,-0.082000000,0.000000000,0.000000000,0.001000000,,,,,,,,
1696595426.910526,1241558.000000000,1696595426.908260107,-0.013000000,0.023000000,-0.082000000,0.000000000,0.000000000,0.001000000,,,,,,,,
1696595426.910968,,,,,,,,,342085.000000000,1696595426.908270836,34.398881605,1.507206156,-1.114531778,0.532859219,-7.715205613,1.402183673
1696595426.912481,1241559.000000000,1696595426.910275698,-0.013000000,0.024000000,-0.081000000,0.000000000,0.000000000,0.001000000,,,,,,,,
1696595426.914463,1241560.000000000,1696595426.912289143,-0.012000000,0.025000000,-0.080000000,0.000000000,0.000000000,0.001000000,,,,,,,,
1696595426.916510,1241561.000000000,1696595426.914332628,-0.012000000,0.025000000,-0.078000000,0.000000000,0.000000000,0.001000000,,,,,,,,
1696595426.918645,,,,,,,,,342086.000000000,1696595426.916278124,34.355264484,1.558565180,-1.526230575,0.541427086,-7.563288470,1.250289783
1696595426.918787,1241562.000000000,1696595426.916343451,-0.012000000,0.026000000,-0.076000000,0.000000000,0.000000000,0.001000000,,,,,,,,
1696595426.920547,1241563.000000000,1696595426.918332815,-0.012000000,0.026000000,-0.074000000,0.000000000,0.000000000,0.001000000,,,,,,,,
1696595426.922621,1241564.000000000,1696595426.920287132,-0.012000000,0.026000000,-0.073000000,0.000000000,0.000000000,0.001000000,,,,,,,,
1696595426.924532,1241565.000000000,1696595426.922294617,-0.013000000,0.026000000,-0.071000000,0.000000000,0.000000000,0.001000000,,,,,,,,
1696595426.926766,1241566.000000000,1696595426.924352407,-0.013000000,0.026000000,-0.069000000,0.000000000,0.000000000,0.001000000,,,,,,,,
1696595426.926914,,,,,,,,,342087.000000000,1696595426.924465656,34.215054278,1.400556265,-0.590216085,0.477569895,-7.670483262,1.360941787
1696595426.928453,1241567.000000000,1696595426.926281452,-0.014000000,0.026000000,-0.066000000,0.000000000,0.000000000,0.001000000,,,,,,,,
1696595426.930696,1241568.000000000,1696595426.928425550,-0.015000000,0.026000000,-0.063000000,0.000000000,0.000000000,0.001000000,,,,,,,,
1696595426.932520,1241569.000000000,1696595426.930281639,-0.015000000,0.025000000,-0.060000000,0.000000000,0.000000000,0.001000000,,,,,,,,
1696595426.934575,1241570.000000000,1696595426.932366371,-0.014000000,0.025000000,-0.056000000,0.000000000,0.000000000,0.001000000,,,,,,,,
1696595426.934782,,,,,,,,,342088.000000000,1696595426.932401419,34.722240576,1.598252581,-0.427632009,0.547140034,-7.970523309,1.265586100
1696595426.936499,1241571.000000000,1696595426.934340000,-0.014000000,0.024000000,-0.051000000,0.000000000,0.000000000,0.001000000,,,,,,,,
1696595426.938612,1241572.000000000,1696595426.936274290,-0.013000000,0.024000000,-0.047000000,0.000000000,0.000000000,0.001000000,,,,,,,,
1696595426.940450,1241573.000000000,1696595426.938278437,-0.012000000,0.024000000,-0.043000000,0.000000000,0.000000000,0.001000000,,,,,,,,
1696595426.942440,1241574.000000000,1696595426.940334082,-0.012000000,0.023000000,-0.039000000,0.000000000,0.000000000,0.001000000,,,,,,,,
1696595426.942826,,,,,,,,,342089.000000000,1696595426.940414429,34.489244669,1.563410339,-0.825918194,0.550766445,-7.841552947,1.388405171
1696595426.944444,1241575.000000000,1696595426.942287683,-0.012000000,0.022000000,-0.036000000,0.000000000,0.000000000,0.000000000,,,,,,,,
1696595426.946442,1241576.000000000,1696595426.944287539,-0.012000000,0.021000000,-0.030000000,0.000000000,0.000000000,0.000000000,,,,,,,,
1696595426.948378,1241577.000000000,1696595426.946285725,-0.012000000,0.020000000,-0.028000000,0.000000000,0.000000000,0.000000000,,,,,,,,
1696595426.950525,1241578.000000000,1696595426.948350191,-0.013000000,0.019000000,-0.024000000,0.000000000,0.000000000,0.000000000,,,,,,,,
1696595426.951098,,,,,,,,,342090.000000000,1696595426.948422194,34.667202708,0.503474209,-0.338503265,0.109275419,-7.903635084,1.412523394
1696595426.952471,1241579.000000000,1696595426.950303078,-0.014000000,0.018000000,-0.021000000,0.000000000,0.000000000,0.000000000,,,,,,,,
1696595426.954444,1241580.000000000,1696595426.952323437,-0.013000000,0.017000000,-0.017000000,0.000000000,0.000000000,0.000000000,,,,,,,,
1696595426.956391,1241581.000000000,1696595426.954285860,-0.013000000,0.016000000,-0.013000000,0.000000000,0.000000000,0.000000000,,,,,,,,
1696595426.958574,1241582.000000000,1696595426.956390381,-0.013000000,0.015000000,-0.010000000,0.000000000,0.000000000,0.000000000,,,,,,,,
1696595426.958940,,,,,,,,,342091.000000000,1696595426.956408978,34.848848054,1.330868632,-0.674121110,0.493736857,-7.950675263,1.241133807
1696595426.960436,1241583.000000000,1696595426.958284378,-0.012000000,0.014000000,-0.007000000,0.000000000,0.000000000,0.000000000,,,,,,,,
1696595426.962405,1241584.000000000,1696595426.960298538,-0.011000000,0.013000000,-0.003000000,0.000000000,0.000000000,0.000000000,,,,,,,,
1696595426.964417,1241585.000000000,1696595426.962306738,-0.010000000,0.012000000,0.000000000,0.000000000,0.000000000,0.000000000,,,,,,,,
1696595426.966435,1241586.000000000,1696595426.964332819,-0.010000000,0.011000000,0.001000000,0.000000000,0.000000000,0.000000000,,,,,,,,
1696595426.966783,,,,,,,,,342092.000000000,1696595426.964380264,34.573943469,1.076198962,-0.459007425,0.345544516,-7.808697228,1.324456067
1696595426.968477,1241587.000000000,1696595426.966311932,-0.010000000,0.010000000,0.003000000,0.000000000,0.000000000,0.000000000,,,,,,,,
1696595426.970412,1241588.000000000,1696595426.968284369,-0.010000000,0.009000000,0.003000000,0.000000000,0.000000000,0.000000000,,,,,,,,
1696595426.972558,1241589.000000000,1696595426.970438480,-0.011000000,0.008000000,0.006000000,0.000000000,0.000000000,0.000000000,,,,,,,,
1696595426.974548,1241590.000000000,1696595426.972375631,-0.011000000,0.007000000,0.006000000,0.000000000,0.000000000,0.000000000,,,,,,,,
1696595426.975106,,,,,,,,,342093.000000000,1696595426.972417593,34.424901282,1.408945897,-0.845404617,0.400790563,-7.616026310,1.403194595
1696595426.976470,1241591.000000000,1696595426.974304676,-0.012000000,0.006000000,0.007000000,0.000000000,0.000000000,0.000000000,,,,,,,,
1696595426.978441,1241592.000000000,1696595426.976277590,-0.012000000,0.005000000,0.009000000,0.000000000,0.000000000,0.000000000,,,,,,,,
1696595426.980393,1241593.000000000,1696595426.978322744,-0.011000000,0.004000000,0.010000000,0.000000000,0.000000000,0.000000000,,,,,,,,
1696595426.982500,1241594.000000000,1696595426.980367184,-0.011000000,0.004000000,0.010000000,0.000000000,0.000000000,0.000000000,,,,,,,,
1696595426.983572,,,,,,,,,342094.000000000,1696595426.980426788,34.378058541,1.234566634,-0.813751323,0.419116885,-7.684879880,1.363267108
1696595426.984441,1241595.000000000,1696595426.982286930,-0.010000000,0.003000000,0.010000000,0.000000000,0.000000000,0.000000000,,,,,,,,
1696595426.986372,1241596.000000000,1696595426.984278202,-0.009000000,0.002000000,0.010000000,0.000000000,0.000000000,0.000000000,,,,,,,,
1696595426.988466,1241597.000000000,1696595426.986261606,-0.009000000,0.002000000,0.010000000,0.000000000,0.000000000,0.000000000,,,,,,,,
1696595426.990452,1241598.000000000,1696595426.988333941,-0.009000000,0.001000000,0.010000000,0.000000000,0.000000000,0.000000000,,,,,,,,
1696595426.990819,,,,,,,,,342095.000000000,1696595426.988474131,34.568278450,1.640470892,-0.821078380,0.551810746,-7.787308237,1.305650102
1696595426.992474,1241599.000000000,1696595426.990298510,-0.009000000,0.000000000,0.010000000,0.000000000,0.000000000,0.000000000,,,,,,,,
1696595426.994447,1241600.000000000,1696595426.992285252,-0.010000000,0.000000000,0.008000000,0.000000000,0.000000000,0.000000000,,,,,,,,
1696595426.996423,1241601.000000000,1696595426.994287252,-0.010000000,-0.001000000,0.006000000,0.000000000,0.000000000,0.000000000,,,,,,,,
1696595426.998446,1241602.000000000,1696595426.996343374,-0.011000000,-0.001000000,0.006000000,0.000000000,0.000000000,0.000000000,,,,,,,,
1696595426.998872,,,,,,,,,342096.000000000,1696595426.996395350,34.410409017,1.170744772,-0.103283770,0.378360763,-7.710851818,1.405242859
1696595427.000407,1241603.000000000,1696595426.998299122,-0.011000000,-0.002000000,0.004000000,0.000000000,0.000000000,0.000000000,,,,,,,,
1696595427.002720,1241604.000000000,1696595427.000473738,-0.011000000,-0.002000000,0.003000000,0.000000000,0.000000000,0.000000000,,,,,,,,
1696595427.004451,1241605.000000000,1696595427.002330303,-0.010000000,-0.003000000,0.003000000,0.000000000,0.000000000,0.000000000,,,,,,,,
1696595427.006466,1241606.000000000,1696595427.004288673,-0.009000000,-0.003000000,0.002000000,0.000000000,0.000000000,0.000000000,,,,,,,,
1696595427.007178,,,,,,,,,342097.000000000,1696595427.004512787,34.415593316,1.459233627,-1.347926690,0.503799245,-7.636000308,1.320220042
1696595427.008584,1241607.000000000,1696595427.006417513,-0.008000000,-0.004000000,0.001000000,0.000000000,0.000000000,0.000000000,,,,,,,,
1696595427.011473,1241608.000000000,1696595427.008292675,-0.007000000,-0.004000000,0.000000000,0.000000000,0.000000000,0.000000000,,,,,,,,
1696595427.012428,1241609.000000000,1696595427.010321379,-0.007000000,-0.004000000,0.000000000,0.000000000,0.000000000,0.000000000,,,,,,,,
1696595427.014533,1241610.000000000,1696595427.012291431,-0.007000000,-0.005000000,-0.001000000,0.000000000,0.000000000,0.000000000,,,,,,,,
1696595427.016104,,,,,,,,,342098.000000000,1696595427.012472630,34.573400773,1.432764528,-1.026025232,0.408349791,-7.831178053,1.403752624
1696595427.016961,1241611.000000000,1696595427.014464617,-0.007000000,-0.005000000,-0.004000000,0.000000000,0.000000000,0.000000000,,,,,,,,
1696595427.018526,1241612.000000000,1696595427.016289711,-0.007000000,-0.005000000,-0.006000000,0.000000000,0.000000000,0.000000000,,,,,,,,
1696595427.020506,1241613.000000000,1696595427.018292665,-0.008000000,-0.006000000,-0.006000000,0.000000000,0.000000000,0.000000000,,,,,,,,
1696595427.022465,1241614.000000000,1696595427.020272732,-0.008000000,-0.006000000,-0.008000000,0.000000000,0.000000000,0.000000000,,,,,,,,
1696595427.022943,,,,,,,,,342099.000000000,1696595427.020487785,34.563595973,1.256947407,-0.773902632,0.385936952,-7.706649117,1.295298358
1696595427.024493,1241615.000000000,1696595427.022339821,-0.007000000,-0.006000000,-0.009000000,0.000000000,0.000000000,0.000000000,,,,,,,,
1696595427.026536,1241616.000000000,1696595427.024365425,-0.006000000,-0.007000000,-0.009000000,0.000000000,0.000000000,0.000000000,,,,,,,,
1696595427.028389,1241617.000000000,1696595427.026283503,-0.005000000,-0.006000000,-0.010000000,0.000000000,0.000000000,0.000000000,,,,,,,,
1696595427.030486,1241618.000000000,1696595427.028270245,-0.004000000,-0.006000000,-0.011000000,0.000000000,0.000000000,0.000000000,,,,,,,,
1696595427.030860,,,,,,,,,342100.000000000,1696595427.028618336,34.510780112,0.582353559,-0.134743635,0.096262431,-7.744207949,1.301038036
1696595427.032467,1241619.000000000,1696595427.030285835,-0.003000000,-0.006000000,-0.012000000,0.000000000,0.000000000,0.000000000,,,,,,,,
1696595427.034966,1241620.000000000,1696595427.032392263,-0.002000000,-0.006000000,-0.013000000,0.000000000,0.000000000,0.000000000,,,,,,,,
1696595427.036391,1241621.000000000,1696595427.034288645,-0.002000000,-0.006000000,-0.015000000,0.000000000,0.000000000,0.000000000,,,,,,,,
1696595427.038501,1241622.000000000,1696595427.036333323,-0.001000000,-0.007000000,-0.015000000,0.000000000,0.000000000,0.000000000,,,,,,,,
1696595427.038884,,,,,,,,,342101.000000000,1696595427.036457300,34.228725883,1.292355492,-0.839052745,0.371374368,-7.626655591,1.306991904
1696595427.040579,1241623.000000000,1696595427.038291216,-0.002000000,-0.007000000,-0.017000000,0.000000000,0.000000000,0.000000000,,,,,,,,
1696595427.042536,1241624.000000000,1696595427.040334702,-0.002000000,-0.007000000,-0.017000000,0.000000000,0.000000000,0.000000000,,,,,,,,
1696595427.044441,1241625.000000000,1696595427.042284250,-0.001000000,-0.007000000,-0.018000000,0.000000000,0.000000000,0.000000000,,,,,,,,
1696595427.046568,1241626.000000000,1696595427.044340849,-0.001000000,-0.007000000,-0.018000000,0.000000000,0.000000000,0.000000000,,,,,,,,
1696595427.047370,,,,,,,,,342102.000000000,1696595427.044527054,34.504188331,0.441350963,-0.100532174,0.113815260,-7.796963680,1.316007183
1696595427.048572,1241627.000000000,1696595427.046303988,0.000000000,-0.007000000,-0.019000000,0.000000000,0.000000000,0.000000000,,,,,,,,
1696595427.050503,1241628.000000000,1696595427.048298597,0.000000000,-0.007000000,-0.019000000,0.000000000,0.000000000,0.000000000,,,,,,,,
1696595427.052445,1241629.000000000,1696595427.050278187,0.002000000,-0.006000000,-0.018000000,0.000000000,0.000000000,0.000000000,,,,,,,,
1696595427.054529,1241630.000000000,1696595427.052323818,0.002000000,-0.006000000,-0.017000000,0.000000000,0.000000000,0.000000000,,,,,,,,
1696595427.054883,,,,,,,,,342103.000000000,1696595427.052430630,34.069734537,0.565031012,-0.773771284,0.148836010,-7.559754917,1.463860564
1696595427.056518,1241631.000000000,1696595427.054306746,0.003000000,-0.006000000,-0.018000000,0.000000000,0.000000000,0.000000000,,,,,,,,
1696595427.058476,1241632.000000000,1696595427.056275368,0.004000000,-0.006000000,-0.018000000,0.000000000,0.000000000,0.000000000,,,,,,,,
1696595427.060766,1241633.000000000,1696595427.058448315,0.004000000,-0.006000000,-0.019000000,0.000000000,0.000000000,0.000000000,,,,,,,,
1696595427.062668,,,,,,,,,342104.000000000,1696595427.060391426,34.903587486,1.728096223,-1.021247026,0.431462824,-8.050322676,1.306608425
1696595427.062692,1241634.000000000,1696595427.060378075,0.004000000,-0.006000000,-0.018000000,0.000000000,0.000000000,0.000000000,,,,,,,,
1696595427.064548,1241635.000000000,1696595427.062338352,0.003000000,-0.006000000,-0.018000000,0.000000000,0.000000000,0.000000000,,,,,,,,
1696595427.066491,1241636.000000000,1696595427.064288855,0.003000000,-0.006000000,-0.018000000,0.000000000,0.000000000,0.000000000,,,,,,,,
1696595427.068535,1241637.000000000,1696595427.066330910,0.003000000,-0.006000000,-0.017000000,0.000000000,0.000000000,0.000000000,,,,,,,,
1696595427.070557,1241638.000000000,1696595427.068349600,0.004000000,-0.006000000,-0.017000000,0.000000000,0.000000000,0.000000000,,,,,,,,
1696595427.071280,,,,,,,,,342105.000000000,1696595427.068540096,34.453038091,1.245531505,-0.165948262,0.392645628,-7.656459786,1.281080284
1696595427.072419,1241639.000000000,1696595427.070298672,0.004000000,-0.005000000,-0.015000000,0.000000000,0.000000000,0.000000000,,,,,,,,
1696595427.074492,1241640.000000000,1696595427.072336197,0.005000000,-0.005000000,-0.014000000,0.000000000,0.000000000,0.000000000,,,,,,,,
1696595427.076421,1241641.000000000,1696595427.074293852,0.005000000,-0.005000000,-0.012000000,0.000000000,0.000000000,0.000000000,,,,,,,,
1696595427.078444,1241642.000000000,1696595427.076277018,0.006000000,-0.005000000,-0.011000000,0.000000000,0.000000000,0.000000000,,,,,,,,
1696595427.079101,,,,,,,,,342106.000000000,1696595427.076384306,34.633146343,1.316781906,-1.286356516,0.437744887,-7.752666884,1.432589238
1696595427.080512,1241643.000000000,1696595427.078331709,0.006000000,-0.005000000,-0.009000000,0.000000000,0.000000000,0.000000000,,,,,,,,
1696595427.082381,1241644.000000000,1696595427.080283165,0.006000000,-0.004000000,-0.008000000,0.000000000,0.000000000,0.000000000,,,,,,,,
1696595427.084439,1241645.000000000,1696595427.082313061,0.005000000,-0.004000000,-0.007000000,0.000000000,0.000000000,0.000000000,,,,,,,,
1696595427.086526,1241646.000000000,1696595427.084370852,0.004000000,-0.004000000,-0.007000000,0.000000000,0.000000000,0.000000000,,,,,,,,
1696595427.087354,,,,,,,,,342107.000000000,1696595427.084453583,34.319243291,1.371654843,-0.983059233,0.428416484,-7.626411395,1.457964274
1696595427.088694,1241647.000000000,1696595427.086279869,0.003000000,-0.004000000,-0.005000000,0.000000000,0.000000000,0.000000000,,,,,,,,
1696595427.090495,1241648.000000000,1696595427.088325739,0.002000000,-0.004000000,-0.002000000,0.000000000,0.000000000,0.000000000,,,,,,,,
1696595427.092450,1241649.000000000,1696595427.090313911,0.002000000,-0.004000000,-0.001000000,0.000000000,0.000000000,0.000000000,,,,,,,,
1696595427.094503,1241650.000000000,1696595427.092334986,0.002000000,-0.004000000,0.000000000,0.000000000,0.000000000,0.000000000,,,,,,,,
1696595427.094563,,,,,,,,,342108.000000000,1696595427.092391253,34.449235047,1.296411273,-1.250260848,0.458589739,-7.597837527,1.363085031
1696595427.096603,1241651.000000000,1696595427.094310284,0.002000000,-0.004000000,0.002000000,0.000000000,0.000000000,0.000000000,,,,,,,,
1696595427.098458,1241652.000000000,1696595427.096277714,0.003000000,-0.003000000,0.004000000,0.000000000,0.000000000,0.000000000,,,,,,,,
1696595427.100453,1241653.000000000,1696595427.098304033,0.003000000,-0.003000000,0.006000000,0.000000000,0.000000000,0.000000000,,,,,,,,
1696595427.102495,1241654.000000000,1696595427.100369453,0.003000000,-0.003000000,0.008000000,0.000000000,0.000000000,0.000000000,,,,,,,,
1696595427.103214,,,,,,,,,342109.000000000,1696595427.100404978,33.978594176,1.398532135,-0.316886380,0.475605273,-7.534555511,1.359733164
1696595427.104465,1241655.000000000,1696595427.102303505,0.003000000,-0.003000000,0.010000000,0.000000000,0.000000000,0.000000000,,,,,,,,
1696595427.106487,1241656.000000000,1696595427.104361057,0.001000000,-0.002000000,0.011000000,0.000000000,0.000000000,0.000000000,,,,,,,,
1696595427.108492,1241657.000000000,1696595427.106367826,0.001000000,-0.003000000,0.013000000,0.000000000,0.000000000,0.000000000,,,,,,,,
1696595427.111277,1241658.000000000,1696595427.108335257,0.000000000,-0.003000000,0.013000000,0.000000000,0.000000000,0.000000000,,,,,,,,
1696595427.111674,,,,,,,,,342110.000000000,1696595427.108476400,34.463547819,1.225730001,-0.470389930,0.399258864,-7.811840350,1.391282117
1696595427.113219,1241659.000000000,1696595427.110425949,0.000000000,-0.003000000,0.015000000,0.000000000,0.000000000,0.000000000,,,,,,,,
1696595427.114450,1241660.000000000,1696595427.112282515,-0.001000000,-0.003000000,0.016000000,0.000000000,0.000000000,0.000000000,,,,,,,,
1696595427.116453,1241661.000000000,1696595427.114307165,-0.001000000,-0.002000000,0.018000000,0.000000000,0.000000000,0.000000000,,,,,,,,
1696595427.118473,1241662.000000000,1696595427.116337776,-0.001000000,-0.002000000,0.020000000,0.000000000,0.000000000,0.000000000,,,,,,,,
1696595427.119319,,,,,,,,,342111.000000000,1696595427.116416931,34.540449592,1.426668200,-1.094480979,0.475354249,-7.821945554,1.321158055
1696595427.120481,1241663.000000000,1696595427.118321180,0.000000000,-0.002000000,0.021000000,0.000000000,0.000000000,0.000000000,,,,,,,,
1696595427.123376,1241664.000000000,1696595427.120295286,0.000000000,-0.001000000,0.022000000,0.000000000,0.000000000,0.000000000,,,,,,,,
1696595427.124405,1241665.000000000,1696595427.122310638,0.000000000,-0.001000000,0.025000000,0.000000000,0.000000000,0.000000000,,,,,,,,
1696595427.126455,1241666.000000000,1696595427.124352455,0.000000000,-0.001000000,0.024000000,0.000000000,0.000000000,0.000000000,,,,,,,,
1696595427.127293,,,,,,,,,342112.000000000,1696595427.124522686,34.620423240,0.618956205,-1.399383976,0.143330647,-7.840766651,1.370012267
1696595427.128384,1241667.000000000,1696595427.126292944,0.000000000,0.000000000,0.023000000,0.000000000,0.000000000,0.000000000,,,,,,,,
1696595427.130510,1241668.000000000,1696595427.128392458,-0.001000000,0.000000000,0.023000000,0.000000000,0.000000000,0.000000000,,,,,,,,
1696595427.132681,1241669.000000000,1696595427.130329847,-0.002000000,0.000000000,0.022000000,0.000000000,0.000000000,0.000000000,,,,,,,,
1696595427.134608,1241670.000000000,1696595427.132402420,-0.003000000,0.000000000,0.021000000,0.000000000,0.000000000,0.000000000,,,,,,,,
1696595427.135535,,,,,,,,,342113.000000000,1696595427.132434607,34.400549666,2.431536568,-0.867580176,0.825141006,-7.669169553,1.338967019
1696595427.136473,1241671.000000000,1696595427.134330988,-0.003000000,0.000000000,0.020000000,0.000000000,0.000000000,0.000000000,,,,,,,,
1696595427.138377,1241672.000000000,1696595427.136276484,-0.003000000,0.000000000,0.019000000,0.000000000,0.000000000,0.000000000,,,,,,,,
1696595427.140509,1241673.000000000,1696595427.138360023,-0.003000000,0.000000000,0.018000000,0.000000000,0.000000000,0.000000000,,,,,,,,
1696595427.142407,1241674.000000000,1696595427.140291214,-0.003000000,0.001000000,0.017000000,0.000000000,0.000000000,0.000000000,,,,,,,,
1696595427.143152,,,,,,,,,342114.000000000,1696595427.140398026,34.034954889,1.923061112,-0.484209502,0.694256151,-7.531485016,1.314110640
1696595427.144407,1241675.000000000,1696595427.142302275,-0.002000000,0.002000000,0.014000000,0.000000000,0.000000000,0.000000000,,,,,,,,
1696595427.146516,1241676.000000000,1696595427.144373178,-0.002000000,0.002000000,0.012000000,0.000000000,0.000000000,0.000000000,,,,,,,,
1696595427.148596,1241677.000000000,1696595427.146305323,-0.001000000,0.003000000,0.008000000,0.000000000,0.000000000,0.000000000,,,,,,,,
1696595427.150461,1241678.000000000,1696595427.148323298,-0.002000000,0.004000000,0.006000000,0.000000000,0.000000000,0.000000000,,,,,,,,
1696595427.150857,,,,,,,,,342115.000000000,1696595427.148473501,34.463455771,1.691136411,-1.444101167,0.601830148,-7.676055762,1.400879013
1696595427.153069,1241679.000000000,1696595427.150310755,-0.003000000,0.004000000,0.002000000,0.000000000,0.000000000,0.000000000,,,,,,,,
1696595427.154404,1241680.000000000,1696595427.152297020,-0.003000000,0.005000000,-0.003000000,0.000000000,0.000000000,0.000000000,,,,,,,,
1696595427.156394,1241681.000000000,1696595427.154308319,-0.004000000,0.005000000,-0.007000000,0.000000000,0.000000000,0.000000000,,,,,,,,
1696595427.158842,,,,,,,,,342116.000000000,1696595427.156367302,34.334465172,0.978532001,-0.211378754,0.294577926,-7.749130257,1.392816131
1696595427.159372,1241682.000000000,1696595427.157210588,-0.005000000,0.006000000,-0.012000000,0.000000000,0.000000000,0.000000000,,,,,,,,
1696595427.160464,1241683.000000000,1696595427.158348799,-0.005000000,0.007000000,-0.017000000,0.000000000,0.000000000,0.000000000,,,,,,,,
1696595427.162501,1241684.000000000,1696595427.160413980,-0.005000000,0.007000000,-0.021000000,0.000000000,0.000000000,0.000000000,,,,,,,,
1696595427.164386,1241685.000000000,1696595427.162297964,-0.005000000,0.008000000,-0.026000000,0.000000000,0.000000000,0.000000000,,,,,,,,
1696595427.166423,1241686.000000000,1696595427.164349079,-0.004000000,0.009000000,-0.031000000,0.000000000,0.000000000,0.000000000,,,,,,,,
1696595427.167061,,,,,,,,,342117.000000000,1696595427.164409876,34.476278030,1.240977848,-0.610596833,0.351533404,-7.711418110,1.267495064
1696595427.168437,1241687.000000000,1696595427.166322947,-0.004000000,0.010000000,-0.036000000,0.000000000,0.000000000,0.000000000,,,,,,,,
1696595427.170493,1241688.000000000,1696595427.168351173,-0.004000000,0.011000000,-0.043000000,0.000000000,0.000000000,0.001000000,,,,,,,,
1696595427.172371,1241689.000000000,1696595427.170295238,-0.004000000,0.012000000,-0.049000000,0.000000000,0.000000000,0.001000000,,,,,,,,
1696595427.174421,1241690.000000000,1696595427.172301054,-0.004000000,0.013000000,-0.055000000,0.000000000,0.000000000,0.001000000,,,,,,,,
1696595427.175614,,,,,,,,,342118.000000000,1696595427.172354460,34.283029733,0.900585787,-0.660939187,0.254923477,-7.741899636,1.352005032
1696595427.176461,1241691.000000000,1696595427.174331903,-0.005000000,0.014000000,-0.061000000,0.000000000,0.000000000,0.001000000,,,,,,,,
1696595427.178434,1241692.000000000,1696595427.176333904,-0.006000000,0.014000000,-0.067000000,0.000000000,0.000000000,0.001000000,,,,,,,,
1696595427.180369,1241693.000000000,1696595427.178283215,-0.007000000,0.015000000,-0.073000000,0.000000000,0.000000000,0.001000000,,,,,,,,
1696595427.182386,1241694.000000000,1696595427.180287838,-0.007000000,0.016000000,-0.077000000,0.000000000,0.000000000,0.001000000,,,,,,,,
1696595427.183246,,,,,,,,,342119.000000000,1696595427.180401325,34.921125894,1.097262497,-1.338608813,0.289330057,-7.902252816,1.216098558
1696595427.184489,1241695.000000000,1696595427.182344437,-0.007000000,0.016000000,-0.082000000,0.000000000,0.000000000,0.002000000,,,,,,,,
1696595427.186500,1241696.000000000,1696595427.184299469,-0.007000000,0.017000000,-0.086000000,0.000000000,0.000000000,0.002000000,,,,,,,,
1696595427.188395,1241697.000000000,1696595427.186306238,-0.006000000,0.018000000,-0.090000000,0.000000000,0.000000000,0.002000000,,,,,,,,
1696595427.190429,1241698.000000000,1696595427.188263416,-0.006000000,0.018000000,-0.094000000,0.000000000,0.000000000,0.002000000,,,,,,,,
1696595427.191099,,,,,,,,,342120.000000000,1696595427.188470125,34.469203151,1.162189453,-0.559942712,0.417831202,-7.830345935,1.419370501
1696595427.192448,1241699.000000000,1696595427.190332651,-0.005000000,0.019000000,-0.098000000,0.000000000,0.000000000,0.002000000,,,,,,,,
1696595427.194496,1241700.000000000,1696595427.192285776,-0.005000000,0.020000000,-0.102000000,0.000000000,0.000000000,0.002000000,,,,,,,,
1696595427.196425,1241701.000000000,1696595427.194294214,-0.005000000,0.020000000,-0.104000000,0.000000000,0.000000000,0.002000000,,,,,,,,
1696595427.198525,1241702.000000000,1696595427.196416616,-0.006000000,0.020000000,-0.107000000,0.000000000,0.000000000,0.002000000,,,,,,,,
1696595427.199889,,,,,,,,,342121.000000000,1696595427.196433067,34.282683418,1.333125068,-0.985455180,0.456359067,-7.566731327,1.334400989
1696595427.201188,1241703.000000000,1696595427.198371649,-0.007000000,0.020000000,-0.109000000,0.000000000,0.000000000,0.002000000,,,,,,,,
1696595427.202423,1241704.000000000,1696595427.200328588,-0.008000000,0.020000000,-0.110000000,0.000000000,0.000000000,0.002000000,,,,,,,,
1696595427.204443,1241705.000000000,1696595427.202287674,-0.008000000,0.020000000,-0.111000000,0.000000000,0.000000000,0.002000000,,,,,,,,
1696595427.206410,1241706.000000000,1696595427.204295397,-0.008000000,0.020000000,-0.110000000,0.000000000,0.000000000,0.002000000,,,,,,,,
1696595427.207043,,,,,,,,,342122.000000000,1696595427.204396725,34.504058100,1.011694939,-0.532832525,0.308474816,-7.789365824,1.420892900
1696595427.208459,1241707.000000000,1696595427.206295729,-0.008000000,0.020000000,-0.110000000,0.000000000,0.000000000,0.002000000,,,,,,,,
1696595427.210520,1241708.000000000,1696595427.208288193,-0.007000000,0.020000000,-0.108000000,0.000000000,0.000000000,0.002000000,,,,,,,,
1696595427.212742,1241709.000000000,1696595427.210340977,-0.007000000,0.020000000,-0.106000000,0.000000000,0.000000000,0.002000000,,,,,,,,
1696595427.214440,1241710.000000000,1696595427.212283134,-0.006000000,0.020000000,-0.104000000,0.000000000,0.000000000,0.002000000,,,,,,,,
1696595427.215038,,,,,,,,,342123.000000000,1696595427.212407589,34.094001484,1.154203318,-1.578090355,0.368227305,-7.425776253,1.348763550
1696595427.216458,1241711.000000000,1696595427.214315891,-0.006000000,0.020000000,-0.100000000,0.000000000,0.000000000,0.002000000,,,,,,,,
1696595427.218458,1241712.000000000,1696595427.216300964,-0.006000000,0.020000000,-0.098000000,0.000000000,0.000000000,0.002000000,,,,,,,,
1696595427.220433,1241713.000000000,1696595427.218282938,-0.006000000,0.019000000,-0.095000000,0.000000000,0.000000000,0.002000000,,,,,,,,
1696595427.222457,1241714.000000000,1696595427.220342636,-0.007000000,0.019000000,-0.090000000,0.000000000,0.000000000,0.002000000,,,,,,,,
1696595427.222644,,,,,,,,,342124.000000000,1696595427.220461845,34.817773356,1.726215034,-1.219790348,0.502414029,-7.847457922,1.388658134
1696595427.224429,1241715.000000000,1696595427.222306728,-0.008000000,0.018000000,-0.086000000,0.000000000,0.000000000,0.002000000,,,,,,,,
1696595427.226456,1241716.000000000,1696595427.224342108,-0.008000000,0.018000000,-0.082000000,0.000000000,0.000000000,0.002000000,,,,,,,,
1696595427.228400,1241717.000000000,1696595427.226299047,-0.009000000,0.017000000,-0.076000000,0.000000000,0.000000000,0.001000000,,,,,,,,
1696595427.230428,1241718.000000000,1696595427.228291988,-0.008000000,0.017000000,-0.071000000,0.000000000,0.000000000,0.001000000,,,,,,,,
1696595427.231565,,,,,,,,,342125.000000000,1696595427.228610754,34.051228250,0.542253420,-0.483139826,0.194589207,-7.542608283,1.326504272
1696595427.232533,1241719.000000000,1696595427.230313778,-0.008000000,0.017000000,-0.064000000,0.000000000,0.000000000,0.001000000,,,,,,,,
1696595427.234473,1241720.000000000,1696595427.232285023,-0.007000000,0.016000000,-0.058000000,0.000000000,0.000000000,0.001000000,,,,,,,,
1696595427.236452,1241721.000000000,1696595427.234294891,-0.007000000,0.016000000,-0.052000000,0.000000000,0.000000000,0.001000000,,,,,,,,
1696595427.238500,1241722.000000000,1696595427.236283302,-0.007000000,0.015000000,-0.046000000,0.000000000,0.000000000,0.001000000,,,,,,,,
1696595427.239257,,,,,,,,,342126.000000000,1696595427.236369371,34.530271001,0.942316686,-0.998084502,0.272650259,-7.757181474,1.297930256
1696595427.240412,1241723.000000000,1696595427.238305330,-0.006000000,0.015000000,-0.041000000,0.000000000,0.000000000,0.001000000,,,,,,,,
1696595427.242437,1241724.000000000,1696595427.240286827,-0.007000000,0.015000000,-0.035000000,0.000000000,0.000000000,0.001000000,,,,,,,,
1696595427.244452,1241725.000000000,1696595427.242331982,-0.007000000,0.014000000,-0.030000000,0.000000000,0.000000000,0.000000000,,,,,,,,
1696595427.246398,1241726.000000000,1696595427.244283199,-0.008000000,0.014000000,-0.025000000,0.000000000,0.000000000,0.000000000,,,,,,,,
1696595427.246760,,,,,,,,,342127.000000000,1696595427.244441986,34.646463269,1.707552498,-0.819999076,0.604227239,-7.788321696,1.319204071
1696595427.248399,1241727.000000000,1696595427.246310711,-0.009000000,0.013000000,-0.020000000,0.000000000,0.000000000,0.000000000,,,,,,,,
1696595427.250649,1241728.000000000,1696595427.248291492,-0.009000000,0.013000000,-0.015000000,0.000000000,0.000000000,0.000000000,,,,,,,,
1696595427.252375,1241729.000000000,1696595427.250286102,-0.009000000,0.012000000,-0.011000000,0.000000000,0.000000000,0.000000000,,,,,,,,
1696595427.254432,1241730.000000000,1696595427.252284050,-0.008000000,0.012000000,-0.006000000,0.000000000,0.000000000,0.000000000,,,,,,,,
1696595427.254596,,,,,,,,,342128.000000000,1696595427.252405882,35.396644145,1.738208994,-1.129209606,0.532309536,-8.231349145,1.295329696
1696595427.256413,1241731.000000000,1696595427.254311085,-0.008000000,0.012000000,-0.002000000,0.000000000,0.000000000,0.000000000,,,,,,,,
1696595427.258415,1241732.000000000,1696595427.256329775,-0.007000000,0.012000000,0.001000000,0.000000000,0.000000000,0.000000000,,,,,,,,
1696595427.260429,1241733.000000000,1696595427.258285522,-0.006000000,0.012000000,0.004000000,0.000000000,0.000000000,0.000000000,,,,,,,,
1696595427.262422,1241734.000000000,1696595427.260292530,-0.006000000,0.012000000,0.007000000,0.000000000,0.000000000,0.000000000,,,,,,,,
1696595427.263247,,,,,,,,,342129.000000000,1696595427.260459185,35.266535867,0.923238854,-0.512812689,0.245968484,-8.331494504,1.411890520
1696595427.264403,1241735.000000000,1696595427.262308359,-0.007000000,0.012000000,0.010000000,0.000000000,0.000000000,0.000000000,,,,,,,,
1696595427.266438,1241736.000000000,1696595427.264346838,-0.007000000,0.011000000,0.011000000,0.000000000,0.000000000,0.000000000,,,,,,,,
1696595427.268433,1241737.000000000,1696595427.266286612,-0.008000000,0.011000000,0.012000000,0.000000000,0.000000000,0.000000000,,,,,,,,
1696595427.270465,1241738.000000000,1696595427.268284082,-0.008000000,0.011000000,0.013000000,0.000000000,0.000000000,0.000000000,,,,,,,,
1696595427.270833,,,,,,,,,342130.000000000,1696595427.268463135,34.047213762,1.148411159,-0.986531081,0.374836196,-7.596862258,1.307333478
1696595427.272417,1241739.000000000,1696595427.270321131,-0.008000000,0.010000000,0.014000000,0.000000000,0.000000000,0.000000000,,,,,,,,
1696595427.274520,1241740.000000000,1696595427.272286177,-0.009000000,0.010000000,0.014000000,0.000000000,0.000000000,0.000000000,,,,,,,,
1696595427.277537,1241741.000000000,1696595427.274354696,-0.008000000,0.010000000,0.015000000,0.000000000,0.000000000,0.000000000,,,,,,,,
1696595427.278538,1241742.000000000,1696595427.276395082,-0.007000000,0.010000000,0.016000000,0.000000000,0.000000000,0.000000000,,,,,,,,
1696595427.279001,,,,,,,,,342131.000000000,1696595427.276462555,33.877794951,1.901747409,-0.302326131,0.630852944,-7.456541725,1.409709704
1696595427.280505,1241743.000000000,1696595427.278329134,-0.007000000,0.010000000,0.016000000,0.000000000,0.000000000,0.000000000,,,,,,,,
1696595427.282459,1241744.000000000,1696595427.280354261,-0.006000000,0.010000000,0.017000000,0.000000000,0.000000000,0.000000000,,,,,,,,
1696595427.284409,1241745.000000000,1696595427.282298803,-0.005000000,0.010000000,0.016000000,0.000000000,0.000000000,0.000000000,,,,,,,,
1696595427.286532,1241746.000000000,1696595427.284411192,-0.006000000,0.009000000,0.015000000,0.000000000,0.000000000,0.000000000,,,,,,,,
1696595427.286919,,,,,,,,,342132.000000000,1696595427.284428120,34.597521342,1.391433058,-0.899856805,0.433573743,-7.900590722,1.308021851
1696595427.288543,1241747.000000000,1696595427.286360025,-0.006000000,0.009000000,0.015000000,0.000000000,0.000000000,0.000000000,,,,,,,,
1696595427.290457,1241748.000000000,1696595427.288296938,-0.006000000,0.009000000,0.013000000,0.000000000,0.000000000,0.000000000,,,,,,,,
1696595427.292441,1241749.000000000,1696595427.290303707,-0.007000000,0.008000000,0.012000000,0.000000000,0.000000000,0.000000000,,,,,,,,
1696595427.294455,1241750.000000000,1696595427.292351484,-0.007000000,0.008000000,0.011000000,0.000000000,0.000000000,0.000000000,,,,,,,,
1696595427.295278,,,,,,,,,342133.000000000,1696595427.292443752,34.525610743,1.129226751,-0.948950244,0.366333948,-7.855029690,1.337478858
1696595427.296456,1241751.000000000,1696595427.294318199,-0.008000000,0.008000000,0.011000000,0.000000000,0.000000000,0.000000000,,,,,,,,
1696595427.298455,1241752.000000000,1696595427.296284199,-0.007000000,0.007000000,0.010000000,0.000000000,0.000000000,0.000000000,,,,,,,,
1696595427.300399,1241753.000000000,1696595427.298314810,-0.007000000,0.007000000,0.011000000,0.000000000,0.000000000,0.000000000,,,,,,,,
1696595427.302495,1241754.000000000,1696595427.300398111,-0.006000000,0.007000000,0.011000000,0.000000000,0.000000000,0.000000000,,,,,,,,
1696595427.303089,,,,,,,,,342134.000000000,1696595427.300400257,34.829221032,1.100878382,-1.024174642,0.329300975,-7.936575743,1.366799336
1696595427.304449,1241755.000000000,1696595427.302345991,-0.006000000,0.006000000,0.012000000,0.000000000,0.000000000,0.000000000,,,,,,,,
1696595427.306404,1241756.000000000,1696595427.304294348,-0.005000000,0.006000000,0.012000000,0.000000000,0.000000000,0.000000000,,,,,,,,
1696595427.308415,1241757.000000000,1696595427.306321144,-0.005000000,0.006000000,0.012000000,0.000000000,0.000000000,0.000000000,,,,,,,,
1696595427.310610,1241758.000000000,1696595427.308406830,-0.005000000,0.005000000,0.011000000,0.000000000,0.000000000,0.000000000,,,,,,,,
1696595427.310930,,,,,,,,,342135.000000000,1696595427.308512926,35.040105695,1.644960711,-0.708510980,0.579271916,-8.060279474,1.321804117
1696595427.312680,1241759.000000000,1696595427.310435295,-0.006000000,0.005000000,0.012000000,0.000000000,0.000000000,0.000000000,,,,,,,,
1696595427.314432,1241760.000000000,1696595427.312288284,-0.007000000,0.004000000,0.012000000,0.000000000,0.000000000,0.000000000,,,,,,,,
1696595427.316443,1241761.000000000,1696595427.314305067,-0.008000000,0.004000000,0.012000000,0.000000000,0.000000000,0.000000000,,,,,,,,
1696595427.318558,1241762.000000000,1696595427.316350698,-0.008000000,0.003000000,0.013000000,0.000000000,0.000000000,0.000000000,,,,,,,,
1696595427.320565,,,,,,,,,342136.000000000,1696595427.316497803,34.592811525,1.289466748,-1.364156094,0.399992459,-7.791335702,1.322652772
1696595427.320961,1241763.000000000,1696595427.318337202,-0.008000000,0.003000000,0.015000000,0.000000000,0.000000000,0.000000000,,,,,,,,
1696595427.322957,1241764.000000000,1696595427.320355415,-0.009000000,0.002000000,0.017000000,0.000000000,0.000000000,0.000000000,,,,,,,,
1696595427.324539,1241765.000000000,1696595427.322299957,-0.008000000,0.002000000,0.018000000,0.000000000,0.000000000,0.000000000,,,,,,,,
1696595427.326891,1241766.000000000,1696595427.324456930,-0.007000000,0.002000000,0.019000000,0.000000000,0.000000000,0.000000000,,,,,,,,
1696595427.327762,,,,,,,,,342137.000000000,1696595427.324476004,34.512411297,0.919035545,-0.707504909,0.317588464,-7.784117063,1.325537895
1696595427.328650,1241767.000000000,1696595427.326313972,-0.007000000,0.002000000,0.021000000,0.000000000,0.000000000,0.000000000,,,,,,,,
1696595427.330496,1241768.000000000,1696595427.328285933,-0.007000000,0.002000000,0.023000000,0.000000000,0.000000000,0.000000000,,,,,,,,
1696595427.332544,1241769.000000000,1696595427.330352545,-0.007000000,0.001000000,0.024000000,0.000000000,0.000000000,0.000000000,,,,,,,,
1696595427.334651,1241770.000000000,1696595427.332391739,-0.008000000,0.001000000,0.024000000,0.000000000,0.000000000,0.000000000,,,,,,,,
1696595427.335104,,,,,,,,,342138.000000000,1696595427.332398891,34.993127971,1.600638042,-1.222365419,0.551929597,-8.081338195,1.349448142
1696595427.336477,1241771.000000000,1696595427.334339857,-0.009000000,0.001000000,0.025000000,0.000000000,0.000000000,0.000000000,,,,,,,,
1696595427.338465,1241772.000000000,1696595427.336334944,-0.010000000,0.000000000,0.026000000,0.000000000,0.000000000,0.000000000,,,,,,,,
1696595427.340450,1241773.000000000,1696595427.338316441,-0.010000000,0.000000000,0.027000000,0.000000000,0.000000000,0.000000000,,,,,,,,
1696595427.342966,1241774.000000000,1696595427.340388298,-0.010000000,0.000000000,0.028000000,0.000000000,0.000000000,0.000000000,,,,,,,,
1696595427.342977,,,,,,,,,342139.000000000,1696595427.340441942,35.032419242,0.629942488,0.269780567,0.191272023,-8.222212367,1.372051612
1696595427.344485,1241775.000000000,1696595427.342336178,-0.010000000,0.000000000,0.029000000,0.000000000,0.000000000,0.000000000,,,,,,,,
1696595427.346470,1241776.000000000,1696595427.344293356,-0.010000000,0.000000000,0.030000000,0.000000000,0.000000000,0.000000000,,,,,,,,
1696595427.348526,1241777.000000000,1696595427.346300364,-0.009000000,0.000000000,0.032000000,0.000000000,0.000000000,0.000000000,,,,,,,,
1696595427.350549,1241778.000000000,1696595427.348368406,-0.009000000,0.000000000,0.032000000,0.000000000,0.000000000,0.000000000,,,,,,,,
1696595427.351491,,,,,,,,,342140.000000000,1696595427.348484039,34.087558824,1.370295438,-1.446109934,0.472676167,-7.459451091,1.291818412
1696595427.352478,1241779.000000000,1696595427.350326777,-0.008000000,0.000000000,0.032000000,0.000000000,0.000000000,0.000000000,,,,,,,,
1696595427.354517,1241780.000000000,1696595427.352367163,-0.008000000,0.000000000,0.031000000,0.000000000,0.000000000,0.000000000,,,,,,,,
1696595427.356449,1241781.000000000,1696595427.354310036,-0.008000000,0.000000000,0.032000000,0.000000000,0.000000000,0.000000000,,,,,,,,
1696595427.358611,1241782.000000000,1696595427.356364965,-0.008000000,0.000000000,0.031000000,0.000000000,0.000000000,0.000000000,,,,,,,,
1696595427.359483,,,,,,,,,342141.000000000,1696595427.356441021,34.444609904,1.113554647,-1.373420663,0.350353913,-7.711913159,1.323452125
1696595427.360545,1241783.000000000,1696595427.358386278,-0.009000000,0.000000000,0.030000000,0.000000000,0.000000000,0.000000000,,,,,,,,
1696595427.362575,1241784.000000000,1696595427.360399246,-0.009000000,0.000000000,0.028000000,0.000000000,0.000000000,0.000000000,,,,,,,,
1696595427.364526,1241785.000000000,1696595427.362319708,-0.009000000,0.000000000,0.027000000,0.000000000,0.000000000,0.000000000,,,,,,,,
1696595427.366600,1241786.000000000,1696595427.364394665,-0.009000000,0.000000000,0.027000000,0.000000000,0.000000000,0.000000000,,,,,,,,
1696595427.367155,,,,,,,,,342142.000000000,1696595427.364482641,35.181232852,0.356989100,-0.932900571,0.072502593,-8.138689160,1.389003220
1696595427.368540,1241787.000000000,1696595427.366327047,-0.009000000,0.000000000,0.026000000,0.000000000,0.000000000,0.000000000,,,,,,,,
1696595427.370504,1241788.000000000,1696595427.368323326,-0.008000000,0.000000000,0.025000000,0.000000000,0.000000000,0.000000000,,,,,,,,
1696595427.372470,1241789.000000000,1696595427.370308876,-0.007000000,0.000000000,0.024000000,0.000000000,0.000000000,0.000000000,,,,,,,,
1696595427.374615,1241790.000000000,1696595427.372364283,-0.006000000,0.000000000,0.023000000,0.000000000,0.000000000,0.000000000,,,,,,,,
1696595427.375098,,,,,,,,,342143.000000000,1696595427.372457504,34.967357851,1.662941108,-0.684888838,0.627522608,-8.006344514,1.321266442
1696595427.376735,1241791.000000000,1696595427.374558210,-0.006000000,0.000000000,0.021000000,0.000000000,0.000000000,0.000000000,,,,,,,,
1696595427.378456,1241792.000000000,1696595427.376293659,-0.005000000,0.000000000,0.019000000,0.000000000,0.000000000,0.000000000,,,,,,,,
1696595427.380452,1241793.000000000,1696595427.378312588,-0.005000000,0.000000000,0.016000000,0.000000000,0.000000000,0.000000000,,,,,,,,
1696595427.382457,1241794.000000000,1696595427.380334616,-0.006000000,0.000000000,0.014000000,0.000000000,0.000000000,0.000000000,,,,,,,,
1696595427.382987,,,,,,,,,342144.000000000,1696595427.380355835,34.576057057,0.794076542,-0.608035242,0.243644187,-7.859090985,1.368221001
1696595427.384494,1241795.000000000,1696595427.382340193,-0.006000000,0.000000000,0.012000000,0.000000000,0.000000000,0.000000000,,,,,,,,
1696595427.386461,1241796.000000000,1696595427.384331465,-0.006000000,0.000000000,0.010000000,0.000000000,0.000000000,0.000000000,,,,,,,,
1696595427.388452,1241797.000000000,1696595427.386326551,-0.006000000,0.000000000,0.009000000,0.000000000,0.000000000,0.000000000,,,,,,,,
1696595427.390438,1241798.000000000,1696595427.388300180,-0.006000000,0.000000000,0.007000000,0.000000000,0.000000000,0.000000000,,,,,,,,
1696595427.391045,,,,,,,,,342145.000000000,1696595427.388424873,34.276570140,1.295409569,-0.920205797,0.442601659,-7.571193077,1.279720196
1696595427.392455,1241799.000000000,1696595427.390315294,-0.005000000,0.000000000,0.005000000,0.000000000,0.000000000,0.000000000,,,,,,,,
1696595427.394489,1241800.000000000,1696595427.392350435,-0.004000000,0.000000000,0.003000000,0.000000000,0.000000000,0.000000000,,,,,,,,
1696595427.396415,1241801.000000000,1696595427.394312620,-0.003000000,0.001000000,0.002000000,0.000000000,0.000000000,0.000000000,,,,,,,,
1696595427.398617,1241802.000000000,1696595427.396451473,-0.002000000,0.001000000,0.001000000,0.000000000,0.000000000,0.000000000,,,,,,,,
1696595427.399006,,,,,,,,,342146.000000000,1696595427.396373272,34.038772987,1.327339187,-0.713453194,0.452571038,-7.513462237,1.209470219
1696595427.400506,1241803.000000000,1696595427.398334742,-0.002000000,0.000000000,0.000000000,0.000000000,0.000000000,0.000000000,,,,,,,,
1696595427.402505,1241804.000000000,1696595427.400337219,-0.002000000,0.001000000,-0.002000000,0.000000000,0.000000000,0.000000000,,,,,,,,
1696595427.404506,1241805.000000000,1696595427.402295113,-0.003000000,0.001000000,-0.003000000,0.000000000,0.000000000,0.000000000,,,,,,,,
1696595427.406521,1241806.000000000,1696595427.404330969,-0.003000000,0.000000000,-0.004000000,0.000000000,0.000000000,0.000000000,,,,,,,,
1696595427.406936,,,,,,,,,342147.000000000,1696595427.404398680,34.439065060,1.325133745,-0.582672801,0.450013313,-7.753950930,1.417761589
1696595427.408526,1241807.000000000,1696595427.406314850,-0.004000000,0.000000000,-0.006000000,0.000000000,0.000000000,0.000000000,,,,,,,,
1696595427.410508,1241808.000000000,1696595427.408280611,-0.004000000,0.000000000,-0.006000000,0.000000000,0.000000000,0.000000000,,,,,,,,
1696595427.413473,1241809.000000000,1696595427.410314560,-0.004000000,0.000000000,-0.008000000,0.000000000,0.000000000,0.000000000,,,,,,,,
1696595427.414903,1241810.000000000,1696595427.412514925,-0.004000000,0.000000000,-0.008000000,0.000000000,0.000000000,0.000000000,,,,,,,,
1696595427.415237,,,,,,,,,342148.000000000,1696595427.412477255,34.343897707,1.354912401,-0.773200016,0.490418060,-7.636202023,1.389509820
1696595427.416532,1241811.000000000,1696595427.414330482,-0.003000000,0.000000000,-0.008000000,0.000000000,0.000000000,0.000000000,,,,,,,,
1696595427.418493,1241812.000000000,1696595427.416349173,-0.002000000,0.000000000,-0.009000000,0.000000000,0.000000000,0.000000000,,,,,,,,
1696595427.420690,1241813.000000000,1696595427.418355465,-0.002000000,0.000000000,-0.010000000,0.000000000,0.000000000,0.000000000,,,,,,,,
1696595427.422736,1241814.000000000,1696595427.420426130,-0.001000000,0.000000000,-0.010000000,0.000000000,0.000000000,0.000000000,,,,,,,,
1696595427.422814,,,,,,,,,342149.000000000,1696595427.420412064,34.968981774,1.326848369,-1.507485641,0.426963414,-8.051076748,1.338017205
1696595427.424554,1241815.000000000,1696595427.422320127,-0.002000000,0.000000000,-0.012000000,0.000000000,0.000000000,0.000000000,,,,,,,,
1696595427.426741,1241816.000000000,1696595427.424514771,-0.002000000,0.000000000,-0.013000000,0.000000000,0.000000000,0.000000000,,,,,,,,
1696595427.428463,1241817.000000000,1696595427.426308155,-0.003000000,0.001000000,-0.015000000,0.000000000,0.000000000,0.000000000,,,,,,,,
1696595427.430756,1241818.000000000,1696595427.428342104,-0.004000000,0.001000000,-0.016000000,0.000000000,0.000000000,0.000000000,,,,,,,,
1696595427.431498,,,,,,,,,342150.000000000,1696595427.428623676,34.594145969,0.900351165,-0.803982072,0.311152710,-7.816682979,1.422352816
1696595427.432481,1241819.000000000,1696595427.430303574,-0.004000000,0.000000000,-0.018000000,0.000000000,0.000000000,0.000000000,,,,,,,,
1696595427.434418,1241820.000000000,1696595427.432288170,-0.005000000,0.001000000,-0.018000000,0.000000000,0.000000000,0.000000000,,,,,,,,
1696595427.436510,1241821.000000000,1696595427.434308767,-0.005000000,0.001000000,-0.020000000,0.000000000,0.000000000,0.000000000,,,,,,,,
1696595427.438478,1241822.000000000,1696595427.436295748,-0.005000000,0.002000000,-0.022000000,0.000000000,0.000000000,0.000000000,,,,,,,,
1696595427.438929,,,,,,,,,342151.000000000,1696595427.436412096,34.730913534,1.476943326,-1.122022315,0.507904854,-7.857982780,1.266712504
1696595427.440449,1241823.000000000,1696595427.438341379,-0.004000000,0.002000000,-0.023000000,0.000000000,0.000000000,0.000000000,,,,,,,,
1696595427.442581,1241824.000000000,1696595427.440392971,-0.003000000,0.003000000,-0.025000000,0.000000000,0.000000000,0.000000000,,,,,,,,
1696595427.444501,1241825.000000000,1696595427.442322731,-0.003000000,0.004000000,-0.028000000,0.000000000,0.000000000,0.000000000,,,,,,,,
1696595427.446640,1241826.000000000,1696595427.444507837,-0.003000000,0.005000000,-0.031000000,0.000000000,0.000000000,0.000000000,,,,,,,,
1696595427.447948,,,,,,,,,342152.000000000,1696595427.444432497,34.410553626,1.295242843,-1.242195936,0.429980229,-7.624641211,1.459119133
1696595427.448517,1241827.000000000,1696595427.446341038,-0.004000000,0.006000000,-0.035000000,0.000000000,0.000000000,0.000000000,,,,,,,,
1696595427.451543,1241828.000000000,1696595427.449432850,-0.005000000,0.006000000,-0.039000000,0.000000000,0.000000000,0.000000000,,,,,,,,
1696595427.452917,1241829.000000000,1696595427.450810194,-0.005000000,0.007000000,-0.043000000,0.000000000,0.000000000,0.001000000,,,,,,,,
1696595427.454481,1241830.000000000,1696595427.452299595,-0.006000000,0.008000000,-0.046000000,0.000000000,0.000000000,0.001000000,,,,,,,,
1696595427.455162,,,,,,,,,342153.000000000,1696595427.452411413,34.495025094,0.991329621,-0.903641019,0.359823703,-7.670570049,1.324803236
1696595427.456641,1241831.000000000,1696595427.454463005,-0.007000000,0.009000000,-0.049000000,0.000000000,0.000000000,0.001000000,,,,,,,,
1696595427.458510,1241832.000000000,1696595427.456285238,-0.007000000,0.010000000,-0.054000000,0.000000000,0.000000000,0.001000000,,,,,,,,
1696595427.460395,1241833.000000000,1696595427.458268642,-0.007000000,0.012000000,-0.057000000,0.000000000,0.000000000,0.001000000,,,,,,,,
1696595427.462589,1241834.000000000,1696595427.460357428,-0.006000000,0.013000000,-0.061000000,0.000000000,0.000000000,0.001000000,,,,,,,,
1696595427.462806,,,,,,,,,342154.000000000,1696595427.460414410,34.647522672,1.552148464,-1.522658347,0.564980640,-7.791654001,1.320594916
1696595427.464780,1241835.000000000,1696595427.462350368,-0.005000000,0.015000000,-0.064000000,0.000000000,0.000000000,0.001000000,,,,,,,,
1696595427.466558,1241836.000000000,1696595427.464385748,-0.005000000,0.016000000,-0.068000000,0.000000000,0.000000000,0.001000000,,,,,,,,
1696595427.468468,1241837.000000000,1696595427.466292620,-0.005000000,0.018000000,-0.073000000,0.000000000,0.000000000,0.001000000,,,,,,,,
1696595427.470506,1241838.000000000,1696595427.468334913,-0.006000000,0.019000000,-0.076000000,0.000000000,0.000000000,0.001000000,,,,,,,,
1696595427.471379,,,,,,,,,342155.000000000,1696595427.468478918,34.571479246,1.266503960,-0.995916636,0.403213888,-7.808493884,1.350239424
1696595427.472777,1241839.000000000,1696595427.470355272,-0.006000000,0.020000000,-0.081000000,0.000000000,0.000000000,0.001000000,,,,,,,,
1696595427.474521,1241840.000000000,1696595427.472391129,-0.007000000,0.022000000,-0.085000000,0.000000000,0.000000000,0.002000000,,,,,,,,
1696595427.476510,1241841.000000000,1696595427.474378347,-0.008000000,0.023000000,-0.089000000,0.000000000,0.000000000,0.002000000,,,,,,,,
1696595427.478548,1241842.000000000,1696595427.476433754,-0.008000000,0.025000000,-0.092000000,0.000000000,0.000000000,0.002000000,,,,,,,,
1696595427.479084,,,,,,,,,342156.000000000,1696595427.476431847,34.293178196,0.711720630,-0.710636722,0.215947165,-7.587533505,1.312502329
1696595427.480450,1241843.000000000,1696595427.478345156,-0.009000000,0.026000000,-0.096000000,0.000000000,0.000000000,0.002000000,,,,,,,,
1696595427.482426,1241844.000000000,1696595427.480337143,-0.009000000,0.027000000,-0.097000000,0.000000000,0.000000000,0.002000000,,,,,,,,
1696595427.484510,1241845.000000000,1696595427.482361794,-0.008000000,0.029000000,-0.099000000,0.000000000,0.000000000,0.002000000,,,,,,,,
1696595427.486596,1241846.000000000,1696595427.484472275,-0.008000000,0.030000000,-0.101000000,0.000000000,0.000000000,0.002000000,,,,,,,,
1696595427.487186,,,,,,,,,342157.000000000,1696595427.484442234,34.522653559,0.558468989,-0.953229648,0.106503427,-7.697541097,1.260073495
1696595427.488501,1241847.000000000,1696595427.486337185,-0.008000000,0.031000000,-0.103000000,0.000000000,0.000000000,0.002000000,,,,,,,,
1696595427.490448,1241848.000000000,1696595427.488350153,-0.008000000,0.032000000,-0.103000000,0.000000000,0.000000000,0.002000000,,,,,,,,
1696595427.492444,1241849.000000000,1696595427.490353823,-0.008000000,0.033000000,-0.104000000,0.000000000,0.000000000,0.002000000,,,,,,,,
1696595427.494534,1241850.000000000,1696595427.492422581,-0.009000000,0.034000000,-0.105000000,0.000000000,0.000000000,0.002000000,,,,,,,,
1696595427.495560,,,,,,,,,342158.000000000,1696595427.492385149,34.216573867,1.369557786,-1.259064376,0.483418146,-7.673713158,1.361226006
1696595427.496471,1241851.000000000,1696595427.494341850,-0.010000000,0.034000000,-0.105000000,0.000000000,0.000000000,0.002000000,,,,,,,,
1696595427.498479,1241852.000000000,1696595427.496336937,-0.011000000,0.035000000,-0.105000000,0.000000000,0.000000000,0.002000000,,,,,,,,
1696595427.500410,1241853.000000000,1696595427.498292208,-0.012000000,0.035000000,-0.105000000,0.000000000,0.000000000,0.002000000,,,,,,,,
1696595427.502473,1241854.000000000,1696595427.500344515,-0.013000000,0.035000000,-0.103000000,0.000000000,0.000000000,0.002000000,,,,,,,,
1696595427.503447,,,,,,,,,342159.000000000,1696595427.500392199,33.977074039,0.290779703,0.489560298,0.096078121,-7.734900362,1.369600339
1696595427.504479,1241855.000000000,1696595427.502345324,-0.013000000,0.035000000,-0.102000000,0.000000000,0.000000000,0.002000000,,,,,,,,
1696595427.506466,1241856.000000000,1696595427.504338980,-0.013000000,0.036000000,-0.098000000,0.000000000,0.000000000,0.002000000,,,,,,,,
1696595427.508445,1241857.000000000,1696595427.506338596,-0.013000000,0.036000000,-0.095000000,0.000000000,0.000000000,0.002000000,,,,,,,,
1696595427.510669,1241858.000000000,1696595427.508336782,-0.012000000,0.035000000,-0.091000000,0.000000000,0.000000000,0.002000000,,,,,,,,
1696595427.511792,,,,,,,,,342160.000000000,1696595427.508655787,35.064383988,0.474500552,-0.875518370,0.086980433,-8.113244564,1.277378703
1696595427.512921,1241859.000000000,1696595427.510342836,-0.012000000,0.035000000,-0.089000000,0.000000000,0.000000000,0.002000000,,,,,,,,
1696595427.514491,1241860.000000000,1696595427.512356758,-0.013000000,0.035000000,-0.085000000,0.000000000,0.000000000,0.002000000,,,,,,,,
1696595427.516424,1241861.000000000,1696595427.514303684,-0.013000000,0.034000000,-0.082000000,0.000000000,0.000000000,0.002000000,,,,,,,,
1696595427.518458,1241862.000000000,1696595427.516301870,-0.014000000,0.033000000,-0.078000000,0.000000000,0.000000000,0.001000000,,,,,,,,
1696595427.519626,,,,,,,,,342161.000000000,1696595427.516484737,33.658520630,0.743664711,-2.470539928,0.210273825,-7.249473455,1.473881282
1696595427.520450,1241863.000000000,1696595427.518318653,-0.015000000,0.032000000,-0.074000000,0.000000000,0.000000000,0.001000000,,,,,,,,
1696595427.522625,1241864.000000000,1696595427.520405054,-0.017000000,0.031000000,-0.069000000,0.000000000,0.000000000,0.001000000,,,,,,,,
1696595427.524517,1241865.000000000,1696595427.522305965,-0.017000000,0.030000000,-0.066000000,0.000000000,0.000000000,0.001000000,,,,,,,,
1696595427.526423,1241866.000000000,1696595427.524298429,-0.017000000,0.029000000,-0.061000000,0.000000000,0.000000000,0.001000000,,,,,,,,
1696595427.527045,,,,,,,,,342162.000000000,1696595427.524425745,34.607743843,0.753543858,-0.404493766,0.256762632,-7.756422822,1.313761346
1696595427.528460,1241867.000000000,1696595427.526324749,-0.017000000,0.028000000,-0.056000000,0.000000000,0.000000000,0.001000000,,,,,,,,
1696595427.530577,1241868.000000000,1696595427.528385162,-0.017000000,0.027000000,-0.052000000,0.000000000,0.000000000,0.001000000,,,,,,,,
1696595427.532521,1241869.000000000,1696595427.530327559,-0.016000000,0.025000000,-0.047000000,0.000000000,0.000000000,0.001000000,,,,,,,,
1696595427.534523,1241870.000000000,1696595427.532336950,-0.016000000,0.024000000,-0.043000000,0.000000000,0.000000000,0.001000000,,,,,,,,
1696595427.534870,,,,,,,,,342163.000000000,1696595427.532469749,33.650373250,0.859774844,-0.380201367,0.255134190,-7.253254210,1.445311339
1696595427.536860,1241871.000000000,1696595427.534336567,-0.016000000,0.023000000,-0.038000000,0.000000000,0.000000000,0.001000000,,,,,,,,
1696595427.538469,1241872.000000000,1696595427.536347389,-0.016000000,0.022000000,-0.034000000,0.000000000,0.000000000,0.000000000,,,,,,,,
1696595427.540671,1241873.000000000,1696595427.538301945,-0.016000000,0.021000000,-0.031000000,0.000000000,0.000000000,0.000000000,,,,,,,,
1696595427.542608,,,,,,,,,342164.000000000,1696595427.540372372,34.578277681,1.242941776,-1.150145892,0.381653625,-7.831346636,1.364231111
