__time,/hsrb/joint_states/arm_flex_joint/effort,/hsrb/joint_states/arm_flex_joint/position,/hsrb/joint_states/arm_flex_joint/velocity,/hsrb/joint_states/arm_lift_joint/effort,/hsrb/joint_states/arm_lift_joint/position,/hsrb/joint_states/arm_lift_joint/velocity,/hsrb/joint_states/arm_roll_joint/effort,/hsrb/joint_states/arm_roll_joint/position,/hsrb/joint_states/arm_roll_joint/velocity,/hsrb/joint_states/base_l_drive_wheel_joint/effort,/hsrb/joint_states/base_l_drive_wheel_joint/position,/hsrb/joint_states/base_l_drive_wheel_joint/velocity,/hsrb/joint_states/base_r_drive_wheel_joint/effort,/hsrb/joint_states/base_r_drive_wheel_joint/position,/hsrb/joint_states/base_r_drive_wheel_joint/velocity,/hsrb/joint_states/base_roll_joint/effort,/hsrb/joint_states/base_roll_joint/position,/hsrb/joint_states/base_roll_joint/velocity,/hsrb/joint_states/hand_l_spring_proximal_joint/effort,/hsrb/joint_states/hand_l_spring_proximal_joint/position,/hsrb/joint_states/hand_l_spring_proximal_joint/velocity,/hsrb/joint_states/hand_motor_joint/effort,/hsrb/joint_states/hand_motor_joint/position,/hsrb/joint_states/hand_motor_joint/velocity,/hsrb/joint_states/hand_r_spring_proximal_joint/effort,/hsrb/joint_states/hand_r_spring_proximal_joint/position,/hsrb/joint_states/hand_r_spring_proximal_joint/velocity,/hsrb/joint_states/head_pan_joint/effort,/hsrb/joint_states/head_pan_joint/position,/hsrb/joint_states/head_pan_joint/velocity,/hsrb/joint_states/head_tilt_joint/effort,/hsrb/joint_states/head_tilt_joint/position,/hsrb/joint_states/head_tilt_joint/velocity,/hsrb/joint_states/header/seq,/hsrb/joint_states/header/stamp,/hsrb/joint_states/wrist_flex_joint/effort,/hsrb/joint_states/wrist_flex_joint/position,/hsrb/joint_states/wrist_flex_joint/velocity,/hsrb/joint_states/wrist_roll_joint/effort,/hsrb/joint_states/wrist_roll_joint/position,/hsrb/joint_states/wrist_roll_joint/velocity,/hsrb/pressure_sensor/data,/hsrb/wrist_wrench/compensated/header/seq,/hsrb/wrist_wrench/compensated/header/stamp,/hsrb/wrist_wrench/compensated/wrench/force/x,/hsrb/wrist_wrench/compensated/wrench/force/y,/hsrb/wrist_wrench/compensated/wrench/force/z,/hsrb/wrist_wrench/compensated/wrench/torque/x,/hsrb/wrist_wrench/compensated/wrench/torque/y,/hsrb/wrist_wrench/compensated/wrench/torque/z
1692619638.809462,,,,,,,,,,,,,,,,,,,,,,,,,,,,,,,,,,,,,,,,,,,26072.000000,1692619638.788565,-1.742909,3.658596,13.251846,0.471894,0.092156,0.055395
1692619638.824270,-3.106023,-0.202825,0.000060,67.232806,0.162195,0.000008,0.850080,-0.049107,0.000046,-0.002697,1.533446,-0.000653,-0.002697,-4.117561,-0.000653,0.618240,0.155299,-0.000293,2.463000,0.751045,0.013000,0.001637,-0.777045,0.009454,2.786000,0.811045,0.027000,0.020240,-0.000015,-0.000138,-1.366857,0.000002,0.000038,13455.000000,1692619638.802820,0.546743,-1.368088,0.000048,0.315429,0.010129,-0.000048,,,,,,,,,
1692619638.827608,,,,,,,,,,,,,,,,,,,,,,,,,,,,,,,,,,,,,,,,,,,26073.000000,1692619638.798650,-1.761795,3.662437,13.246483,0.471882,0.091916,0.055436
1692619638.834141,,,,,,,,,,,,,,,,,,,,,,,,,,,,,,,,,,,,,,,,,,,26074.000000,1692619638.810726,-1.779398,3.667345,13.240884,0.471865,0.091668,0.055471
1692619638.834982,,,,,,,,,,,,,,,,,,,,,,,,,,,,,,,,,,,,,,,,,,,26075.000000,1692619638.818520,-1.795372,3.673377,13.237274,0.471841,0.091435,0.055497
1692619638.841120,-3.122200,-0.202825,0.000030,67.232806,0.162195,0.000008,1.032240,-0.049107,0.000046,-0.002697,1.533446,-0.000653,-0.005394,-4.117561,-0.000653,0.540960,0.155299,-0.000513,2.464000,0.752818,0.008000,0.001225,-0.778818,0.003545,2.789000,0.813818,0.016000,0.012880,-0.000015,-0.000138,-1.439143,0.000002,0.000038,13456.000000,1692619638.822817,0.630857,-1.368088,0.000048,0.089371,0.010129,-0.000048,,,,,,,,,
1692619638.841172,,,,,,,,,,,,,,,,,,,,,,,,,,,,,,,,,,,,,,,,,,,26076.000000,1692619638.828798,-1.808844,3.678450,13.235666,0.471824,0.091219,0.055530
1692619638.863544,,,,,,,,,,,,,,,,,,,,,,,,,,,,,,,,,,,,,,,,,,,26077.000000,1692619638.845423,-1.819272,3.681591,13.235147,0.471825,0.091018,0.055580
1692619638.863577,-2.879542,-0.202825,0.000018,66.359652,0.162195,0.000008,1.087440,-0.049107,0.000046,-0.005394,1.533446,-0.000653,-0.002697,-4.117561,-0.000653,0.662400,0.155309,0.001790,2.467000,0.753409,0.012000,0.000817,-0.779409,-0.002363,2.789000,0.812408,0.008999,0.012880,-0.000015,-0.000138,-1.274857,0.000002,0.000038,13457.000000,1692619638.842821,0.683429,-1.368088,0.000048,0.247086,0.010129,-0.000048,,,,,,,,,
1692619638.869232,,,,,,,,,,,,,,,,,,,,,,,,,,,,,,,,,,,,,,,,,,0.000000,,,,,,,,
1692619638.871901,,,,,,,,,,,,,,,,,,,,,,,,,,,,,,,,,,,,,,,,,,,26079.000000,1692619638.858494,-1.831258,3.681375,13.236559,0.471872,0.090679,0.055710
1692619638.879550,-3.235441,-0.202825,0.001306,66.359652,0.162195,0.000008,0.938400,-0.049107,0.000046,0.000000,1.533446,-0.000653,-0.005394,-4.117561,-0.000653,0.485760,0.155299,-0.001916,2.470000,0.754590,0.007000,0.000000,-0.780590,-0.007681,2.790000,0.812590,0.004000,0.014720,-0.000015,-0.000138,-1.419429,0.000002,0.000038,13458.000000,1692619638.862822,0.767543,-1.368088,0.000048,0.173486,0.010129,-0.000048,,,,,,,,,
1692619638.881215,,,,,,,,,,,,,,,,,,,,,,,,,,,,,,,,,,,,,,,,,,,26080.000000,1692619638.868754,-1.835359,3.677703,13.238975,0.471911,0.090527,0.055776
1692619638.896255,,,,,,,,,,,,,,,,,,,,,,,,,,,,,,,,,,,,,,,,,,,26081.000000,1692619638.878534,-1.838765,3.672779,13.243889,0.471946,0.090388,0.055837
1692619638.903211,-2.475112,-0.202825,0.000018,65.486499,0.162195,0.000008,1.043280,-0.049107,0.000046,-0.002697,1.533446,-0.000653,-0.005394,-4.117561,-0.000653,0.540960,0.155299,-0.000418,2.467000,0.751999,0.002000,0.000817,-0.779999,-0.007681,2.789000,0.811999,0.004000,0.003680,-0.000015,-0.000138,-1.478571,0.000002,0.000038,13459.000000,1692619638.882821,0.730743,-1.368088,0.000048,0.247086,0.010129,-0.000048,,,,,,,,,
1692619638.911769,,,,,,,,,,,,,,,,,,,,,,,,,,,,,,,,,,,,,,,,,,,26082.000000,1692619638.900584,-1.840937,3.667632,13.249767,0.471966,0.090269,0.055872
1692619638.924493,,,,,,,,,,,,,,,,,,,,,,,,,,,,,,,,,,,,,,,,,,,26084.000000,1692619638.909087,-1.839259,3.660683,13.260040,0.471971,0.090085,0.055835
1692619638.924519,-2.685416,-0.202825,0.000018,65.486499,0.162195,0.000008,1.109520,-0.049107,0.000046,-0.002697,1.533446,-0.000653,-0.005394,-4.117561,-0.000653,0.485760,0.155299,-0.000691,2.469000,0.752409,-0.003000,0.000408,-0.779409,-0.007090,2.789000,0.811409,0.004000,0.014720,-0.000015,-0.000138,-1.452286,0.000002,0.000038,13460.000000,1692619638.902822,0.683429,-1.368088,0.000048,0.231314,0.010129,-0.000048,,,,,,,,,
1692619638.941675,,,,,,,,,,,,,,,,,,,,,,,,,,,,,,,,,,,,,,,,,,,26085.000000,1692619638.918658,-1.838032,3.659195,13.263116,0.471971,0.089997,0.055777
1692619638.943388,-2.879542,-0.202825,-0.000018,64.322294,0.162195,0.000008,0.910800,-0.049107,0.000046,-0.002697,1.533446,-0.000653,-0.002697,-4.117561,-0.000653,0.629280,0.155299,-0.000125,2.463000,0.749410,-0.012000,0.000000,-0.779409,0.001772,2.789000,0.810408,0.008000,0.036800,-0.000015,-0.000138,-1.327429,0.000002,0.000038,13461.000000,1692619638.922820,0.599314,-1.368088,0.000048,0.289143,0.010129,-0.000048,,,,,,,,,
1692619638.947585,,,,,,,,,,,,,,,,,,,,,,,,,,,,,,,,,,,,,,,,,,,26086.000000,1692619638.928554,-1.838749,3.659384,13.264158,0.471972,0.089904,0.055706
1692619638.956340,,,,,,,,,,,,,,,,,,,,,,,,,,,,,,,,,,,,,,,,,,,26087.000000,1692619638.940384,-1.841385,3.661279,13.264539,0.471970,0.089804,0.055636
1692619638.964141,-2.911896,-0.202825,0.000052,64.322294,0.162195,0.000008,0.993600,-0.049107,0.000046,-0.008091,1.533446,-0.000653,-0.002697,-4.117561,-0.000653,0.496800,0.155299,-0.000942,2.463000,0.750000,-0.012000,0.000000,-0.779999,-0.001181,2.792000,0.811999,-0.002000,-0.011040,-0.000015,-0.000138,-1.360286,0.000002,0.000038,13462.000000,1692619638.942822,0.693943,-1.368088,0.000048,0.220800,0.010129,-0.000048,,,,,,,,,
1692619638.964302,,,,,,,,,,,,,,,,,,,,,,,,,,,,,,,,,,,,,,,,,,,26088.000000,1692619638.948763,-1.845289,3.663968,13.267530,0.471966,0.089714,0.055589
1692619638.979683,,,,,,,,,,,,,,,,,,,,,,,,,,,,,,,,,,,,,,,,,,,26089.000000,1692619638.958823,-1.849744,3.667436,13.273266,0.471956,0.089630,0.055575
1692619638.979700,,,,,,,,,,,,,,,,,,,,,,,,,,,,,,,,,,,,,,,,,,0.000000,,,,,,,,
1692619638.979928,-2.183922,-0.203209,0.001882,64.322294,0.162195,0.000008,0.954960,-0.049107,0.000046,-0.005394,1.533446,-0.000653,-0.005394,-4.117561,-0.000653,0.640320,0.155299,-0.001151,2.461000,0.749000,-0.012000,-0.002046,-0.779999,-0.003545,2.788000,0.809998,-0.002000,0.016560,-0.000015,-0.000138,-1.386571,0.000002,0.000038,13463.000000,1692619638.962820,0.646629,-1.368088,0.000048,0.136686,0.010129,-0.000048,,,,,,,,,
1692619638.991599,,,,,,,,,,,,,,,,,,,,,,,,,,,,,,,,,,,,,,,,,,,26091.000000,1692619638.978511,-1.858281,3.676720,13.279824,0.471888,0.089458,0.055574
1692619639.001297,-2.863365,-0.202825,0.000018,63.740192,0.162194,-0.000012,0.960480,-0.049107,0.000046,-0.005394,1.533446,-0.000653,-0.005394,-4.117561,-0.000653,0.607200,0.155299,-0.002136,2.461000,0.750410,-0.006000,-0.001225,-0.779409,-0.003545,2.786000,0.808408,-0.006000,0.003680,-0.000015,-0.000138,-1.406286,0.000002,0.000038,13464.000000,1692619638.982824,0.704457,-1.368088,0.000048,0.210286,0.010129,0.007682,,,,,,,,,
1692619639.003249,,,,,,,,,,,,,,,,,,,,,,,,,,,,,,,,,,,,,,,,,,,26092.000000,1692619638.988539,-1.862593,3.681713,13.278353,0.471847,0.089382,0.055554
1692619639.017579,,,,,,,,,,,,,,,,,,,,,,,,,,,,,,,,,,,,,,,,,,,26093.000000,1692619638.998662,-1.866536,3.686098,13.274169,0.471802,0.089305,0.055499
1692619639.020262,-0.970632,-0.203209,0.000216,64.322294,0.162194,-0.000008,0.872160,-0.049107,0.000046,-0.002697,1.533446,-0.000653,-0.002697,-4.117561,-0.000653,0.397440,0.155299,-0.002136,2.463000,0.750410,0.004000,-0.000817,-0.779409,-0.000590,2.786000,0.808408,-0.014000,0.051520,-0.000015,-0.000138,-1.406286,0.000002,0.000038,13465.000000,1692619639.002817,0.725486,-1.368088,0.000048,0.226057,0.010129,-0.001299,,,,,,,,,
1692619639.039074,,,,,,,,,,,,,,,,,,,,,,,,,,,,,,,,,,,,,,,,,,,26094.000000,1692619639.011897,-1.869057,3.689760,13.267036,0.471737,0.089225,0.055414
1692619639.043140,,,,,,,,,,,,,,,,,,,,,,,,,,,,,,,,,,,,,,,,,,,26095.000000,1692619639.018508,-1.869746,3.693519,13.257997,0.471647,0.089154,0.055320
1692619639.047260,-3.106023,-0.202825,-0.000018,64.031243,0.162194,-0.000008,0.966000,-0.049107,0.000046,-0.005394,1.533446,-0.000653,-0.008091,-4.117561,-0.000653,0.673440,0.155309,0.000094,2.466000,0.752590,-0.001000,0.000817,-0.780590,-0.000590,2.783000,0.806590,-0.013000,0.042320,-0.000015,-0.000138,-1.353714,0.000002,0.000038,13466.000000,1692619639.022819,0.509943,-1.368088,0.000048,0.268114,0.010129,-0.000048,,,,,,,,,
1692619639.052810,,,,,,,,,,,,,,,,,,,,,,,,,,,,,,,,,,,,,,,,,,,26097.000000,1692619639.038769,-1.868693,3.704013,13.235768,0.471453,0.089053,0.055155
1692619639.058332,-2.911896,-0.202825,0.002124,64.613346,0.162194,-0.000008,0.960480,-0.049107,0.000046,-0.005394,1.533446,-0.000653,0.000000,-4.117561,-0.000653,0.618240,0.155309,0.000094,2.463000,0.751409,-0.001000,0.000408,-0.779409,-0.005909,2.780000,0.805409,-0.020999,0.038640,-0.000015,-0.000138,-1.320857,0.000002,0.000038,13467.000000,1692619639.042822,0.636114,-1.368088,0.000048,0.346971,0.010129,-0.000048,,,,,,,,,
1692619639.060912,,,,,,,,,,,,,,,,,,,,,,,,,,,,,,,,,,,,,,,,,,,26098.000000,1692619639.048654,-1.868796,3.708048,13.224242,0.471361,0.089010,0.055074
1692619639.077447,,,,,,,,,,,,,,,,,,,,,,,,,,,,,,,,,,,,,,,,,,,26099.000000,1692619639.058433,-1.867616,3.710496,13.213353,0.471280,0.088982,0.054983
1692619639.080909,-2.685416,-0.202825,-0.000927,64.322294,0.162194,-0.000008,0.949440,-0.049107,0.000046,0.002697,1.533446,-0.000653,-0.008091,-4.117561,-0.000653,0.684480,0.155309,0.000094,2.460000,0.750000,-0.009999,-0.000817,-0.779999,0.002954,2.776000,0.802999,-0.014000,0.011040,-0.000015,-0.000138,-1.583714,0.000002,0.000038,13468.000000,1692619639.062821,0.657143,-1.368088,0.000048,0.152457,0.010129,0.000048,,,,,,,,,
1692619639.081492,,,,,,,,,,,,,,,,,,,,,,,,,,,,,,,,,,,,,,,,,,0.000000,,,,,,,,
1692619639.089938,,,,,,,,,,,,,,,,,,,,,,,,,,,,,,,,,,,,,,,,,,,26100.000000,1692619639.069160,-1.864171,3.713089,13.202402,0.471211,0.088956,0.054900
1692619639.097606,-2.717770,-0.202825,0.000018,64.613346,0.162194,-0.000008,0.905280,-0.049107,0.000046,-0.002697,1.533446,-0.000653,-0.008091,-4.117561,-0.000653,0.651360,0.155299,-0.000104,2.460000,0.750000,-0.004999,0.000000,-0.779999,-0.002954,2.776000,0.804999,-0.027000,0.038640,-0.000015,-0.000138,-1.439143,0.000002,0.000038,13469.000000,1692619639.082829,0.662400,-1.368088,0.000048,0.220800,0.010129,-0.000048,,,,,,,,,
1692619639.100064,,,,,,,,,,,,,,,,,,,,,,,,,,,,,,,,,,,,,,,,,,,26101.000000,1692619639.078825,-1.858882,3.716521,13.190650,0.471145,0.088925,0.054833
1692619639.111709,,,,,,,,,,,,,,,,,,,,,,,,,,,,,,,,,,,,,,,,,,,26103.000000,1692619639.098550,-1.849878,3.720284,13.169441,0.471045,0.088853,0.054746
1692619639.123678,-2.766302,-0.202825,0.000018,64.904397,0.162194,-0.000008,0.999120,-0.049107,0.000046,-0.005394,1.533446,-0.000653,-0.002697,-4.117561,-0.000653,0.684480,0.155299,-0.000272,2.460000,0.749228,-0.004000,0.000817,-0.778227,0.005909,2.773000,0.804227,-0.009999,0.011040,-0.000015,-0.000138,-1.301143,0.000002,0.000038,13470.000000,1692619639.102824,0.678171,-1.368088,0.000048,0.241829,0.010129,-0.000048,,,,,,,,,
1692619639.125452,,,,,,,,,,,,,,,,,,,,,,,,,,,,,,,,,,,,,,,,,,,26104.000000,1692619639.109058,-1.848434,3.720196,13.163206,0.471036,0.088837,0.054741
1692619639.130491,,,,,,,,,,,,,,,,,,,,,,,,,,,,,,,,,,,,,,,,,,,26105.000000,1692619639.118695,-1.847160,3.720070,13.158353,0.471057,0.088839,0.054750
1692619639.139200,-2.944251,-0.202825,0.000163,64.904397,0.162194,-0.000008,0.794880,-0.049107,0.000046,-0.002697,1.533446,-0.000653,0.000000,-4.117561,-0.000653,0.651360,0.155299,-0.001570,2.463000,0.751818,0.006000,0.002866,-0.778818,0.005909,2.775000,0.805818,-0.008999,0.005520,-0.000015,-0.000138,-1.465429,0.000002,0.000038,13471.000000,1692619639.122822,0.625600,-1.368088,0.000048,0.662400,0.009742,-0.000048,,,,,,,,,
1692619639.149991,,,,,,,,,,,,,,,,,,,,,,,,,,,,,,,,,,,,,,,,,,,26106.000000,1692619639.142369,-1.844386,3.719765,13.153068,0.471091,0.088857,0.054757
1692619639.155500,-2.378049,-0.202825,-0.000121,64.613346,0.162194,-0.000008,0.910800,-0.049107,0.000046,-0.008091,1.533446,-0.000653,-0.010788,-4.117561,-0.000653,0.662400,0.155299,-0.000848,2.467000,0.753999,0.006000,-0.000817,-0.779999,0.000000,2.776000,0.806999,-0.008999,0.042320,-0.000015,-0.000138,-1.386571,0.000002,0.000038,13472.000000,1692619639.142819,0.688686,-1.368088,0.000048,0.304914,0.010129,-0.000048,,,,,,,,,
1692619639.157572,,,,,,,,,,,,,,,,,,,,,,,,,,,,,,,,,,,,,,,,,,,26108.000000,1692619639.149010,-1.834595,3.714336,13.138815,0.471179,0.088906,0.054790
1692619639.167125,,,,,,,,,,,,,,,,,,,,,,,,,,,,,,,,,,,,,,,,,,,26109.000000,1692619639.158687,-1.827711,3.711164,13.132976,0.471229,0.088928,0.054817
1692619639.179307,-3.041314,-0.202825,0.001538,65.195448,0.162194,-0.000008,0.872160,-0.049107,0.000046,-0.005394,1.533446,-0.000653,-0.005394,-4.117561,-0.000653,0.651360,0.155299,-0.000513,2.466000,0.753409,0.009999,0.001225,-0.779409,-0.002954,2.780000,0.812408,-0.004000,0.000000,-0.000015,-0.000138,-1.347143,0.000002,0.000038,13473.000000,1692619639.162817,0.609829,-1.368088,0.000048,0.289143,0.010129,-0.000048,,,,,,,,,
1692619639.182288,,,,,,,,,,,,,,,,,,,,,,,,,,,,,,,,,,,,,,,,,,,26110.000000,1692619639.169215,-1.819768,3.709946,13.129194,0.471283,0.088949,0.054857
1692619639.191222,,,,,,,,,,,,,,,,,,,,,,,,,,,,,,,,,,,,,,,,,,0.000000,,,,,,,,
1692619639.191661,,,,,,,,,,,,,,,,,,,,,,,,,,,,,,,,,,,,,,,,,,,26111.000000,1692619639.178670,-1.811205,3.710692,13.125530,0.471333,0.088972,0.054886
1692619639.197884,-2.782479,-0.202825,0.000018,65.195448,0.162194,-0.000008,0.966000,-0.049107,0.000046,-0.005394,1.533446,-0.000653,-0.008091,-4.117561,-0.000653,0.165600,0.155299,-0.003748,2.467000,0.753818,0.018999,0.000000,-0.778818,0.002954,2.776000,0.808817,0.004999,0.018400,-0.000015,-0.000138,-1.281429,0.000002,0.000038,13474.000000,1692619639.182822,0.667657,-1.368088,0.000048,0.247086,0.010129,-0.000048,,,,,,,,,
1692619639.200006,,,,,,,,,,,,,,,,,,,,,,,,,,,,,,,,,,,,,,,,,,,26112.000000,1692619639.188436,-1.801038,3.712031,13.120660,0.471373,0.088996,0.054887
1692619639.209131,,,,,,,,,,,,,,,,,,,,,,,,,,,,,,,,,,,,,,,,,,,26113.000000,1692619639.198642,-1.789677,3.713401,13.115454,0.471400,0.089026,0.054875
1692619639.219846,-2.847188,-0.202825,0.000018,65.195448,0.162194,-0.000008,0.932880,-0.049107,0.000046,-0.005394,1.533446,-0.000653,-0.005394,-4.117561,-0.000653,0.585120,0.155299,0.008178,2.467000,0.752818,0.008999,-0.000408,-0.778818,0.002954,2.779000,0.810818,0.004999,0.034960,-0.000015,-0.000138,-1.412857,0.000002,0.000038,13475.000000,1692619639.202818,0.604571,-1.368088,0.000048,0.157714,0.010129,-0.000048,,,,,,,,,
1692619639.219867,,,,,,,,,,,,,,,,,,,,,,,,,,,,,,,,,,,,,,,,,,,26114.000000,1692619639.208719,-1.779894,3.714477,13.111098,0.471425,0.089065,0.054870
1692619639.230516,,,,,,,,,,,,,,,,,,,,,,,,,,,,,,,,,,,,,,,,,,,26115.000000,1692619639.218790,-1.772481,3.715140,13.108423,0.471474,0.089113,0.054882
1692619639.236896,-2.733947,-0.202825,0.000018,65.486499,0.162194,-0.000008,0.861120,-0.049107,0.000046,-0.002697,1.533446,-0.000653,-0.002697,-4.117561,-0.000653,0.507840,0.155288,-0.003487,2.467000,0.753409,0.013000,0.001637,-0.779409,0.002954,2.776000,0.808408,0.004000,0.011040,-0.000015,-0.000138,-1.465429,0.000002,0.000038,13476.000000,1692619639.222816,0.520457,-1.368088,0.000048,0.226057,0.010129,-0.000048,,,,,,,,,
1692619639.237982,,,,,,,,,,,,,,,,,,,,,,,,,,,,,,,,,,,,,,,,,,,26116.000000,1692619639.228522,-1.766404,3.716798,13.108250,0.471544,0.089168,0.054906
1692619639.253254,,,,,,,,,,,,,,,,,,,,,,,,,,,,,,,,,,,,,,,,,,,26117.000000,1692619639.238832,-1.762288,3.720304,13.109872,0.471607,0.089211,0.054928
1692619639.257242,-2.717770,-0.202825,0.000018,66.068601,0.162194,-0.000008,0.927360,-0.049107,0.000046,-0.002697,1.533446,-0.000653,-0.005394,-4.117561,-0.000653,0.574080,0.155299,0.001979,2.464000,0.751409,0.008000,0.002046,-0.779409,0.000000,2.773000,0.807409,-0.004999,0.022080,-0.000015,-0.000138,-1.255143,0.000002,0.000038,13477.000000,1692619639.242824,0.604571,-1.368088,0.000048,0.178743,0.010129,-0.000048,,,,,,,,,
1692619639.262517,,,,,,,,,,,,,,,,,,,,,,,,,,,,,,,,,,,,,,,,,,,26118.000000,1692619639.248692,-1.760628,3.724847,13.111012,0.471650,0.089227,0.054951
1692619639.272029,,,,,,,,,,,,,,,,,,,,,,,,,,,,,,,,,,,,,,,,,,,26119.000000,1692619639.258427,-1.761048,3.729587,13.110676,0.471681,0.089241,0.054987
1692619639.279950,-2.863365,-0.202825,0.000018,66.359652,0.162194,-0.000008,0.883200,-0.049107,0.000046,0.000000,1.533446,-0.000653,-0.002697,-4.117561,-0.000653,0.651360,0.155288,-0.005958,2.460000,0.748819,-0.010999,-0.000817,-0.778818,0.002954,2.776000,0.808817,0.004999,-0.012880,-0.000015,-0.000138,-1.202571,-0.000003,-0.000038,13478.000000,1692619639.262815,0.630857,-1.368088,0.000048,0.189257,0.010129,-0.000048,,,,,,,,,
1692619639.282649,,,,,,,,,,,,,,,,,,,,,,,,,,,,,,,,,,,,,,,,,,,26120.000000,1692619639.268525,-1.762901,3.733671,13.110315,0.471700,0.089280,0.055036
1692619639.289886,,,,,,,,,,,,,,,,,,,,,,,,,,,,,,,,,,,,,,,,,,,26121.000000,1692619639.278638,-1.764721,3.736692,13.111147,0.471701,0.089340,0.055087
1692619639.301801,,,,,,,,,,,,,,,,,,,,,,,,,,,,,,,,,,,,,,,,,,0.000000,,,,,,,,
1692619639.303618,,,,,,,,,,,,,,,,,,,,,,,,,,,,,,,,,,,,,,,,,,,26122.000000,1692619639.288641,-1.765732,3.739233,13.113267,0.471697,0.089406,0.055138
1692619639.305282,-2.636884,-0.203209,0.002272,66.359652,0.162194,-0.000008,0.927360,-0.049107,0.000046,-0.002697,1.533446,-0.000653,-0.008091,-4.117561,-0.000653,0.993600,0.155299,0.000523,2.457000,0.748046,0.004000,-0.001225,-0.777045,0.017136,2.770000,0.805045,-0.009999,0.016560,-0.000015,-0.000138,-1.399714,-0.000003,-0.000038,13479.000000,1692619639.282821,0.725486,-1.368088,0.000048,0.184000,0.010129,-0.000048,,,,,,,,,
1692619639.316257,,,,,,,,,,,,,,,,,,,,,,,,,,,,,,,,,,,,,,,,,,,26123.000000,1692619639.301205,-1.765748,3.740127,13.116434,0.471698,0.089470,0.055195
1692619639.320113,-2.847188,-0.202825,0.000262,66.359652,0.162194,-0.000008,0.888720,-0.049107,0.000046,-0.002697,1.533446,-0.000653,-0.002697,-4.117561,-0.000653,0.717600,0.155309,0.000167,2.459000,0.748863,-0.006000,-0.000408,-0.775863,0.010636,2.766000,0.802863,-0.004999,0.018400,-0.000015,-0.000138,-1.268286,-0.000003,-0.000038,13480.000000,1692619639.302823,0.646629,-1.368088,0.000048,0.231314,0.010129,-0.000048,,,,,,,,,
1692619639.322961,,,,,,,,,,,,,,,,,,,,,,,,,,,,,,,,,,,,,,,,,,,26124.000000,1692619639.313225,-1.763876,3.737367,13.119829,0.471688,0.089531,0.055252
1692619639.333560,,,,,,,,,,,,,,,,,,,,,,,,,,,,,,,,,,,,,,,,,,,26125.000000,1692619639.318683,-1.759695,3.730381,13.122762,0.471660,0.089581,0.055303
1692619639.337090,-2.766302,-0.202825,0.000018,66.650703,0.162194,-0.000008,0.927360,-0.049107,0.000046,0.000000,1.533446,-0.000653,-0.002697,-4.117561,-0.000653,0.761760,0.155309,0.000094,2.459000,0.749045,0.008000,0.000408,-0.777045,0.012409,2.766000,0.804045,-0.008999,0.036800,-0.000015,-0.000138,-1.307714,-0.000003,-0.000038,13481.000000,1692619639.322823,0.688686,-1.368088,0.000048,0.199771,0.010129,-0.000048,,,,,,,,,
1692619639.348319,,,,,,,,,,,,,,,,,,,,,,,,,,,,,,,,,,,,,,,,,,,26126.000000,1692619639.330880,-1.754397,3.720409,13.125566,0.471631,0.089607,0.055363
1692619639.358701,,,,,,,,,,,,,,,,,,,,,,,,,,,,,,,,,,,,,,,,,,,26127.000000,1692619639.338510,-1.749296,3.710498,13.128827,0.471619,0.089618,0.055442
1692619639.358711,-2.620707,-0.202825,0.000018,66.941754,0.162194,-0.000008,0.916320,-0.049107,0.000046,-0.002697,1.533446,-0.000653,-0.008091,-4.117561,-0.000653,0.607200,0.155299,-0.002911,2.460000,0.749045,-0.002000,-0.003275,-0.777045,0.008863,2.773000,0.807044,0.006000,0.012880,-0.000015,-0.000138,-1.380000,-0.000003,-0.000038,13482.000000,1692619639.342834,0.620343,-1.368088,0.000048,0.226057,0.010129,-0.000048,,,,,,,,,
1692619639.370095,,,,,,,,,,,,,,,,,,,,,,,,,,,,,,,,,,,,,,,,,,,26128.000000,1692619639.352240,-1.743981,3.702592,13.132875,0.471626,0.089630,0.055538
1692619639.373823,,,,,,,,,,,,,,,,,,,,,,,,,,,,,,,,,,,,,,,,,,,26129.000000,1692619639.359402,-1.737962,3.696177,13.138882,0.471637,0.089648,0.055649
1692619639.378667,-2.669238,-0.202825,0.000018,66.941754,0.162194,-0.000008,0.833520,-0.049107,0.000046,-0.002697,1.533446,-0.000653,-0.005394,-4.117561,-0.000653,0.596160,0.155299,-0.001151,2.464000,0.752636,0.013000,-0.000408,-0.777636,0.000000,2.770000,0.806635,0.006000,0.011040,-0.000015,-0.000138,-1.334000,-0.000003,-0.000038,13483.000000,1692619639.362823,0.725486,-1.368088,0.000048,0.199771,0.010129,-0.000048,,,,,,,,,
1692619639.381080,,,,,,,,,,,,,,,,,,,,,,,,,,,,,,,,,,,,,,,,,,,26130.000000,1692619639.368643,-1.731891,3.690046,13.146592,0.471639,0.089668,0.055772
1692619639.391621,,,,,,,,,,,,,,,,,,,,,,,,,,,,,,,,,,,,,,,,,,,26131.000000,1692619639.379586,-1.725715,3.684847,13.153504,0.471621,0.089686,0.055899
1692619639.403464,,,,,,,,,,,,,,,,,,,,,,,,,,,,,,,,,,,,,,,,,,,26132.000000,1692619639.388650,-1.719994,3.681709,13.158742,0.471581,0.089698,0.056027
1692619639.403491,-1.261822,-0.203209,-0.000519,66.359652,0.162194,-0.000008,0.954960,-0.049107,0.000046,0.000000,1.533446,-0.000653,-0.002697,-4.117561,-0.000653,0.331200,0.155299,-0.002963,2.463000,0.752045,0.003000,-0.000408,-0.777045,0.005318,2.769000,0.806044,0.001000,-0.001840,-0.000015,-0.000138,-1.255143,-0.000003,-0.000038,13484.000000,1692619639.382820,0.615086,-1.368088,0.000048,0.325943,0.010129,-0.000048,,,,,,,,,
1692619639.408300,,,,,,,,,,,,,,,,,,,,,,,,,,,,,,,,,,,,,,,,,,0.000000,,,,,,,,
1692619639.426592,,,,,,,,,,,,,,,,,,,,,,,,,,,,,,,,,,,,,,,,,,,26133.000000,1692619639.411964,-1.716696,3.680495,13.162956,0.471526,0.089684,0.056153
1692619639.427125,-2.636884,-0.202825,0.000018,67.232806,0.162194,-0.000008,0.866640,-0.049107,0.000046,-0.002697,1.533446,-0.000653,-0.008091,-4.117561,-0.000653,0.518880,0.155299,-0.005445,2.463000,0.751636,0.007000,-0.002046,-0.777636,0.004727,2.770000,0.806635,0.001000,0.011040,-0.000015,-0.000138,-1.366857,-0.000003,-0.000038,13485.000000,1692619639.402826,0.620343,-1.368088,0.000048,0.231314,0.010129,-0.000048,,,,,,,,,
1692619639.441016,,,,,,,,,,,,,,,,,,,,,,,,,,,,,,,,,,,,,,,,,,,26134.000000,1692619639.413556,-1.716232,3.681661,13.166553,0.471458,0.089642,0.056283
1692619639.441139,,,,,,,,,,,,,,,,,,,,,,,,,,,,,,,,,,,,,,,,,,,26136.000000,1692619639.429898,-1.717885,3.692815,13.176128,0.471270,0.089557,0.056527
1692619639.447092,-3.041314,-0.202825,0.000018,66.941754,0.162194,-0.000008,0.861120,-0.049107,0.000046,-0.002697,1.533446,-0.000653,-0.002697,-4.117561,-0.000653,0.496800,0.155288,-0.002953,2.463000,0.751818,0.007000,0.000000,-0.778818,-0.001181,2.776000,0.810818,0.001000,0.009200,-0.000015,-0.000138,-1.353714,-0.000003,-0.000038,13486.000000,1692619639.422821,0.604571,-1.368088,0.000048,0.157714,0.010129,0.003178,,,,,,,,,
1692619639.453563,,,,,,,,,,,,,,,,,,,,,,,,,,,,,,,,,,,,,,,,,,,26137.000000,1692619639.439001,-1.721385,3.700365,13.181961,0.471165,0.089506,0.056626
1692619639.464409,,,,,,,,,,,,,,,,,,,,,,,,,,,,,,,,,,,,,,,,,,,26138.000000,1692619639.449561,-1.727297,3.707676,13.186940,0.471060,0.089437,0.056715
1692619639.464420,-2.669238,-0.202825,0.000018,67.523857,0.162194,-0.000008,0.816960,-0.049107,0.000046,-0.008091,1.533446,-0.000653,-0.005394,-4.117561,-0.000653,0.331200,0.155309,0.002806,2.457000,0.748819,0.002000,-0.000408,-0.778818,-0.001181,2.779000,0.812818,0.018999,-0.001840,-0.000015,-0.000138,-1.301143,-0.000003,-0.000038,13487.000000,1692619639.442828,0.620343,-1.368088,0.000048,0.241829,0.010129,-0.000048,,,,,,,,,
1692619639.473741,,,,,,,,,,,,,,,,,,,,,,,,,,,,,,,,,,,,,,,,,,,26139.000000,1692619639.459754,-1.733030,3.714229,13.192188,0.470953,0.089361,0.056800
1692619639.477816,-2.620707,-0.202825,0.000018,67.523857,0.162194,-0.000008,0.855600,-0.049107,0.000046,-0.005394,1.533446,-0.000653,-0.002697,-4.117561,-0.000653,0.386400,0.155299,-0.006021,2.457000,0.748454,-0.013000,-0.001637,-0.776454,-0.001181,2.782000,0.813454,0.035999,0.044160,-0.000015,-0.000138,-1.320857,0.000002,0.000038,13488.000000,1692619639.462816,0.662400,-1.368088,0.000048,0.247086,0.010129,-0.000048,,,,,,,,,
1692619639.484826,,,,,,,,,,,,,,,,,,,,,,,,,,,,,,,,,,,,,,,,,,,26140.000000,1692619639.468452,-1.737473,3.719297,13.199246,0.470867,0.089284,0.056880
1692619639.494316,,,,,,,,,,,,,,,,,,,,,,,,,,,,,,,,,,,,,,,,,,,26141.000000,1692619639.479510,-1.742283,3.722596,13.207716,0.470814,0.089198,0.056944
1692619639.500439,-2.976605,-0.203209,0.002591,67.523857,0.162194,-0.000008,0.811440,-0.049107,0.000046,-0.002697,1.533446,-0.000653,-0.008091,-4.117561,-0.000653,0.739680,0.155309,0.000094,2.459000,0.749454,-0.003000,0.001637,-0.776454,0.010636,2.786000,0.813454,0.037999,0.016560,-0.000015,-0.000138,-1.353714,0.000002,0.000038,13489.000000,1692619639.482817,0.520457,-1.368088,0.000048,0.241829,0.010129,-0.000048,,,,,,,,,
1692619639.508082,,,,,,,,,,,,,,,,,,,,,,,,,,,,,,,,,,,,,,,,,,,26142.000000,1692619639.488863,-1.748385,3.724518,13.216340,0.470780,0.089117,0.056970
1692619639.513204,,,,,,,,,,,,,,,,,,,,,,,,,,,,,,,,,,,,,,,,,,,26143.000000,1692619639.499606,-1.755027,3.725108,13.224366,0.470765,0.089058,0.056959
1692619639.515944,,,,,,,,,,,,,,,,,,,,,,,,,,,,,,,,,,,,,,,,,,0.000000,,,,,,,,
1692619639.516635,-3.656048,-0.202443,-0.000147,67.814908,0.162194,-0.000008,0.833520,-0.049107,0.000046,0.000000,1.533446,-0.000653,-0.005394,-4.117561,-0.000653,0.607200,0.155309,0.006042,2.457000,0.748863,0.002000,0.000408,-0.775863,0.007681,2.779000,0.807863,0.010999,0.009200,-0.000015,-0.000138,-1.393143,0.000002,0.000038,13490.000000,1692619639.502831,0.588800,-1.368088,0.000048,0.162971,0.010129,-0.000048,,,,,,,,,
1692619639.521213,,,,,,,,,,,,,,,,,,,,,,,,,,,,,,,,,,,,,,,,,,,26144.000000,1692619639.508644,-1.761272,3.724121,13.231018,0.470770,0.089032,0.056928
1692619639.532634,,,,,,,,,,,,,,,,,,,,,,,,,,,,,,,,,,,,,,,,,,,26145.000000,1692619639.521472,-1.766943,3.722130,13.234162,0.470782,0.089017,0.056877
1692619639.540454,-3.122200,-0.202825,0.000181,68.105959,0.162194,-0.000008,0.883200,-0.049107,0.000046,-0.005394,1.533446,-0.000653,-0.005394,-4.117561,-0.000653,0.596160,0.155309,0.008283,2.459000,0.750045,0.002000,-0.001225,-0.777045,0.009454,2.778000,0.807044,-0.004000,0.025760,-0.000015,-0.000138,-1.314286,0.000002,0.000038,13491.000000,1692619639.522819,0.667657,-1.368088,0.000048,0.220800,0.010129,-0.000048,,,,,,,,,
1692619639.549406,,,,,,,,,,,,,,,,,,,,,,,,,,,,,,,,,,,,,,,,,,,26146.000000,1692619639.528649,-1.772202,3.719328,13.232361,0.470793,0.088985,0.056799
1692619639.555385,-3.429567,-0.202825,0.000234,68.105959,0.162194,-0.000008,0.811440,-0.049107,0.000046,-0.005394,1.533446,-0.000653,-0.005394,-4.117561,-0.000653,0.596160,0.155299,-0.000188,2.460000,0.749636,0.006000,0.000000,-0.777636,0.003545,2.778000,0.807635,-0.004000,0.027600,-0.000015,-0.000138,-1.307714,0.000002,0.000038,13492.000000,1692619639.542832,0.662400,-1.368088,0.000048,0.210286,0.010129,-0.000048,,,,,,,,,
1692619639.555738,,,,,,,,,,,,,,,,,,,,,,,,,,,,,,,,,,,,,,,,,,,26148.000000,1692619639.548777,-1.779599,3.705916,13.220622,0.470843,0.088914,0.056625
1692619639.568723,,,,,,,,,,,,,,,,,,,,,,,,,,,,,,,,,,,,,,,,,,,26149.000000,1692619639.561480,-1.782122,3.696396,13.212664,0.470894,0.088896,0.056563
1692619639.577957,-3.025137,-0.202825,0.000018,68.397010,0.162194,-0.000008,0.828000,-0.049107,0.000046,-0.002697,1.533446,-0.000653,-0.005394,-4.117561,-0.000653,0.596160,0.155299,-0.000701,2.461000,0.751818,-0.004000,0.000408,-0.778818,0.000590,2.776000,0.807817,-0.008000,0.029440,-0.000015,-0.000138,-1.314286,0.000002,0.000038,13493.000000,1692619639.562828,0.625600,-1.368088,0.000048,0.205029,0.010129,-0.000048,,,,,,,,,
1692619639.578171,,,,,,,,,,,,,,,,,,,,,,,,,,,,,,,,,,,,,,,,,,,26150.000000,1692619639.568516,-1.784375,3.688266,13.203659,0.470949,0.088866,0.056510
1692619639.589983,,,,,,,,,,,,,,,,,,,,,,,,,,,,,,,,,,,,,,,,,,,26151.000000,1692619639.580569,-1.787123,3.680813,13.195727,0.471014,0.088805,0.056462
1692619639.598167,-3.251618,-0.202825,0.000018,68.105959,0.162194,-0.000008,0.839040,-0.049107,0.000046,-0.002697,1.533446,-0.000653,-0.005394,-4.117561,-0.000653,0.706560,0.155299,-0.000251,2.463000,0.752818,0.004999,0.000000,-0.778818,-0.002363,2.779000,0.809817,0.002000,0.014720,-0.000015,-0.000138,-1.386571,0.000002,0.000038,13494.000000,1692619639.582829,0.578286,-1.368088,0.000048,0.310171,0.010129,-0.000048,,,,,,,,,
1692619639.600207,,,,,,,,,,,,,,,,,,,,,,,,,,,,,,,,,,,,,,,,,,,26152.000000,1692619639.588555,-1.789492,3.672074,13.190785,0.471097,0.088740,0.056426
1692619639.614440,,,,,,,,,,,,,,,,,,,,,,,,,,,,,,,,,,,,,,,,,,,26153.000000,1692619639.598643,-1.790603,3.661783,13.187824,0.471189,0.088689,0.056398
1692619639.617286,-3.089846,-0.202825,-0.000018,68.688061,0.162194,-0.000008,0.839040,-0.049107,0.000046,-0.008091,1.533446,-0.000653,-0.002697,-4.117561,-0.000653,0.618240,0.155299,-0.000764,2.460000,0.750410,0.000000,-0.001225,-0.779409,0.000590,2.780000,0.810408,0.002000,0.069920,-0.000015,-0.000138,-1.452286,0.000002,0.000038,13495.000000,1692619639.602816,0.678171,-1.368088,0.000048,0.184000,0.010129,-0.000048,,,,,,,,,
1692619639.623641,,,,,,,,,,,,,,,,,,,,,,,,,,,,,,,,,,,,,,,,,,0.000000,,,,,,,,
1692619639.623934,,,,,,,,,,,,,,,,,,,,,,,,,,,,,,,,,,,,,,,,,,,26154.000000,1692619639.608659,-1.791853,3.649887,13.184298,0.471275,0.088638,0.056380
1692619639.628695,-3.106023,-0.202825,-0.001074,68.979112,0.162194,-0.000008,0.717600,-0.049107,0.000046,-0.005394,1.533446,-0.000653,-0.002697,-4.117561,-0.000653,0.607200,0.155309,0.001926,2.457000,0.748410,-0.008999,-0.000817,-0.779409,-0.005318,2.779000,0.809408,0.002000,0.040480,-0.000015,-0.000138,-1.445714,0.000002,0.000038,13496.000000,1692619639.612828,0.620343,-1.368088,0.000048,0.241829,0.010129,0.002448,,,,,,,,,
1692619639.632969,,,,,,,,,,,,,,,,,,,,,,,,,,,,,,,,,,,,,,,,,,,26155.000000,1692619639.618512,-1.793049,3.636520,13.179297,0.471349,0.088573,0.056379
1692619639.644002,,,,,,,,,,,,,,,,,,,,,,,,,,,,,,,,,,,,,,,,,,,26156.000000,1692619639.628697,-1.792826,3.622868,13.172980,0.471399,0.088496,0.056388
1692619639.653835,-3.041314,-0.202825,0.000018,66.941754,0.162195,0.000008,0.899760,-0.049107,0.000046,-0.005394,1.533446,-0.000653,-0.005394,-4.117561,-0.000653,0.728640,0.155309,0.000094,2.453000,0.746410,-0.013000,-0.000408,-0.779409,-0.005318,2.778000,0.808408,-0.003000,-0.016560,-0.000015,-0.000138,-1.406286,0.000002,0.000038,13497.000000,1692619639.632834,0.704457,-1.368088,0.000048,0.283886,0.010129,-0.000048,,,,,,,,,
1692619639.664289,,,,,,,,,,,,,,,,,,,,,,,,,,,,,,,,,,,,,,,,,,,26157.000000,1692619639.638514,-1.791115,3.609629,13.166710,0.471423,0.088412,0.056407
1692619639.668409,-3.138377,-0.202825,0.000018,66.941754,0.162195,0.000008,0.828000,-0.049107,0.000046,-0.008091,1.533446,-0.000653,-0.005394,-4.117561,-0.000653,0.662400,0.155299,-0.004900,2.453000,0.748228,-0.020999,-0.000817,-0.778227,-0.002363,2.775000,0.806227,-0.007000,0.060720,-0.000015,-0.000138,-1.504857,0.000002,0.000038,13498.000000,1692619639.652827,0.651886,-1.368088,0.000048,0.220800,0.010129,-0.000048,,,,,,,,,
1692619639.669625,,,,,,,,,,,,,,,,,,,,,,,,,,,,,,,,,,,,,,,,,,,26159.000000,1692619639.658526,-1.787459,3.584735,13.158943,0.471440,0.088251,0.056511
1692619639.682241,,,,,,,,,,,,,,,,,,,,,,,,,,,,,,,,,,,,,,,,,,,26160.000000,1692619639.670847,-1.785831,3.574000,13.158809,0.471443,0.088193,0.056598
1692619639.689464,-4.189895,-0.202443,0.000018,66.359652,0.162195,0.000008,0.938400,-0.049107,0.000046,-0.005394,1.533446,-0.000653,-0.005394,-4.117561,-0.000653,0.662400,0.155299,-0.000471,2.457000,0.751000,-0.009999,-0.000817,-0.779999,-0.002363,2.776000,0.807999,-0.010999,0.047840,-0.000015,-0.000138,-1.301143,0.000002,0.000038,13499.000000,1692619639.672829,0.562514,-1.368088,0.000048,0.189257,0.010129,-0.000048,,,,,,,,,
1692619639.689926,,,,,,,,,,,,,,,,,,,,,,,,,,,,,,,,,,,,,,,,,,,26161.000000,1692619639.678948,-1.783046,3.564665,13.160486,0.471432,0.088151,0.056708
1692619639.696748,,,,,,,,,,,,,,,,,,,,,,,,,,,,,,,,,,,,,,,,,,,26162.000000,1692619639.688804,-1.780238,3.556788,13.162750,0.471401,0.088101,0.056835
1692619639.719653,,,,,,,,,,,,,,,,,,,,,,,,,,,,,,,,,,,,,,,,,,,26163.000000,1692619639.699740,-1.778507,3.550699,13.165321,0.471345,0.088034,0.056970
1692619639.723240,-4.659034,-0.202443,-0.000284,65.777550,0.162195,0.000008,0.855600,-0.049107,0.000046,-0.002697,1.533446,-0.000653,-0.005394,-4.117561,-0.000653,0.706560,0.155299,-0.000356,2.457000,0.750410,-0.008999,0.000817,-0.779409,-0.010045,2.775000,0.807409,-0.008999,0.020240,-0.000015,-0.000138,-1.412857,0.000002,0.000038,13500.000000,1692619639.702822,0.757029,-1.368088,0.000048,0.236571,0.010129,-0.000048,,,,,,,,,
1692619639.726539,,,,,,,,,,,,,,,,,,,,,,,,,,,,,,,,,,,,,,,,,,,26164.000000,1692619639.711137,-1.777251,3.546496,13.169009,0.471263,0.087977,0.057111
1692619639.731964,,,,,,,,,,,,,,,,,,,,,,,,,,,,,,,,,,,,,,,,,,0.000000,,,,,,,,
1692619639.733692,,,,,,,,,,,,,,,,,,,,,,,,,,,,,,,,,,,,,,,,,,,26165.000000,1692619639.721475,-1.775203,3.544083,13.173111,0.471166,0.087943,0.057255
1692619639.742815,-3.817820,-0.202825,-0.000422,65.195448,0.162195,0.000008,0.877680,-0.049107,0.000046,-0.002697,1.533446,-0.000653,-0.005394,-4.117561,-0.000653,0.474720,0.155309,0.004356,2.457000,0.750227,-0.008000,0.000408,-0.778227,-0.004136,2.772000,0.805227,-0.008999,0.079120,-0.000015,-0.000138,-1.222286,0.000002,0.000038,13501.000000,1692619639.722828,0.583543,-1.368088,0.000048,0.231314,0.010129,-0.000048,,,,,,,,,
1692619639.743130,,,,,,,,,,,,,,,,,,,,,,,,,,,,,,,,,,,,,,,,,,,26166.000000,1692619639.729610,-1.772069,3.542147,13.175228,0.471067,0.087928,0.057388
1692619639.758701,,,,,,,,,,,,,,,,,,,,,,,,,,,,,,,,,,,,,,,,,,,26167.000000,1692619639.741939,-1.769127,3.539583,13.175653,0.470970,0.087933,0.057507
1692619639.761151,-3.914883,-0.202825,-0.000254,64.613346,0.162195,0.000008,0.916320,-0.049107,0.000046,0.000000,1.533446,-0.000653,-0.005394,-4.117561,-0.000653,0.518880,0.155299,-0.006021,2.459000,0.751409,0.002000,-0.000408,-0.779409,-0.001181,2.773000,0.807409,-0.008000,0.007360,-0.000015,-0.000138,-1.412857,0.000002,0.000038,13502.000000,1692619639.742830,0.630857,-1.368088,0.000048,0.289143,0.010129,-0.000048,,,,,,,,,
1692619639.772049,,,,,,,,,,,,,,,,,,,,,,,,,,,,,,,,,,,,,,,,,,,26168.000000,1692619639.751651,-1.768050,3.537887,13.175720,0.470864,0.087948,0.057627
1692619639.775446,,,,,,,,,,,,,,,,,,,,,,,,,,,,,,,,,,,,,,,,,,,26169.000000,1692619639.758680,-1.768247,3.538001,13.175350,0.470736,0.087967,0.057755
1692619639.776608,-3.558985,-0.202825,-0.000018,64.613346,0.162195,0.000008,0.789360,-0.049113,-0.001043,-0.008091,1.533446,-0.000653,-0.008091,-4.117561,-0.000653,0.552000,0.155299,-0.000565,2.456000,0.749410,-0.013000,-0.000408,-0.779409,-0.000590,2.775000,0.808408,-0.003000,0.057040,-0.000015,-0.000138,-1.393143,0.000002,0.000038,13503.000000,1692619639.762822,0.688686,-1.368088,0.000048,0.220800,0.010129,-0.000048,,,,,,,,,
1692619639.792332,,,,,,,,,,,,,,,,,,,,,,,,,,,,,,,,,,,,,,,,,,,26170.000000,1692619639.772939,-1.767998,3.539778,13.174930,0.470596,0.088005,0.057885
1692619639.792360,-3.914883,-0.202825,-0.000018,64.031243,0.162195,0.000008,0.822480,-0.049113,-0.000046,0.000000,1.533446,-0.000653,0.000000,-4.117561,-0.000653,0.662400,0.155309,0.007361,2.456000,0.749228,-0.008000,0.001225,-0.778227,-0.002954,2.776000,0.809226,-0.003000,0.001840,-0.000015,-0.000138,-1.274857,0.000002,0.000038,13504.000000,1692619639.772825,0.651886,-1.368088,0.000048,0.194514,0.010129,-0.000048,,,,,,,,,
1692619639.795569,,,,,,,,,,,,,,,,,,,,,,,,,,,,,,,,,,,,,,,,,,,26171.000000,1692619639.779562,-1.767380,3.542169,13.175229,0.470456,0.088060,0.057993
1692619639.804450,,,,,,,,,,,,,,,,,,,,,,,,,,,,,,,,,,,,,,,,,,,26172.000000,1692619639.789080,-1.767368,3.543530,13.176427,0.470335,0.088109,0.058058
1692619639.814663,,,,,,,,,,,,,,,,,,,,,,,,,,,,,,,,,,,,,,,,,,,26173.000000,1692619639.798655,-1.769070,3.544611,13.178360,0.470229,0.088135,0.058094
1692619639.821551,-3.510453,-0.202825,-0.002076,62.867039,0.162195,0.000008,0.910800,-0.049113,-0.000046,0.000000,1.533446,-0.000653,-0.008091,-4.117561,-0.000653,0.640320,0.155309,0.005937,2.453000,0.748046,-0.007000,0.000408,-0.777045,0.005318,2.775000,0.808044,0.006000,0.042320,-0.000015,-0.000138,-1.353714,0.000002,0.000038,13505.000000,1692619639.802826,0.567771,-1.368088,0.000048,0.278629,0.010129,-0.000048,,,,,,,,,
1692619639.827836,,,,,,,,,,,,,,,,,,,,,,,,,,,,,,,,,,,,,,,,,,,26174.000000,1692619639.808703,-1.772183,3.547406,13.179975,0.470130,0.088147,0.058120
1692619639.841976,,,,,,,,,,,,,,,,,,,,,,,,,,,,,,,,,,,,,,,,,,,26175.000000,1692619639.826744,-1.774922,3.552348,13.179642,0.470042,0.088163,0.058139
1692619639.842003,-3.753111,-0.202825,0.000018,63.158090,0.162194,-0.000008,0.954960,-0.049113,-0.000046,-0.008091,1.533446,-0.000653,-0.005394,-4.117561,-0.000653,0.618240,0.155299,-0.000251,2.456000,0.749636,0.003000,0.000408,-0.777636,0.007681,2.778000,0.809636,0.014999,0.009200,-0.000015,-0.000138,-1.524571,0.000002,0.000038,13506.000000,1692619639.822825,0.536229,-1.368088,0.000048,0.147200,0.010129,-0.000048,,,,,,,,,
1692619639.845979,,,,,,,,,,,,,,,,,,,,,,,,,,,,,,,,,,,,,,,,,,0.000000,,,,,,,,
1692619639.857022,,,,,,,,,,,,,,,,,,,,,,,,,,,,,,,,,,,,,,,,,,,26177.000000,1692619639.838849,-1.775656,3.563422,13.174892,0.469932,0.088233,0.058131
1692619639.860166,-3.704579,-0.202825,0.000018,63.449141,0.162194,-0.000008,1.026720,-0.049113,-0.000046,-0.002697,1.533446,-0.000653,0.000000,-4.117561,-0.000653,0.507840,0.155299,-0.001507,2.456000,0.750227,0.003000,-0.005320,-0.778227,0.004727,2.776000,0.809226,0.004999,0.099360,-0.000015,-0.000138,-1.314286,0.000002,0.000038,13507.000000,1692619639.832831,0.657143,-1.368088,0.000048,0.189257,0.010129,-0.000048,,,,,,,,,
1692619639.868219,,,,,,,,,,,,,,,,,,,,,,,,,,,,,,,,,,,,,,,,,,,26178.000000,1692619639.849295,-1.773858,3.568278,13.173612,0.469920,0.088268,0.058101
1692619639.881077,,,,,,,,,,,,,,,,,,,,,,,,,,,,,,,,,,,,,,,,,,,26179.000000,1692619639.858998,-1.770802,3.573134,13.173209,0.469920,0.088299,0.058055
1692619639.881106,-3.801643,-0.202825,-0.000018,63.449141,0.162194,-0.000008,0.866640,-0.049113,-0.000046,-0.005394,1.533446,-0.000653,0.002697,-4.117561,-0.000653,0.596160,0.155299,-0.000314,2.457000,0.751227,0.003000,-0.000408,-0.778227,0.001772,2.778000,0.809226,-0.004999,0.044160,-0.000015,-0.000138,-1.314286,0.000002,0.000038,13508.000000,1692619639.862821,0.546743,-1.368088,0.000048,0.236571,0.010129,-0.000048,,,,,,,,,
1692619639.898364,,,,,,,,,,,,,,,,,,,,,,,,,,,,,,,,,,,,,,,,,,,26180.000000,1692619639.868641,-1.767039,3.577167,13.172190,0.469923,0.088324,0.057990
1692619639.901917,-3.720757,-0.202825,-0.000018,63.449141,0.162194,-0.000008,0.844560,-0.049113,-0.000046,-0.008091,1.533446,-0.000653,0.000000,-4.117561,-0.000653,0.640320,0.155299,-0.000596,2.457000,0.751045,0.007000,-0.000817,-0.777045,0.004136,2.772000,0.806044,-0.009999,0.082800,-0.000015,-0.000138,-1.360286,0.000002,0.000038,13509.000000,1692619639.882823,0.578286,-1.368088,0.000048,0.205029,0.010129,-0.000048,,,,,,,,,
1692619639.901941,,,,,,,,,,,,,,,,,,,,,,,,,,,,,,,,,,,,,,,,,,,26182.000000,1692619639.888863,-1.755467,3.581135,13.169076,0.469928,0.088400,0.057848
1692619639.915890,,,,,,,,,,,,,,,,,,,,,,,,,,,,,,,,,,,,,,,,,,,26183.000000,1692619639.901431,-1.748727,3.583349,13.166493,0.469926,0.088454,0.057773
1692619639.920232,-3.866351,-0.202825,-0.000054,64.031243,0.162194,-0.000008,0.982560,-0.049113,-0.000046,-0.002697,1.533446,-0.000653,-0.002697,-4.117561,-0.000653,0.883200,0.155309,0.007215,2.454000,0.749636,0.001000,-0.001225,-0.777636,0.006499,2.773000,0.806635,0.004999,0.005520,-0.000015,-0.000138,-1.334000,0.000002,0.000038,13510.000000,1692619639.902825,0.599314,-1.368088,0.000048,0.131429,0.010129,-0.001025,,,,,,,,,
1692619639.938827,,,,,,,,,,,,,,,,,,,,,,,,,,,,,,,,,,,,,,,,,,,26184.000000,1692619639.908713,-1.741445,3.584870,13.161782,0.469941,0.088518,0.057682
1692619639.943314,-3.866351,-0.202825,-0.000105,63.740192,0.162194,-0.000008,0.943920,-0.049113,-0.000046,-0.002697,1.533446,-0.000653,-0.005394,-4.117561,-0.000653,0.563040,0.155309,0.001151,2.456000,0.750227,0.001000,0.001225,-0.778227,0.003545,2.773000,0.807226,-0.004999,0.036800,-0.000015,-0.000138,-1.235429,0.000002,0.000038,13511.000000,1692619639.912829,0.615086,-1.368088,0.000048,0.178743,0.010129,-0.000048,,,,,,,,,
1692619639.946654,,,,,,,,,,,,,,,,,,,,,,,,,,,,,,,,,,,,,,,,,,,26186.000000,1692619639.929051,-1.726084,3.590461,13.153791,0.469956,0.088673,0.057451
1692619639.958964,-3.558985,-0.202825,-0.000018,64.031243,0.162194,-0.000008,0.894240,-0.049113,-0.000046,-0.002697,1.533446,-0.000653,-0.005394,-4.117561,-0.000653,0.662400,0.155309,0.000324,2.454000,0.749819,0.001000,0.001225,-0.778818,0.000590,2.775000,0.807817,-0.004999,0.058880,-0.000015,-0.000138,-1.393143,0.000002,0.000038,13512.000000,1692619639.932832,0.615086,-1.368088,0.000048,0.247086,0.010129,-0.000048,,,,,,,,,
1692619639.958982,,,,,,,,,,,,,,,,,,,,,,,,,,,,,,,,,,,,,,,,,,0.000000,,,,,,,,
1692619639.961493,,,,,,,,,,,,,,,,,,,,,,,,,,,,,,,,,,,,,,,,,,,26187.000000,1692619639.939003,-1.721396,3.598260,13.151894,0.469926,0.088758,0.057342
1692619639.968957,,,,,,,,,,,,,,,,,,,,,,,,,,,,,,,,,,,,,,,,,,,26188.000000,1692619639.948916,-1.719698,3.608768,13.150837,0.469870,0.088834,0.057239
1692619639.974643,,,,,,,,,,,,,,,,,,,,,,,,,,,,,,,,,,,,,,,,,,,26189.000000,1692619639.958666,-1.720076,3.620033,13.150499,0.469806,0.088894,0.057148
1692619639.981131,-4.707566,-0.202443,-0.002344,64.031243,0.162194,-0.000008,0.949440,-0.049113,-0.000046,-0.005394,1.533446,-0.000653,-0.008091,-4.117561,-0.000653,0.607200,0.155309,0.001151,2.457000,0.751636,0.001000,0.000000,-0.777636,0.000590,2.776000,0.808635,0.000000,0.053360,-0.000015,-0.000138,-1.360286,0.000002,0.000038,13513.000000,1692619639.962826,0.515200,-1.368088,0.000048,0.215543,0.010129,-0.000048,,,,,,,,,
1692619639.999359,,,,,,,,,,,,,,,,,,,,,,,,,,,,,,,,,,,,,,,,,,,26190.000000,1692619639.968835,-1.722035,3.631015,13.150767,0.469751,0.088945,0.057077
1692619640.005308,-5.160528,-0.202443,-0.000333,64.031243,0.162194,-0.000008,0.977040,-0.049113,-0.000046,-0.002697,1.533446,-0.000653,-0.008091,-4.117561,-0.000653,0.684480,0.155309,0.000324,2.454000,0.749228,0.009999,0.001637,-0.778227,0.002954,2.779000,0.809226,0.004999,0.058880,-0.000015,-0.000138,-1.393143,0.000002,0.000038,13514.000000,1692619639.982822,0.646629,-1.368088,0.000048,0.173486,0.010129,-0.000048,,,,,,,,,
1692619640.005332,,,,,,,,,,,,,,,,,,,,,,,,,,,,,,,,,,,,,,,,,,,26192.000000,1692619639.988418,-1.731135,3.649847,13.154081,0.469708,0.089024,0.056999
1692619640.012717,,,,,,,,,,,,,,,,,,,,,,,,,,,,,,,,,,,,,,,,,,,26193.000000,1692619639.999278,-1.738213,3.657922,13.158368,0.469727,0.089057,0.057026
1692619640.019726,-4.497262,-0.202825,0.000026,64.322294,0.162194,-0.000008,0.916320,-0.049113,-0.000046,-0.002697,1.533446,-0.000653,-0.005394,-4.117561,-0.000653,0.750720,0.155309,0.000094,2.454000,0.749045,-0.004999,-0.001225,-0.777045,0.000000,2.776000,0.808044,0.004999,0.046000,-0.000015,-0.000138,-1.327429,0.000002,0.000038,13515.000000,1692619639.992846,0.646629,-1.368088,0.000048,0.168229,0.010129,-0.000048,,,,,,,,,
1692619640.026292,,,,,,,,,,,,,,,,,,,,,,,,,,,,,,,,,,,,,,,,,,,26194.000000,1692619640.008810,-1.747631,3.664779,13.162696,0.469744,0.089083,0.057085
1692619640.038380,,,,,,,,,,,,,,,,,,,,,,,,,,,,,,,,,,,,,,,,,,,26195.000000,1692619640.019817,-1.757513,3.670214,13.166694,0.469739,0.089110,0.057151
1692619640.038542,-5.338477,-0.202443,-0.000094,65.195448,0.162194,-0.000008,0.999120,-0.049113,-0.000046,-0.008091,1.533446,-0.000653,-0.008091,-4.117561,-0.000653,0.441600,0.155299,-0.003445,2.451000,0.746637,0.000000,0.001225,-0.777636,0.002363,2.779000,0.809636,0.008999,0.068080,-0.000015,-0.000138,-1.406286,0.000002,0.000038,13516.000000,1692619640.022819,0.578286,-1.368088,0.000048,0.215543,0.010129,-0.000048,,,,,,,,,
1692619640.041193,,,,,,,,,,,,,,,,,,,,,,,,,,,,,,,,,,,,,,,,,,,26196.000000,1692619640.030261,-1.766887,3.674985,13.169755,0.469718,0.089139,0.057229
1692619640.046999,-4.335490,-0.202825,0.000018,64.904397,0.162194,-0.000008,1.032240,-0.049113,-0.000046,-0.002697,1.533446,-0.000653,-0.002697,-4.117561,-0.000653,0.607200,0.155299,-0.000125,2.451000,0.746818,-0.014000,-0.003683,-0.778818,0.002363,2.786000,0.812818,0.008999,0.062560,-0.000015,-0.000138,-1.347143,0.000002,0.000038,13517.000000,1692619640.032829,0.583543,-1.368088,0.000048,0.252343,0.010129,-0.000048,,,,,,,,,
1692619640.049466,,,,,,,,,,,,,,,,,,,,,,,,,,,,,,,,,,,,,,,,,,,26197.000000,1692619640.038780,-1.775851,3.679583,13.171533,0.469712,0.089159,0.057326
1692619640.061651,,,,,,,,,,,,,,,,,,,,,,,,,,,,,,,,,,,,,,,,,,0.000000,,,,,,,,
1692619640.062845,,,,,,,,,,,,,,,,,,,,,,,,,,,,,,,,,,,,,,,,,,,26198.000000,1692619640.048646,-1.784642,3.682611,13.172515,0.469742,0.089167,0.057420
1692619640.073869,,,,,,,,,,,,,,,,,,,,,,,,,,,,,,,,,,,,,,,,,,,26199.000000,1692619640.062011,-1.794370,3.682169,13.173116,0.469799,0.089160,0.057492
1692619640.075099,-4.173718,-0.202825,0.000018,65.195448,0.162194,-0.000008,1.037760,-0.049113,-0.000046,-0.008091,1.533446,-0.000653,-0.005394,-4.117561,-0.000653,0.794880,0.155299,0.004523,2.453000,0.749228,-0.003000,0.001225,-0.778227,-0.003545,2.790000,0.815227,0.027000,0.075440,-0.000015,-0.000138,-1.360286,0.000002,0.000038,13518.000000,1692619640.062820,0.594057,-1.368088,0.000048,0.252343,0.010129,-0.000048,,,,,,,,,
1692619640.096574,,,,,,,,,,,,,,,,,,,,,,,,,,,,,,,,,,,,,,,,,,,26200.000000,1692619640.079699,-1.804589,3.679583,13.173994,0.469865,0.089148,0.057552
1692619640.098226,-4.659034,-0.202825,0.000018,65.195448,0.162194,-0.000008,1.092960,-0.049113,-0.000046,-0.002697,1.533446,-0.000653,-0.002697,-4.117561,-0.000653,0.772800,0.155299,0.003895,2.453000,0.750227,-0.003000,0.000000,-0.778227,-0.000590,2.793000,0.816226,0.024000,0.051520,-0.000015,-0.000138,-1.452286,0.000002,0.000038,13519.000000,1692619640.082826,0.646629,-1.368088,0.000048,0.283886,0.010129,-0.000048,,,,,,,,,
1692619640.105552,,,,,,,,,,,,,,,,,,,,,,,,,,,,,,,,,,,,,,,,,,,26201.000000,1692619640.088769,-1.813714,3.676747,13.174488,0.469930,0.089144,0.057612
1692619640.107944,-3.607516,-0.202825,-0.000710,65.486499,0.162194,-0.000008,1.109520,-0.049113,-0.000046,-0.002697,1.533446,-0.000653,-0.002697,-4.117561,-0.000653,0.287040,0.155288,-0.010597,2.450000,0.747863,0.002000,-0.001225,-0.775863,-0.000590,2.786000,0.810863,0.032000,0.016560,-0.000015,-0.000138,-1.242000,0.000002,0.000038,13520.000000,1692619640.092829,0.672914,-1.368088,0.000048,0.210286,0.010129,-0.000048,,,,,,,,,
1692619640.120701,,,,,,,,,,,,,,,,,,,,,,,,,,,,,,,,,,,,,,,,,,,26202.000000,1692619640.099735,-1.822243,3.673292,13.172389,0.470001,0.089129,0.057666
1692619640.129001,,,,,,,,,,,,,,,,,,,,,,,,,,,,,,,,,,,,,,,,,,,26203.000000,1692619640.109447,-1.831206,3.669669,13.167848,0.470080,0.089109,0.057716
1692619640.134752,,,,,,,,,,,,,,,,,,,,,,,,,,,,,,,,,,,,,,,,,,,26204.000000,1692619640.118686,-1.839950,3.666412,13.163441,0.470161,0.089116,0.057761
1692619640.150980,-3.866351,-0.202825,0.000731,65.777550,0.162194,-0.000008,1.015680,-0.049113,-0.000046,-0.002697,1.533446,-0.000653,0.000000,-4.117561,-0.000653,0.507840,0.155288,-0.001685,2.448000,0.746637,-0.017000,0.000817,-0.777636,0.002363,2.786000,0.809636,0.001000,0.049680,-0.000015,-0.000138,-1.419429,0.000002,0.000038,13521.000000,1692619640.122821,0.651886,-1.368088,0.000048,0.231314,0.010129,-0.000048,,,,,,,,,
1692619640.153188,,,,,,,,,,,,,,,,,,,,,,,,,,,,,,,,,,,,,,,,,,,26205.000000,1692619640.129086,-1.847327,3.662904,13.159059,0.470238,0.089149,0.057786
1692619640.157914,,,,,,,,,,,,,,,,,,,,,,,,,,,,,,,,,,,,,,,,,,,26207.000000,1692619640.148770,-1.854885,3.651177,13.151380,0.470417,0.089294,0.057784
1692619640.158929,-5.128173,-0.202443,-0.000345,66.068601,0.162194,-0.000008,1.054320,-0.049107,0.000046,-0.002697,1.533446,-0.000653,-0.002697,-4.117561,-0.000653,0.574080,0.155288,-0.000911,2.447000,0.745636,-0.012000,0.000408,-0.777636,0.002363,2.783000,0.808635,0.001000,0.014720,-0.000015,-0.000138,-1.248571,0.000002,0.000038,13522.000000,1692619640.132825,0.662400,-1.368088,0.000048,0.199771,0.010129,-0.000048,,,,,,,,,
1692619640.173182,,,,,,,,,,,,,,,,,,,,,,,,,,,,,,,,,,,,,,,,,,0.000000,,,,,,,,
1692619640.173205,,,,,,,,,,,,,,,,,,,,,,,,,,,,,,,,,,,,,,,,,,,26208.000000,1692619640.158854,-1.857086,3.643974,13.148609,0.470520,0.089386,0.057754
1692619640.180586,-5.403186,-0.202443,-0.000018,65.195448,0.162194,-0.000008,0.910800,-0.049107,0.000046,-0.002697,1.533446,-0.000653,-0.002697,-4.117561,-0.000653,0.640320,0.155299,0.001110,2.448000,0.747409,-0.016000,-0.001637,-0.779409,-0.006499,2.786000,0.811409,0.001000,0.040480,-0.000015,-0.000138,-1.327429,0.000002,0.000038,13523.000000,1692619640.162815,0.688686,-1.368088,0.000048,0.157714,0.010129,-0.000048,,,,,,,,,
1692619640.180944,,,,,,,,,,,,,,,,,,,,,,,,,,,,,,,,,,,,,,,,,,,26209.000000,1692619640.168514,-1.859040,3.637941,13.145510,0.470630,0.089472,0.057698
1692619640.192680,,,,,,,,,,,,,,,,,,,,,,,,,,,,,,,,,,,,,,,,,,,26210.000000,1692619640.180112,-1.859399,3.632823,13.142182,0.470756,0.089581,0.057618
1692619640.198763,-4.707566,-0.202825,-0.000018,66.068601,0.162194,-0.000008,0.999120,-0.049107,0.000046,-0.005394,1.533446,-0.000653,-0.005394,-4.117561,-0.000653,0.474720,0.155288,-0.008105,2.448000,0.747819,-0.016000,0.001225,-0.778818,-0.003545,2.788000,0.811817,0.004999,0.036800,0.000000,0.001687,-1.380000,0.000002,0.000038,13524.000000,1692619640.182826,0.662400,-1.368088,0.000048,0.194514,0.010129,-0.000048,,,,,,,,,
1692619640.199662,,,,,,,,,,,,,,,,,,,,,,,,,,,,,,,,,,,,,,,,,,,26211.000000,1692619640.189809,-1.858268,3.628848,13.138558,0.470879,0.089729,0.057518
1692619640.208209,,,,,,,,,,,,,,,,,,,,,,,,,,,,,,,,,,,,,,,,,,,26212.000000,1692619640.198517,-1.857717,3.626641,13.133223,0.470972,0.089890,0.057411
1692619640.218623,-5.726730,-0.202443,0.000028,66.068601,0.162194,-0.000008,0.988080,-0.049107,0.000046,-0.005394,1.533446,-0.000653,-0.005394,-4.117561,-0.000653,0.485760,0.155288,-0.007288,2.448000,0.748228,-0.010999,-0.000817,-0.778227,-0.000590,2.789000,0.811226,0.008999,0.031280,0.000000,0.000138,-1.301143,0.000002,0.000038,13525.000000,1692619640.202820,0.557257,-1.368088,0.000048,0.325943,0.010129,-0.000048,,,,,,,,,
1692619640.218740,,,,,,,,,,,,,,,,,,,,,,,,,,,,,,,,,,,,,,,,,,,26213.000000,1692619640.208718,-1.859168,3.624285,13.125611,0.471031,0.090030,0.057300
1692619640.228199,,,,,,,,,,,,,,,,,,,,,,,,,,,,,,,,,,,,,,,,,,,26214.000000,1692619640.218918,-1.861972,3.620330,13.117101,0.471071,0.090150,0.057192
1692619640.236217,-4.497262,-0.202825,-0.000254,66.068601,0.162194,-0.000008,1.026720,-0.049107,0.000046,-0.002697,1.533446,-0.000653,-0.005394,-4.117561,-0.000653,0.662400,0.155288,-0.002042,2.450000,0.749410,-0.006000,0.000817,-0.779409,-0.002954,2.789000,0.811409,-0.001000,0.036800,0.000000,0.000138,-1.472000,0.000002,0.000038,13526.000000,1692619640.222834,0.625600,-1.368088,0.000048,0.283886,0.010129,-0.000048,,,,,,,,,
1692619640.236658,,,,,,,,,,,,,,,,,,,,,,,,,,,,,,,,,,,,,,,,,,,26215.000000,1692619640.228976,-1.865265,3.616602,13.108716,0.471098,0.090260,0.057087
1692619640.294598,,,,,,,,,,,,,,,,,,,,,,,,,,,,,,,,,,,,,,,,,,,26216.000000,1692619640.239271,-1.866957,3.614325,13.101623,0.471118,0.090375,0.056980
1692619640.304200,-4.659034,-0.202825,-0.000034,66.068601,0.162194,-0.000008,1.109520,-0.049107,0.000046,-0.002697,1.533446,-0.000653,-0.005394,-4.117561,-0.000653,0.618240,0.155299,-0.000387,2.454000,0.753409,0.008999,-0.000408,-0.779409,-0.002363,2.789000,0.811409,-0.001000,0.029440,0.000000,0.000138,-1.353714,0.000002,0.000038,13527.000000,1692619640.242819,0.699200,-1.368088,0.000048,0.252343,0.010129,-0.000048,,,,,,,,,
1692619640.304512,,,,,,,,,,,,,,,,,,,,,,,,,,,,,,,,,,,,,,,,,,,26221.000000,1692619640.288781,-1.833095,3.623177,13.105362,0.471131,0.091082,0.056657
1692619640.304555,,,,,,,,,,,,,,,,,,,,,,,,,,,,,,,,,,,,,,,,,,0.000000,,,,,,,,
1692619640.304573,-4.642857,-0.202825,-0.000018,66.941754,0.162194,-0.000008,1.054320,-0.049107,0.000046,0.000000,1.533446,-0.000653,-0.008091,-4.117561,-0.000653,0.684480,0.155288,-0.000963,2.456000,0.750227,0.003000,-0.001225,-0.778227,-0.004727,2.786000,0.808226,0.000000,0.038640,0.000000,0.000138,-1.485143,0.000002,0.000038,13529.000000,1692619640.282839,0.525714,-1.368088,0.000048,0.157714,0.010510,-0.000048,,,,,,,,,
1692619640.315157,,,,,,,,,,,,,,,,,,,,,,,,,,,,,,,,,,,,,,,,,,,26222.000000,1692619640.304502,-1.821378,3.628203,13.107701,0.471102,0.091231,0.056616
1692619640.319854,-4.982578,-0.202825,-0.000018,66.941754,0.162194,-0.000008,1.026720,-0.049107,0.000046,-0.005394,1.533446,-0.000653,-0.002697,-4.117561,-0.000653,0.309120,0.155309,0.004042,2.459000,0.753227,0.003000,0.000000,-0.778227,-0.004727,2.786000,0.808226,-0.014000,0.038640,0.000000,0.000138,-1.623143,0.000002,0.000038,13530.000000,1692619640.302821,0.525714,-1.368088,0.000048,0.278629,0.010129,-0.000048,,,,,,,,,
1692619640.326855,,,,,,,,,,,,,,,,,,,,,,,,,,,,,,,,,,,,,,,,,,,26223.000000,1692619640.308644,-1.809782,3.632334,13.108416,0.471074,0.091361,0.056571
1692619640.345855,-4.869338,-0.202825,-0.000018,66.941754,0.162194,-0.000008,0.988080,-0.049107,0.000046,-0.002697,1.533446,-0.000653,-0.005394,-4.117561,-0.000653,0.408480,0.155309,0.003979,2.454000,0.750227,0.017000,-0.001225,-0.778227,0.001181,2.785000,0.808226,-0.008999,0.036800,0.000000,0.000138,-1.255143,-0.000003,-0.000038,13531.000000,1692619640.322822,0.583543,-1.368088,0.000048,0.273371,0.010129,-0.000048,,,,,,,,,
1692619640.345889,,,,,,,,,,,,,,,,,,,,,,,,,,,,,,,,,,,,,,,,,,,26224.000000,1692619640.319288,-1.798757,3.636712,13.108817,0.471042,0.091483,0.056520
1692619640.356456,,,,,,,,,,,,,,,,,,,,,,,,,,,,,,,,,,,,,,,,,,,26225.000000,1692619640.329413,-1.786710,3.643490,13.111365,0.470988,0.091622,0.056468
1692619640.360468,-4.756098,-0.202825,-0.000018,66.941754,0.162194,-0.000008,1.104000,-0.049107,0.000046,-0.008091,1.533446,-0.000653,-0.002697,-4.117561,-0.000653,0.529920,0.155299,-0.001371,2.453000,0.748819,0.002000,-0.001637,-0.778818,0.001181,2.786000,0.808817,-0.008999,0.044160,0.000000,0.000138,-1.360286,-0.000003,-0.000038,13532.000000,1692619640.332825,0.657143,-1.368088,0.000048,0.262857,0.010129,-0.000048,,,,,,,,,
1692619640.364080,,,,,,,,,,,,,,,,,,,,,,,,,,,,,,,,,,,,,,,,,,,26227.000000,1692619640.348858,-1.759041,3.666270,13.119101,0.470793,0.091901,0.056358
1692619640.382001,,,,,,,,,,,,,,,,,,,,,,,,,,,,,,,,,,,,,,,,,,,26228.000000,1692619640.361937,-1.744772,3.680963,13.120437,0.470674,0.092012,0.056300
1692619640.382026,-4.739920,-0.202825,0.000018,67.232806,0.162194,-0.000008,0.993600,-0.049107,0.000046,-0.002697,1.533446,-0.000653,-0.002697,-4.117561,-0.000653,0.474720,0.155299,-0.002146,2.451000,0.748410,0.002000,-0.003683,-0.779409,-0.004136,2.785000,0.809408,-0.008999,0.012880,0.000000,0.000138,-1.432571,-0.000003,-0.000038,13533.000000,1692619640.352827,0.567771,-1.368088,0.000048,0.226057,0.010129,-0.000048,,,,,,,,,
1692619640.388175,,,,,,,,,,,,,,,,,,,,,,,,,,,,,,,,,,,,,,,,,,0.000000,,,,,,,,
1692619640.388186,,,,,,,,,,,,,,,,,,,,,,,,,,,,,,,,,,,,,,,,,,,26230.000000,1692619640.378489,-1.716677,3.716041,13.120700,0.470427,0.092224,0.056215
1692619640.400637,,,,,,,,,,,,,,,,,,,,,,,,,,,,,,,,,,,,,,,,,,,26231.000000,1692619640.388517,-1.703662,3.736199,13.119593,0.470295,0.092328,0.056189
1692619640.400663,-4.836984,-0.202825,-0.000018,67.523857,0.162194,-0.000008,1.037760,-0.049107,0.000046,-0.002697,1.533446,-0.000653,-0.002697,-4.117561,-0.000653,0.618240,0.155309,0.003581,2.450000,0.747637,-0.003000,0.001637,-0.777636,0.001772,2.782000,0.806635,-0.013000,0.062560,0.000000,0.000138,-1.327429,-0.000003,-0.000038,13534.000000,1692619640.382825,0.678171,-1.368088,0.000048,0.273371,0.010129,0.000434,,,,,,,,,
1692619640.408956,,,,,,,,,,,,,,,,,,,,,,,,,,,,,,,,,,,,,,,,,,,26232.000000,1692619640.398658,-1.692533,3.756112,13.118157,0.470175,0.092424,0.056166
1692619640.420398,,,,,,,,,,,,,,,,,,,,,,,,,,,,,,,,,,,,,,,,,,,26233.000000,1692619640.408788,-1.682693,3.775682,13.116768,0.470068,0.092511,0.056153
1692619640.420465,-4.659034,-0.202825,-0.000018,68.397010,0.162194,-0.000008,0.960480,-0.049107,0.000046,-0.002697,1.533446,-0.000653,0.000000,-4.117561,-0.000653,0.529920,0.155309,0.004900,2.450000,0.748819,-0.007000,0.000817,-0.778818,-0.001772,2.779000,0.805818,-0.013000,0.040480,0.000000,0.000138,-1.439143,0.000002,0.000038,13535.000000,1692619640.402814,0.609829,-1.368088,0.000048,0.604571,0.009742,-0.001642,,,,,,,,,
1692619640.428578,-5.322300,-0.202443,-0.001395,68.105959,0.162194,-0.000008,0.943920,-0.049107,0.000046,-0.008091,1.533446,-0.000653,0.000000,-4.117561,-0.000653,0.828000,0.155299,0.003120,2.447000,0.745819,-0.007000,0.000408,-0.778818,-0.001772,2.779000,0.805818,-0.021999,0.031280,0.000000,0.000138,-1.373429,0.000002,0.000038,13536.000000,1692619640.412828,0.662400,-1.368088,0.000048,0.283886,0.010129,-0.000096,,,,,,,,,
1692619640.428622,,,,,,,,,,,,,,,,,,,,,,,,,,,,,,,,,,,,,,,,,,,26234.000000,1692619640.418497,-1.673773,3.794832,13.115588,0.469971,0.092587,0.056155
1692619640.440108,,,,,,,,,,,,,,,,,,,,,,,,,,,,,,,,,,,,,,,,,,,26235.000000,1692619640.428770,-1.665902,3.813052,13.114300,0.469879,0.092652,0.056167
1692619640.447910,-4.917870,-0.202825,-0.000028,68.397010,0.162194,-0.000008,1.032240,-0.049107,0.000046,-0.002697,1.533446,-0.000653,-0.002697,-4.117561,-0.000653,0.264960,0.155299,-0.003895,2.446000,0.746227,-0.009999,-0.001637,-0.778227,-0.001772,2.778000,0.806227,-0.028999,0.042320,0.000000,0.000138,-1.478571,-0.000003,-0.000038,13537.000000,1692619640.432827,0.546743,-1.368088,0.000048,0.226057,0.010129,-0.000048,,,,,,,,,
1692619640.450435,,,,,,,,,,,,,,,,,,,,,,,,,,,,,,,,,,,,,,,,,,,26236.000000,1692619640.439569,-1.658269,3.830078,13.113995,0.469789,0.092713,0.056197
1692619640.458374,,,,,,,,,,,,,,,,,,,,,,,,,,,,,,,,,,,,,,,,,,,26237.000000,1692619640.448757,-1.651249,3.845706,13.115726,0.469710,0.092766,0.056248
