__time,/hsrb/joint_states/arm_flex_joint/effort,/hsrb/joint_states/arm_flex_joint/position,/hsrb/joint_states/arm_flex_joint/velocity,/hsrb/joint_states/arm_lift_joint/effort,/hsrb/joint_states/arm_lift_joint/position,/hsrb/joint_states/arm_lift_joint/velocity,/hsrb/joint_states/arm_roll_joint/effort,/hsrb/joint_states/arm_roll_joint/position,/hsrb/joint_states/arm_roll_joint/velocity,/hsrb/joint_states/base_l_drive_wheel_joint/effort,/hsrb/joint_states/base_l_drive_wheel_joint/position,/hsrb/joint_states/base_l_drive_wheel_joint/velocity,/hsrb/joint_states/base_r_drive_wheel_joint/effort,/hsrb/joint_states/base_r_drive_wheel_joint/position,/hsrb/joint_states/base_r_drive_wheel_joint/velocity,/hsrb/joint_states/base_roll_joint/effort,/hsrb/joint_states/base_roll_joint/position,/hsrb/joint_states/base_roll_joint/velocity,/hsrb/joint_states/hand_l_spring_proximal_joint/effort,/hsrb/joint_states/hand_l_spring_proximal_joint/position,/hsrb/joint_states/hand_l_spring_proximal_joint/velocity,/hsrb/joint_states/hand_motor_joint/effort,/hsrb/joint_states/hand_motor_joint/position,/hsrb/joint_states/hand_motor_joint/velocity,/hsrb/joint_states/hand_r_spring_proximal_joint/effort,/hsrb/joint_states/hand_r_spring_proximal_joint/position,/hsrb/joint_states/hand_r_spring_proximal_joint/velocity,/hsrb/joint_states/head_pan_joint/effort,/hsrb/joint_states/head_pan_joint/position,/hsrb/joint_states/head_pan_joint/velocity,/hsrb/joint_states/head_tilt_joint/effort,/hsrb/joint_states/head_tilt_joint/position,/hsrb/joint_states/head_tilt_joint/velocity,/hsrb/joint_states/header/seq,/hsrb/joint_states/header/stamp,/hsrb/joint_states/wrist_flex_joint/effort,/hsrb/joint_states/wrist_flex_joint/position,/hsrb/joint_states/wrist_flex_joint/velocity,/hsrb/joint_states/wrist_roll_joint/effort,/hsrb/joint_states/wrist_roll_joint/position,/hsrb/joint_states/wrist_roll_joint/velocity,/hsrb/pressure_sensor/data,/hsrb/wrist_wrench/compensated/header/seq,/hsrb/wrist_wrench/compensated/header/stamp,/hsrb/wrist_wrench/compensated/wrench/force/x,/hsrb/wrist_wrench/compensated/wrench/force/y,/hsrb/wrist_wrench/compensated/wrench/force/z,/hsrb/wrist_wrench/compensated/wrench/torque/x,/hsrb/wrist_wrench/compensated/wrench/torque/y,/hsrb/wrist_wrench/compensated/wrench/torque/z
1692873791.621401,,,,,,,,,,,,,,,,,,,,,,,,,,,,,,,,,,,,,,,,,,,25603.000000,1692873791.597815,0.000000,0.000000,0.000000,0.000000,0.000000,0.000000
1692873791.631800,1.941264,-0.025652,0.000018,19.209373,0.001676,0.000231,-0.088320,0.001601,-0.000046,-0.008091,-3.818563,-0.000653,0.005394,4.721731,0.000653,0.518880,2.698869,0.000565,-0.778000,0.155727,-0.009999,0.001225,0.502272,0.004136,-0.472000,0.212727,0.004999,0.068080,0.000123,0.000138,-1.491714,0.000002,-0.000038,13213.000000,1692873791.581493,0.767543,-1.569982,-0.000048,-0.063086,0.000153,0.000048,,,,,,,,,
1692873791.631910,,,,,,,,,,,,,,,,,,,,,,,,,,,,,,,,,,,,,,,,,,,25604.000000,1692873791.607768,0.000000,0.000000,0.000000,0.000000,0.000000,0.000000
1692873791.632079,0.841215,-0.025652,0.000018,13.970453,0.001676,-0.000656,-0.016560,0.001601,-0.000046,-0.002697,-3.818563,-0.000653,0.005394,4.721731,0.000653,0.507840,2.698858,-0.001738,-0.777000,0.157909,0.000000,0.009007,0.501090,0.004136,-0.465000,0.217909,0.019999,0.079120,0.000123,0.000138,-1.314286,0.000002,-0.000038,13214.000000,1692873791.601495,0.962057,-1.569982,-0.000048,-0.052571,0.000153,0.000048,,,,,,,,,
1692873791.647237,,,,,,,,,,,,,,,,,,,,,,,,,,,,,,,,,,,,,,,,,,,25605.000000,1692873791.618139,0.000000,0.000000,0.000000,0.000000,0.000000,0.000000
1692873791.647727,,,,,,,,,,,,,,,,,,,,,,,,,,,,,,,,,,,,,,,,,,,25606.000000,1692873791.628265,0.000000,0.000000,0.000000,0.000000,0.000000,0.000000
1692873791.651978,,,,,,,,,,,,,,,,,,,,,,,,,,,,,,,,,,,,,,,,,,,25607.000000,1692873791.637669,0.000000,0.000000,0.000000,0.000000,0.000000,0.000000
1692873791.651987,1.116227,-0.025652,0.000036,16.589913,0.001676,0.000015,-0.126960,0.001601,-0.000046,-0.005394,-3.818563,-0.000653,0.002697,4.721731,0.000653,0.540960,2.698869,0.000094,-0.777000,0.157318,0.000000,0.008598,0.501681,-0.001772,-0.465000,0.216318,0.014000,0.095680,0.000123,0.000138,-1.478571,0.000002,-0.000038,13215.000000,1692873791.621514,0.825371,-1.569982,-0.000048,0.042057,0.000153,0.000048,,,,,,,,,
1692873791.654134,1.067695,-0.025652,0.000197,15.134658,0.001676,0.000008,-0.104880,0.001601,-0.000046,-0.005394,-3.818563,-0.000653,0.005394,4.721731,0.000653,0.298080,2.698858,-0.003361,-0.782000,0.155545,0.000000,0.001225,0.503454,0.003545,-0.469000,0.213546,0.014000,0.036800,0.000123,0.000138,-1.498286,0.000002,-0.000038,13216.000000,1692873791.641498,0.846400,-1.569982,-0.000048,-0.036800,0.000153,0.000048,,,,,,,,,
1692873791.660670,,,,,,,,,,,,,,,,,,,,,,,,,,,,,,,,,,,,,,,,,,,25608.000000,1692873791.647764,0.000000,0.000000,0.000000,0.000000,0.000000,0.000000
1692873791.669821,,,,,,,,,,,,,,,,,,,,,,,,,,,,,,,,,,,,,,,,,,,25609.000000,1692873791.658372,0.000000,0.000000,0.000000,0.000000,0.000000,0.000000
1692873791.673059,1.925087,-0.025652,-0.000018,16.298862,0.001676,0.000009,-0.038640,0.001601,-0.000046,-0.005394,-3.818563,-0.000653,0.000000,4.721731,0.000653,0.496800,2.698858,-0.000513,-0.782000,0.155545,0.000000,-0.000408,0.503454,0.008863,-0.467000,0.214545,0.008999,0.079120,0.000123,0.000138,-1.294571,0.000002,-0.000038,13217.000000,1692873791.661509,0.946286,-1.569982,-0.000048,-0.036800,0.000153,0.000048,,,,,,,,,
1692873791.686454,,,,,,,,,,,,,,,,,,,,,,,,,,,,,,,,,,,,,,,,,,,25610.000000,1692873791.671496,0.000000,0.000000,0.000000,0.000000,0.000000,0.000000
1692873791.687178,0.905923,-0.025652,-0.000337,16.298862,0.001676,0.000008,-0.044160,0.001601,-0.000046,-0.008091,-3.818563,-0.000653,0.005394,4.721731,0.000653,0.463680,2.698869,0.000942,-0.782000,0.156136,0.000000,-0.001225,0.502863,0.008863,-0.467000,0.215136,0.013000,0.060720,0.000123,0.000138,-1.294571,0.000002,-0.000038,13218.000000,1692873791.671506,0.867429,-1.569982,-0.000048,-0.042057,0.000153,0.000048,,,,,,,,,
1692873791.691308,,,,,,,,,,,,,,,,,,,,,,,,,,,,,,,,,,,,,,,,,,0.000000,,,,,,,,
1692873791.692472,,,,,,,,,,,,,,,,,,,,,,,,,,,,,,,,,,,,,,,,,,,25612.000000,1692873791.689263,0.000000,0.000000,0.000000,0.000000,0.000000,0.000000
1692873791.709278,,,,,,,,,,,,,,,,,,,,,,,,,,,,,,,,,,,,,,,,,,,25613.000000,1692873791.698732,0.000000,0.000000,0.000000,0.000000,0.000000,0.000000
1692873791.713453,0.145595,-0.025268,-0.002191,16.589913,0.001676,0.000058,-0.055200,0.001601,-0.000046,-0.005394,-3.818563,-0.000653,0.005394,4.721731,0.000653,0.518880,2.698858,-0.006042,-0.785000,0.153728,0.000000,-0.000408,0.502272,0.005909,-0.465000,0.215727,0.013000,0.064400,0.000123,0.000138,-1.301143,0.000002,-0.000038,13219.000000,1692873791.691506,0.830629,-1.569982,-0.000048,-0.005257,0.000153,0.000048,,,,,,,,,
1692873791.714521,,,,,,,,,,,,,,,,,,,,,,,,,,,,,,,,,,,,,,,,,,,25614.000000,1692873791.707817,0.000000,0.000000,0.000000,0.000000,0.000000,0.000000
1692873791.731360,,,,,,,,,,,,,,,,,,,,,,,,,,,,,,,,,,,,,,,,,,,25615.000000,1692873791.717834,0.000000,0.000000,0.000000,0.000000,0.000000,0.000000
1692873791.744912,0.841215,-0.025652,0.000018,17.754117,0.001676,0.000008,-0.093840,0.001601,-0.000046,-0.002697,-3.818563,-0.000653,0.008091,4.721731,0.000653,0.540960,2.698858,-0.000513,-0.781000,0.157137,0.001000,0.000000,0.502863,0.002954,-0.465000,0.215136,0.003000,0.036800,0.000123,0.000138,-1.531143,0.000006,0.000313,13220.000000,1692873791.721512,0.914743,-1.569982,-0.000048,0.005257,0.000153,0.000048,,,,,,,,,
1692873791.749544,,,,,,,,,,,,,,,,,,,,,,,,,,,,,,,,,,,,,,,,,,,25617.000000,1692873791.738006,0.000000,0.000000,0.000000,0.000000,0.000000,0.000000
1692873791.753279,1.132404,-0.025652,0.000018,15.425709,0.001676,0.000239,0.115920,0.001601,-0.000046,-0.002697,-3.818563,-0.000653,0.008091,4.721731,0.000653,0.540960,2.698869,0.000094,-0.777000,0.158728,0.008999,0.000817,0.502272,0.002363,-0.462000,0.216727,0.012000,0.025760,0.000123,0.000138,-1.301143,0.000002,-0.000038,13221.000000,1692873791.741498,0.862171,-1.569982,-0.000048,0.005257,0.000153,0.000048,,,,,,,,,
1692873791.757550,,,,,,,,,,,,,,,,,,,,,,,,,,,,,,,,,,,,,,,,,,,25618.000000,1692873791.749140,0.000000,0.000000,0.000000,0.000000,0.000000,0.000000
1692873791.769076,,,,,,,,,,,,,,,,,,,,,,,,,,,,,,,,,,,,,,,,,,,25619.000000,1692873791.761616,0.000000,0.000000,0.000000,0.000000,0.000000,0.000000
1692873791.770293,0.922101,-0.025652,0.000018,16.298862,0.001676,-0.000044,0.005520,0.001601,-0.000046,-0.002697,-3.818563,-0.000653,0.005394,4.721731,0.000653,0.518880,2.698869,0.000094,-0.778000,0.156546,0.004000,0.007778,0.503454,0.007681,-0.469000,0.210545,0.006000,0.005520,0.000123,0.000138,-1.248571,0.000002,-0.000038,13222.000000,1692873791.761508,0.809600,-1.569982,-0.000048,-0.021029,0.000153,0.000048,,,,,,,,,
1692873791.772267,,,,,,,,,,,,,,,,,,,,,,,,,,,,,,,,,,,,,,,,,,,25620.000000,1692873791.768373,0.000000,0.000000,0.000000,0.000000,0.000000,0.000000
1692873791.786703,,,,,,,,,,,,,,,,,,,,,,,,,,,,,,,,,,,,,,,,,,,25621.000000,1692873791.777843,0.000000,0.000000,0.000000,0.000000,0.000000,0.000000
1692873791.795777,1.100050,-0.025652,-0.000018,15.716760,0.001676,-0.000174,0.038640,0.001601,-0.000046,-0.005394,-3.818563,-0.000653,0.008091,4.721731,0.000653,0.540960,2.698869,0.000094,-0.777000,0.157137,0.004000,0.007370,0.502863,0.007681,-0.469000,0.211136,-0.004000,0.053360,0.000123,0.000138,-1.412857,0.000002,-0.000038,13223.000000,1692873791.781497,0.951543,-1.569982,-0.000048,-0.073600,0.000153,0.000048,,,,,,,,,
1692873791.798040,,,,,,,,,,,,,,,,,,,,,,,,,,,,,,,,,,,,,,,,,,,25622.000000,1692873791.787783,0.000000,0.000000,0.000000,0.000000,0.000000,0.000000
1692873791.800234,,,,,,,,,,,,,,,,,,,,,,,,,,,,,,,,,,,,,,,,,,0.000000,,,,,,,,
1692873791.810179,,,,,,,,,,,,,,,,,,,,,,,,,,,,,,,,,,,,,,,,,,,25623.000000,1692873791.798021,0.000000,0.000000,0.000000,0.000000,0.000000,0.000000
1692873791.815998,1.067695,-0.025652,0.000121,16.007811,0.001676,-0.000008,-0.049680,0.001601,-0.000046,-0.005394,-3.818563,-0.000653,0.008091,4.721731,0.000653,0.518880,2.698858,-0.001570,-0.776000,0.157909,-0.010999,0.006549,0.501090,0.001772,-0.469000,0.211909,-0.012000,0.071760,0.000123,0.000138,-1.360286,0.000002,-0.000038,13224.000000,1692873791.801498,0.814857,-1.569982,-0.000048,0.073600,0.000153,0.000048,,,,,,,,,
1692873791.818930,,,,,,,,,,,,,,,,,,,,,,,,,,,,,,,,,,,,,,,,,,,25624.000000,1692873791.808219,0.000000,0.000000,0.000000,0.000000,0.000000,0.000000
1692873791.832257,,,,,,,,,,,,,,,,,,,,,,,,,,,,,,,,,,,,,,,,,,,25625.000000,1692873791.817939,0.000000,0.000000,0.000000,0.000000,0.000000,0.000000
1692873791.836427,0.825037,-0.025652,0.000042,15.134658,0.001676,0.000116,0.022080,0.001601,-0.000046,-0.005394,-3.818563,-0.000653,0.002697,4.721731,0.000653,0.540960,2.698869,0.000094,-0.774000,0.158910,-0.001000,0.002454,0.501090,-0.004136,-0.470000,0.211909,-0.012000,0.064400,0.000123,0.000138,-1.419429,0.000002,-0.000038,13225.000000,1692873791.821499,0.835886,-1.569982,-0.000048,0.073600,0.000153,0.000048,,,,,,,,,
1692873791.843421,,,,,,,,,,,,,,,,,,,,,,,,,,,,,,,,,,,,,,,,,,,25627.000000,1692873791.837878,0.000000,0.000000,0.000000,0.000000,0.000000,0.000000
1692873791.855386,1.197113,-0.025652,0.000018,16.589913,0.001676,0.000092,0.066240,0.001601,-0.000046,-0.008091,-3.818563,-0.000653,0.005394,4.721731,0.000653,0.518880,2.698869,0.000429,-0.777000,0.157318,-0.001000,0.000408,0.501681,-0.001181,-0.476000,0.208318,-0.026000,0.058880,0.000123,0.000138,-1.340571,0.000002,-0.000038,13226.000000,1692873791.841494,0.951543,-1.569982,-0.000048,-0.052571,0.000153,0.000048,,,,,,,,,
1692873791.856346,,,,,,,,,,,,,,,,,,,,,,,,,,,,,,,,,,,,,,,,,,,25628.000000,1692873791.847862,0.000000,0.000000,0.000000,0.000000,0.000000,0.000000
1692873791.869002,,,,,,,,,,,,,,,,,,,,,,,,,,,,,,,,,,,,,,,,,,,25629.000000,1692873791.858602,0.000000,0.000000,0.000000,0.000000,0.000000,0.000000
1692873791.872194,1.083873,-0.025652,0.000018,18.627271,0.001676,0.000400,-0.022080,0.001601,-0.000046,-0.008091,-3.818563,-0.000653,0.005394,4.721731,0.000653,0.507840,2.698869,0.000094,-0.776000,0.158319,-0.001000,0.006549,0.501681,-0.001181,-0.476000,0.209319,-0.024000,0.044160,0.000123,0.000138,-1.340571,0.000006,0.000038,13227.000000,1692873791.861501,0.962057,-1.569982,-0.000048,-0.078857,0.000153,0.000048,,,,,,,,,
1692873791.881247,,,,,,,,,,,,,,,,,,,,,,,,,,,,,,,,,,,,,,,,,,,25630.000000,1692873791.868025,0.000000,0.000000,0.000000,0.000000,0.000000,0.000000
1692873791.882266,1.277999,-0.025652,-0.001260,14.843606,0.001676,-0.000604,-0.110400,0.001601,-0.000046,-0.005394,-3.818563,-0.000653,0.008091,4.721731,0.000653,0.474720,2.698869,0.002293,-0.776000,0.158319,0.004000,0.004912,0.501681,-0.001181,-0.476000,0.209319,-0.017999,0.038640,0.000123,0.000138,-1.511429,0.000006,0.000038,13228.000000,1692873791.871512,0.872686,-1.569982,-0.000048,-0.042057,0.000153,0.000048,,,,,,,,,
1692873791.886377,,,,,,,,,,,,,,,,,,,,,,,,,,,,,,,,,,,,,,,,,,,25631.000000,1692873791.878006,0.000000,0.000000,0.000000,0.000000,0.000000,0.000000
1692873791.897706,,,,,,,,,,,,,,,,,,,,,,,,,,,,,,,,,,,,,,,,,,,25632.000000,1692873791.888734,0.000000,0.000000,0.000000,0.000000,0.000000,0.000000
1692873791.909996,,,,,,,,,,,,,,,,,,,,,,,,,,,,,,,,,,,,,,,,,,0.000000,,,,,,,,
1692873791.912542,0.016177,-0.025268,-0.000018,16.880964,0.001676,-0.000054,-0.022080,0.001601,-0.000046,-0.005394,-3.818563,-0.000653,0.005394,4.721731,0.000653,0.529920,2.698869,0.000094,-0.774000,0.158728,0.003000,0.008598,0.502272,0.001772,-0.474000,0.212727,0.002000,0.077280,0.000123,0.000138,-1.426000,0.000006,0.000038,13229.000000,1692873791.901495,0.883200,-1.569982,-0.000048,0.021029,0.000153,0.000048,,,,,,,,,
1692873791.914422,,,,,,,,,,,,,,,,,,,,,,,,,,,,,,,,,,,,,,,,,,,25634.000000,1692873791.907917,0.000000,0.000000,0.000000,0.000000,0.000000,0.000000
1692873791.928466,,,,,,,,,,,,,,,,,,,,,,,,,,,,,,,,,,,,,,,,,,,25635.000000,1692873791.917871,0.000000,0.000000,0.000000,0.000000,0.000000,0.000000
1692873791.941230,0.258835,-0.025268,-0.000529,15.716760,0.001676,0.000008,-0.027600,0.001601,-0.000046,-0.005394,-3.818563,-0.000653,0.008091,4.721731,0.000653,0.375360,2.698858,-0.000272,-0.776000,0.157500,-0.003000,0.005732,0.500499,-0.001181,-0.472000,0.214500,0.002000,0.040480,0.000123,0.000138,-1.498286,0.000006,0.000038,13230.000000,1692873791.921512,0.883200,-1.569982,-0.000048,0.000000,0.000153,0.000048,,,,,,,,,
1692873791.943871,,,,,,,,,,,,,,,,,,,,,,,,,,,,,,,,,,,,,,,,,,,25636.000000,1692873791.928237,0.000000,0.000000,0.000000,0.000000,0.000000,0.000000
1692873791.957406,-0.080886,-0.025268,-0.001359,17.754117,0.001676,-0.000336,-0.011040,0.001601,-0.000046,-0.005394,-3.818563,-0.000653,0.013485,4.721731,0.000653,0.507840,2.698869,0.000094,-0.777000,0.156501,-0.007000,0.006141,0.500499,-0.006499,-0.465000,0.218500,0.016000,0.049680,0.000123,0.000138,-1.419429,0.000006,0.000038,13231.000000,1692873791.941500,0.778057,-1.569982,-0.000048,-0.021029,0.000153,0.000048,,,,,,,,,
1692873791.962959,,,,,,,,,,,,,,,,,,,,,,,,,,,,,,,,,,,,,,,,,,,25637.000000,1692873791.938012,0.000000,0.000000,0.000000,0.000000,0.000000,0.000000
1692873791.963672,,,,,,,,,,,,,,,,,,,,,,,,,,,,,,,,,,,,,,,,,,,25639.000000,1692873791.959286,0.000000,0.000000,0.000000,0.000000,0.000000,0.000000
1692873791.972049,0.242658,-0.025652,-0.000018,16.298862,0.001676,0.000157,-0.088320,0.001601,-0.000046,-0.005394,-3.818563,-0.000653,0.008091,4.721731,0.000653,0.485760,2.698858,-0.000188,-0.774000,0.158500,-0.001000,0.004503,0.500499,-0.006499,-0.467000,0.215501,0.014999,0.020240,0.000123,0.000138,-1.340571,0.000002,-0.000038,13232.000000,1692873791.961514,0.862171,-1.569982,-0.000048,-0.026286,0.000153,0.000048,,,,,,,,,
1692873791.976642,,,,,,,,,,,,,,,,,,,,,,,,,,,,,,,,,,,,,,,,,,,25640.000000,1692873791.971569,0.000000,0.000000,0.000000,0.000000,0.000000,0.000000
1692873791.984303,,,,,,,,,,,,,,,,,,,,,,,,,,,,,,,,,,,,,,,,,,,25641.000000,1692873791.977998,0.000000,0.000000,0.000000,0.000000,0.000000,0.000000
1692873792.001050,,,,,,,,,,,,,,,,,,,,,,,,,,,,,,,,,,,,,,,,,,,25642.000000,1692873791.988145,0.000000,0.000000,0.000000,0.000000,0.000000,0.000000
1692873792.001068,0.242658,-0.025652,-0.000018,16.589913,0.001676,0.000008,0.022080,0.001601,-0.000046,-0.002697,-3.818563,-0.000653,0.000000,4.721731,0.000653,0.529920,2.698869,0.000094,-0.781000,0.154910,-0.001000,0.004912,0.501090,-0.003545,-0.463000,0.217909,0.008999,0.042320,0.000123,0.000138,-1.478571,0.000002,-0.000038,13233.000000,1692873791.981496,0.893714,-1.569982,-0.000048,-0.131429,0.000153,0.000048,,,,,,,,,
1692873792.012938,,,,,,,,,,,,,,,,,,,,,,,,,,,,,,,,,,,,,,,,,,,25643.000000,1692873791.997775,0.000000,0.000000,0.000000,0.000000,0.000000,0.000000
1692873792.022216,0.161772,-0.025652,-0.000018,16.298862,0.001676,0.000008,-0.027600,0.001601,-0.000046,-0.002697,-3.818563,-0.000653,0.002697,4.721731,0.000653,0.463680,2.698858,-0.000293,-0.781000,0.154728,-0.009999,0.002046,0.502272,0.002363,-0.469000,0.212727,0.013000,0.055200,0.000123,0.000138,-1.445714,0.000002,-0.000038,13234.000000,1692873792.001500,0.941029,-1.569982,-0.000048,0.042057,0.000153,0.000048,,,,,,,,,
1692873792.022577,,,,,,,,,,,,,,,,,,,,,,,,,,,,,,,,,,,,,,,,,,0.000000,,,,,,,,
1692873792.041432,,,,,,,,,,,,,,,,,,,,,,,,,,,,,,,,,,,,,,,,,,,25645.000000,1692873792.017992,0.000000,0.000000,0.000000,0.000000,0.000000,0.000000
1692873792.046588,0.145595,-0.025268,-0.000018,16.298862,0.001676,0.000011,0.138000,0.001601,-0.000046,-0.005394,-3.818563,-0.000653,0.005394,4.721731,0.000653,0.474720,2.698858,-0.002911,-0.779000,0.154728,-0.009999,0.007778,0.502272,0.002363,-0.469000,0.211727,0.008000,0.101200,0.000123,0.000138,-1.386571,0.000002,-0.000038,13235.000000,1692873792.021498,0.977829,-1.569982,-0.000048,0.099886,0.000153,0.000048,,,,,,,,,
1692873792.058056,,,,,,,,,,,,,,,,,,,,,,,,,,,,,,,,,,,,,,,,,,,25646.000000,1692873792.027901,0.000000,0.000000,0.000000,0.000000,0.000000,0.000000
1692873792.070407,,,,,,,,,,,,,,,,,,,,,,,,,,,,,,,,,,,,,,,,,,,25648.000000,1692873792.047970,0.000000,0.000000,0.000000,0.000000,0.000000,0.000000
1692873792.077595,0.226481,-0.025652,-0.000038,16.007811,0.001676,0.000008,-0.093840,0.001601,-0.000046,-0.005394,-3.818563,-0.000653,-0.002697,4.721731,0.000653,0.518880,2.698869,0.000094,-0.777000,0.156546,0.004999,0.003683,0.503454,0.007681,-0.476000,0.209545,-0.010999,0.062560,0.000123,0.000138,-1.268286,0.000002,-0.000038,13236.000000,1692873792.041500,0.851657,-1.569982,-0.000048,-0.026286,0.000153,0.000048,,,,,,,,,
1692873792.085447,,,,,,,,,,,,,,,,,,,,,,,,,,,,,,,,,,,,,,,,,,,25649.000000,1692873792.061645,0.000000,0.000000,0.000000,0.000000,0.000000,0.000000
1692873792.087906,,,,,,,,,,,,,,,,,,,,,,,,,,,,,,,,,,,,,,,,,,,25650.000000,1692873792.067980,0.000000,0.000000,0.000000,0.000000,0.000000,0.000000
1692873792.095226,,,,,,,,,,,,,,,,,,,,,,,,,,,,,,,,,,,,,,,,,,,25651.000000,1692873792.077983,0.000000,0.000000,0.000000,0.000000,0.000000,0.000000
1692873792.096058,0.177949,-0.025652,-0.000517,16.589913,0.001676,0.000008,0.022080,0.001601,-0.000046,-0.002697,-3.818563,-0.000653,0.008091,4.721731,0.000653,0.529920,2.698869,0.000387,-0.778000,0.155727,0.004999,0.001225,0.502272,0.004727,-0.476000,0.210727,-0.010999,0.060720,0.000123,0.000138,-1.347143,0.000002,-0.000038,13237.000000,1692873792.061502,0.909486,-1.569982,-0.000048,-0.015771,0.000153,0.000048,,,,,,,,,
1692873792.102611,,,,,,,,,,,,,,,,,,,,,,,,,,,,,,,,,,,,,,,,,,,25652.000000,1692873792.088143,0.000000,0.000000,0.000000,0.000000,0.000000,0.000000
1692873792.113722,0.291190,-0.025652,-0.002768,16.007811,0.001676,0.000008,0.149040,0.001601,-0.000046,-0.002697,-3.818563,-0.000653,0.005394,4.721731,0.000653,0.397440,2.698858,-0.000178,-0.776000,0.156727,0.004999,0.000817,0.502272,0.001772,-0.472000,0.213728,-0.006000,0.069920,0.000123,0.000138,-1.544286,0.000002,-0.000038,13238.000000,1692873792.081497,0.925257,-1.569982,-0.000048,-0.078857,0.000153,0.000048,,,,,,,,,
1692873792.113746,,,,,,,,,,,,,,,,,,,,,,,,,,,,,,,,,,,,,,,,,,,25653.000000,1692873792.097770,0.000000,0.000000,0.000000,0.000000,0.000000,0.000000
1692873792.130043,,,,,,,,,,,,,,,,,,,,,,,,,,,,,,,,,,,,,,,,,,0.000000,,,,,,,,
1692873792.130053,,,,,,,,,,,,,,,,,,,,,,,,,,,,,,,,,,,,,,,,,,,25655.000000,1692873792.117852,0.000000,0.000000,0.000000,0.000000,0.000000,0.000000
1692873792.130075,0.145595,-0.025652,-0.000018,15.134658,0.001676,0.000008,0.066240,0.001601,-0.000046,0.000000,-3.818563,-0.000653,0.008091,4.721731,0.000653,0.552000,2.698869,0.000094,-0.777000,0.156136,-0.004000,0.000817,0.502863,0.004136,-0.465000,0.217137,0.013000,0.090160,0.000123,0.000138,-1.393143,0.000002,-0.000038,13239.000000,1692873792.101500,0.846400,-1.569982,-0.000048,0.084114,0.000153,0.000048,,,,,,,,,
1692873792.150676,0.194126,-0.025652,-0.000018,16.007811,0.001676,-0.000509,-0.016560,0.001601,-0.000046,-0.008091,-3.818563,-0.000653,0.005394,4.721731,0.000653,0.518880,2.698869,0.000094,-0.776000,0.157728,0.001000,0.004912,0.502272,0.001181,-0.467000,0.215727,0.010999,0.060720,0.000123,0.000138,-1.320857,0.000002,-0.000038,13240.000000,1692873792.121503,0.830629,-1.569982,-0.000048,-0.073600,0.000153,0.000048,,,,,,,,,
1692873792.150698,,,,,,,,,,,,,,,,,,,,,,,,,,,,,,,,,,,,,,,,,,,25657.000000,1692873792.137888,0.000000,0.000000,0.000000,0.000000,0.000000,0.000000
1692873792.165226,,,,,,,,,,,,,,,,,,,,,,,,,,,,,,,,,,,,,,,,,,,25658.000000,1692873792.147973,0.000000,0.000000,0.000000,0.000000,0.000000,0.000000
1692873792.165346,0.048532,-0.025652,-0.000018,16.007811,0.001676,0.000008,0.126960,0.001601,-0.000046,-0.005394,-3.818563,-0.000653,0.002697,4.721731,0.000653,0.585120,2.698869,0.000094,-0.771000,0.160910,0.014000,0.001637,0.501090,-0.004727,-0.470000,0.212909,-0.004000,0.044160,0.000123,0.000138,-1.320857,0.000002,-0.000038,13241.000000,1692873792.141495,0.904229,-1.569982,-0.000048,0.047314,0.000153,0.000048,,,,,,,,,
1692873792.175308,,,,,,,,,,,,,,,,,,,,,,,,,,,,,,,,,,,,,,,,,,,25659.000000,1692873792.158073,0.000000,0.000000,0.000000,0.000000,0.000000,0.000000
1692873792.181731,0.048532,-0.025652,-0.000920,15.716760,0.001676,0.000008,0.022080,0.001601,-0.000046,-0.008091,-3.818563,-0.000653,0.008091,4.721731,0.000653,0.518880,2.698869,0.000094,-0.772000,0.160910,0.014000,0.005732,0.501090,-0.001772,-0.474000,0.210910,-0.017000,0.062560,0.000123,0.000138,-1.373429,0.000002,-0.000038,13242.000000,1692873792.161497,0.804343,-1.569982,-0.000048,0.021029,0.000153,0.000048,,,,,,,,,
1692873792.181779,,,,,,,,,,,,,,,,,,,,,,,,,,,,,,,,,,,,,,,,,,,25660.000000,1692873792.168062,0.000000,0.000000,0.000000,0.000000,0.000000,0.000000
1692873792.202741,,,,,,,,,,,,,,,,,,,,,,,,,,,,,,,,,,,,,,,,,,,25661.000000,1692873792.178015,0.000000,0.000000,0.000000,0.000000,0.000000,0.000000
1692873792.209829,0.388253,-0.025652,0.001641,16.007811,0.001676,0.000009,-0.060720,0.001601,-0.000046,-0.008091,-3.818563,-0.000653,0.000000,4.721731,0.000653,0.507840,2.698869,0.002094,-0.774000,0.158319,0.008999,0.005732,0.501681,-0.001181,-0.476000,0.211318,-0.012000,0.038640,0.000123,0.000138,-1.393143,0.000002,-0.000038,13243.000000,1692873792.181496,0.788571,-1.569982,-0.000048,-0.010514,0.000153,0.000048,,,,,,,,,
1692873792.210210,,,,,,,,,,,,,,,,,,,,,,,,,,,,,,,,,,,,,,,,,,,25662.000000,1692873792.187850,0.000000,0.000000,0.000000,0.000000,0.000000,0.000000
1692873792.217240,,,,,,,,,,,,,,,,,,,,,,,,,,,,,,,,,,,,,,,,,,,25664.000000,1692873792.207778,0.000000,0.000000,0.000000,0.000000,0.000000,0.000000
1692873792.229100,0.905923,-0.026036,0.000605,16.298862,0.001676,0.000008,-0.082800,0.001601,-0.000046,-0.005394,-3.818563,-0.000653,0.008091,4.721731,0.000653,0.518880,2.698869,0.000094,-0.776000,0.157137,-0.001000,0.000408,0.502863,-0.001181,-0.476000,0.210136,-0.012000,0.060720,0.000123,0.000138,-1.472000,0.000002,-0.000038,13244.000000,1692873792.201509,0.951543,-1.569982,-0.000048,-0.021029,0.000153,0.000048,,,,,,,,,
1692873792.229120,,,,,,,,,,,,,,,,,,,,,,,,,,,,,,,,,,,,,,,,,,,25665.000000,1692873792.218834,0.000000,0.000000,0.000000,0.000000,0.000000,0.000000
1692873792.240841,,,,,,,,,,,,,,,,,,,,,,,,,,,,,,,,,,,,,,,,,,0.000000,,,,,,,,
1692873792.242332,,,,,,,,,,,,,,,,,,,,,,,,,,,,,,,,,,,,,,,,,,,25666.000000,1692873792.230138,0.000000,0.000000,0.000000,0.000000,0.000000,0.000000
1692873792.244478,0.388253,-0.025652,0.001195,15.716760,0.001676,0.000008,-0.099360,0.001601,-0.000046,-0.002697,-3.818563,-0.000653,0.000000,4.721731,0.000653,0.563040,2.698869,0.000094,-0.776000,0.157728,-0.006000,0.004091,0.502272,0.004727,-0.472000,0.212727,0.008000,0.051520,0.000123,0.000138,-1.445714,0.000006,0.003058,13245.000000,1692873792.221497,0.835886,-1.569982,-0.000048,0.015771,0.000153,0.000048,,,,,,,,,
1692873792.250706,,,,,,,,,,,,,,,,,,,,,,,,,,,,,,,,,,,,,,,,,,,25667.000000,1692873792.238400,0.000000,0.000000,0.000000,0.000000,0.000000,0.000000
1692873792.253017,,,,,,,,,,,,,,,,,,,,,,,,,,,,,,,,,,,,,,,,,,,25668.000000,1692873792.248005,0.000000,0.000000,0.000000,0.000000,0.000000,0.000000
1692873792.257900,1.132404,-0.025652,-0.000201,17.172015,0.001676,-0.000008,-0.049680,0.001601,-0.000046,-0.008091,-3.818563,-0.000653,0.002697,4.721731,0.000653,0.529920,2.698869,0.004335,-0.776000,0.156727,0.004000,0.001637,0.502272,0.001772,-0.469000,0.214728,-0.002000,0.047840,0.000123,0.000138,-1.327429,0.000006,0.000038,13246.000000,1692873792.231503,0.893714,-1.569982,-0.000048,0.021029,0.000153,0.000048,,,,,,,,,
1692873792.264754,,,,,,,,,,,,,,,,,,,,,,,,,,,,,,,,,,,,,,,,,,,25669.000000,1692873792.257864,0.000000,0.000000,0.000000,0.000000,0.000000,0.000000
1692873792.270379,0.161772,-0.025268,-0.000018,15.134658,0.001676,0.000079,0.022080,0.001601,-0.000046,-0.005394,-3.818563,-0.000653,0.000000,4.721731,0.000653,0.540960,2.698869,0.005948,-0.773000,0.158546,0.013000,0.000000,0.503454,0.012409,-0.474000,0.211545,-0.002000,0.060720,0.000123,0.000138,-1.327429,0.000006,0.000038,13247.000000,1692873792.261503,0.888457,-1.569982,-0.000048,-0.057829,0.000153,0.000048,,,,,,,,,
1692873792.278676,,,,,,,,,,,,,,,,,,,,,,,,,,,,,,,,,,,,,,,,,,,25670.000000,1692873792.269659,0.000000,0.000000,0.000000,0.000000,0.000000,0.000000
1692873792.290060,,,,,,,,,,,,,,,,,,,,,,,,,,,,,,,,,,,,,,,,,,,25671.000000,1692873792.277756,0.000000,0.000000,0.000000,0.000000,0.000000,0.000000
1692873792.291056,0.776506,-0.025652,-0.000018,16.589913,0.001676,0.000008,-0.044160,0.001601,-0.000046,-0.005394,-3.818563,-0.000653,0.002697,4.721731,0.000653,0.552000,2.698869,0.000094,-0.771000,0.159728,0.013000,-0.000408,0.502272,0.002954,-0.470000,0.212727,-0.002000,0.066240,0.000123,0.000138,-1.472000,0.000006,0.000038,13248.000000,1692873792.281500,0.904229,-1.569982,-0.000048,-0.026286,0.000153,0.000048,,,,,,,,,
1692873792.301749,,,,,,,,,,,,,,,,,,,,,,,,,,,,,,,,,,,,,,,,,,,25672.000000,1692873792.287902,0.000000,0.000000,0.000000,0.000000,0.000000,0.000000
1692873792.311347,,,,,,,,,,,,,,,,,,,,,,,,,,,,,,,,,,,,,,,,,,,25673.000000,1692873792.297914,0.000000,0.000000,0.000000,0.000000,0.000000,0.000000
1692873792.324335,1.375062,-0.025652,-0.000018,15.716760,0.001676,0.000041,0.088320,0.001601,-0.000046,-0.005394,-3.818563,-0.000653,0.002697,4.721731,0.000653,0.529920,2.698869,0.000094,-0.769000,0.159728,0.013000,0.003275,0.502272,0.000000,-0.470000,0.212727,-0.002000,0.029440,0.000123,0.000138,-1.288000,0.000006,0.000038,13249.000000,1692873792.301497,0.877943,-1.569982,-0.000048,-0.068343,0.000153,0.000048,,,,,,,,,
1692873792.324408,,,,,,,,,,,,,,,,,,,,,,,,,,,,,,,,,,,,,,,,,,,25674.000000,1692873792.307961,0.000000,0.000000,0.000000,0.000000,0.000000,0.000000
1692873792.336848,,,,,,,,,,,,,,,,,,,,,,,,,,,,,,,,,,,,,,,,,,,25675.000000,1692873792.317994,0.000000,0.000000,0.000000,0.000000,0.000000,0.000000
1692873792.342782,,,,,,,,,,,,,,,,,,,,,,,,,,,,,,,,,,,,,,,,,,,25676.000000,1692873792.327763,0.000000,0.000000,0.000000,0.000000,0.000000,0.000000
1692873792.342809,0.905923,-0.025652,-0.000026,16.007811,0.001676,0.000092,0.093840,0.001601,-0.000046,-0.010788,-3.818563,-0.000653,0.008091,4.721731,0.000653,0.419520,2.698858,-0.000209,-0.769000,0.158728,0.013000,0.003275,0.502272,0.000000,-0.469000,0.213728,0.003000,0.029440,0.000123,0.000138,-1.393143,0.000006,0.000038,13250.000000,1692873792.321499,1.025143,-1.569982,-0.000048,0.099886,0.000153,0.000048,,,,,,,,,
1692873792.349430,,,,,,,,,,,,,,,,,,,,,,,,,,,,,,,,,,,,,,,,,,0.000000,,,,,,,,
1692873792.353041,,,,,,,,,,,,,,,,,,,,,,,,,,,,,,,,,,,,,,,,,,,25677.000000,1692873792.337881,0.000000,0.000000,0.000000,0.000000,0.000000,0.000000
1692873792.354563,1.002987,-0.025652,-0.000018,16.007811,0.001676,0.000013,-0.110400,0.001601,-0.000046,0.000000,-3.818563,-0.000653,0.002697,4.721731,0.000653,0.496800,2.698858,-0.004419,-0.765000,0.160910,0.012000,0.000000,0.501090,-0.005909,-0.469000,0.214910,0.003000,0.084640,0.000123,0.000138,-1.412857,0.000002,-0.000111,13251.000000,1692873792.341497,1.025143,-1.569982,-0.000048,-0.026286,0.000153,0.000048,,,,,,,,,
1692873792.355088,,,,,,,,,,,,,,,,,,,,,,,,,,,,,,,,,,,,,,,,,,,25678.000000,1692873792.348975,0.000000,0.000000,0.000000,0.000000,0.000000,0.000000
1692873792.362669,,,,,,,,,,,,,,,,,,,,,,,,,,,,,,,,,,,,,,,,,,,25679.000000,1692873792.358033,0.000000,0.000000,0.000000,0.000000,0.000000,0.000000
1692873792.370403,1.795669,-0.025652,0.000456,17.172015,0.001676,0.000008,-0.005520,0.001601,-0.000046,-0.005394,-3.818563,-0.000653,0.005394,4.721731,0.000653,0.540960,2.698869,0.000094,-0.764000,0.160910,0.012000,0.005732,0.501090,-0.002954,-0.469000,0.213909,0.003000,0.069920,0.000123,0.000138,-1.412857,0.000002,-0.000038,13252.000000,1692873792.361502,0.930514,-1.569982,-0.000048,-0.052571,0.000153,0.000048,,,,,,,,,
1692873792.373415,,,,,,,,,,,,,,,,,,,,,,,,,,,,,,,,,,,,,,,,,,,25680.000000,1692873792.367989,0.000000,0.000000,0.000000,0.000000,0.000000,0.000000
1692873792.381066,,,,,,,,,,,,,,,,,,,,,,,,,,,,,,,,,,,,,,,,,,,25681.000000,1692873792.377873,0.000000,0.000000,0.000000,0.000000,0.000000,0.000000
1692873792.389135,0.873569,-0.025652,0.001193,17.172015,0.001676,0.000008,0.198720,0.001601,-0.000046,-0.005394,-3.818563,-0.000653,0.008091,4.721731,0.000653,0.496800,2.698858,-0.001036,-0.764000,0.160319,0.007000,-0.001225,0.501681,-0.005318,-0.469000,0.213318,-0.002000,0.047840,0.000123,0.000138,-1.465429,0.000002,-0.000038,13253.000000,1692873792.381493,0.778057,-1.569982,-0.000048,0.010514,0.000153,0.000048,,,,,,,,,
1692873792.391712,,,,,,,,,,,,,,,,,,,,,,,,,,,,,,,,,,,,,,,,,,,25682.000000,1692873792.388225,0.000000,0.000000,0.000000,0.000000,0.000000,0.000000
1692873792.416920,,,,,,,,,,,,,,,,,,,,,,,,,,,,,,,,,,,,,,,,,,,25683.000000,1692873792.397739,0.000000,0.000000,0.000000,0.000000,0.000000,0.000000
1692873792.424385,1.520657,-0.026036,0.001062,18.627271,0.001676,-0.000494,-0.066240,0.001601,-0.000046,-0.002697,-3.818563,-0.000653,0.000000,4.721731,0.000653,0.563040,2.698869,0.000094,-0.764000,0.159728,0.010999,0.000408,0.502272,0.000590,-0.472000,0.211727,-0.002000,0.053360,0.000123,0.000138,-1.432571,0.000002,-0.000038,13254.000000,1692873792.401497,0.967314,-1.569982,-0.000048,0.005257,0.000153,0.000048,,,,,,,,,
1692873792.432480,,,,,,,,,,,,,,,,,,,,,,,,,,,,,,,,,,,,,,,,,,,25685.000000,1692873792.417879,0.000000,0.000000,0.000000,0.000000,0.000000,0.000000
1692873792.449893,1.294176,-0.026036,0.000767,16.298862,0.001676,0.000008,-0.077280,0.001601,-0.000046,-0.008091,-3.818563,-0.000653,0.008091,4.721731,0.000653,0.419520,2.698858,-0.000785,-0.772000,0.154728,0.006000,0.001637,0.502272,0.000590,-0.474000,0.210727,-0.009999,0.069920,0.000123,0.000138,-1.340571,0.000002,-0.000038,13255.000000,1692873792.421495,0.877943,-1.569982,-0.000048,-0.136686,0.000153,0.000048,,,,,,,,,
1692873792.450080,,,,,,,,,,,,,,,,,,,,,,,,,,,,,,,,,,,,,,,,,,,25686.000000,1692873792.427912,0.000000,0.000000,0.000000,0.000000,0.000000,0.000000
1692873792.450442,,,,,,,,,,,,,,,,,,,,,,,,,,,,,,,,,,,,,,,,,,,25687.000000,1692873792.437837,0.000000,0.000000,0.000000,0.000000,0.000000,0.000000
1692873792.451658,,,,,,,,,,,,,,,,,,,,,,,,,,,,,,,,,,,,,,,,,,0.000000,,,,,,,,
1692873792.458205,2.167745,-0.026036,0.000973,16.007811,0.001676,0.000008,-0.055200,0.001601,-0.000046,-0.005394,-3.818563,-0.000653,0.005394,4.721731,0.000653,0.540960,2.698869,0.000094,-0.769000,0.156318,-0.017999,0.001225,0.501681,-0.002363,-0.469000,0.215319,-0.009999,0.014720,0.000123,0.000138,-1.320857,0.000002,-0.000038,13256.000000,1692873792.441499,0.888457,-1.569982,-0.000048,0.015771,0.000153,0.000048,,,,,,,,,
1692873792.460492,,,,,,,,,,,,,,,,,,,,,,,,,,,,,,,,,,,,,,,,,,,25688.000000,1692873792.447884,0.000000,0.000000,0.000000,0.000000,0.000000,0.000000
1692873792.473148,0.970632,-0.025652,-0.000082,15.134658,0.001676,0.000077,-0.038640,0.001601,-0.000046,-0.008091,-3.818563,-0.000653,0.005394,4.721731,0.000653,0.529920,2.698858,-0.001413,-0.771000,0.156727,-0.003000,0.002454,0.502272,-0.002363,-0.470000,0.214728,0.004999,0.031280,0.000123,0.000138,-1.426000,0.000002,-0.000038,13257.000000,1692873792.461509,0.835886,-1.569982,-0.000048,-0.031543,0.000153,0.000048,,,,,,,,,
1692873792.473171,,,,,,,,,,,,,,,,,,,,,,,,,,,,,,,,,,,,,,,,,,,25689.000000,1692873792.463353,0.000000,0.000000,0.000000,0.000000,0.000000,0.000000
1692873792.484772,,,,,,,,,,,,,,,,,,,,,,,,,,,,,,,,,,,,,,,,,,,25691.000000,1692873792.477851,0.000000,0.000000,0.000000,0.000000,0.000000,0.000000
1692873792.495186,2.086859,-0.025652,-0.000018,16.007811,0.001676,-0.000104,-0.093840,0.001601,-0.000046,0.000000,-3.818563,-0.000653,0.008091,4.721731,0.000653,0.540960,2.698869,0.000094,-0.774000,0.155727,-0.007000,0.005320,0.502272,0.000590,-0.472000,0.214728,0.017999,0.027600,0.000123,0.000138,-1.419429,0.000002,-0.000038,13258.000000,1692873792.481511,0.909486,-1.569982,-0.000048,0.089371,0.000153,0.000048,,,,,,,,,
1692873792.497422,,,,,,,,,,,,,,,,,,,,,,,,,,,,,,,,,,,,,,,,,,,25692.000000,1692873792.491296,0.000000,0.000000,0.000000,0.000000,0.000000,0.000000
1692873792.515748,,,,,,,,,,,,,,,,,,,,,,,,,,,,,,,,,,,,,,,,,,,25693.000000,1692873792.498847,0.000000,0.000000,0.000000,0.000000,0.000000,0.000000
1692873792.515791,0.889746,-0.025652,0.000335,15.716760,0.001676,-0.000541,0.071760,0.001601,-0.000046,-0.002697,-3.818563,-0.000653,0.008091,4.721731,0.000653,0.540960,2.698869,0.000094,-0.773000,0.156727,0.003000,0.006958,0.502272,0.000590,-0.467000,0.216727,0.003000,0.042320,0.000123,0.000138,-1.452286,0.000002,-0.000038,13259.000000,1692873792.501498,0.914743,-1.569982,-0.000048,0.099886,0.000153,0.000048,,,,,,,,,
1692873792.524222,,,,,,,,,,,,,,,,,,,,,,,,,,,,,,,,,,,,,,,,,,,25695.000000,1692873792.517895,0.000000,0.000000,0.000000,0.000000,0.000000,0.000000
1692873792.535954,3.364858,-0.026036,0.000036,15.425709,0.001676,0.000008,0.016560,0.001601,-0.000046,-0.008091,-3.818563,-0.000653,0.005394,4.721731,0.000653,0.529920,2.698869,0.000094,-0.777000,0.154137,-0.002000,0.000000,0.502863,0.000590,-0.469000,0.214137,0.017000,0.069920,0.000123,0.000138,-1.281429,0.000002,-0.000038,13260.000000,1692873792.511516,0.851657,-1.569982,-0.000048,-0.047314,0.000153,0.000048,,,,,,,,,
1692873792.540079,,,,,,,,,,,,,,,,,,,,,,,,,,,,,,,,,,,,,,,,,,,25696.000000,1692873792.528620,0.000000,0.000000,0.000000,0.000000,0.000000,0.000000
1692873792.560015,,,,,,,,,,,,,,,,,,,,,,,,,,,,,,,,,,,,,,,,,,,25697.000000,1692873792.537805,0.000000,0.000000,0.000000,0.000000,0.000000,0.000000
1692873792.560441,0.954455,-0.025652,0.001591,18.045169,0.001676,-0.000243,0.044160,0.001601,-0.000046,-0.002697,-3.818563,-0.000653,0.008091,4.721731,0.000653,0.540960,2.698869,0.000094,-0.778000,0.155727,-0.006000,0.004503,0.502272,0.000000,-0.465000,0.215727,0.006000,0.055200,0.000123,0.000138,-1.406286,0.000002,-0.000038,13261.000000,1692873792.541501,0.904229,-1.569982,-0.000048,-0.026286,0.000153,0.000048,,,,,,,,,
1692873792.560460,,,,,,,,,,,,,,,,,,,,,,,,,,,,,,,,,,,,,,,,,,0.000000,,,,,,,,
1692873792.560477,,,,,,,,,,,,,,,,,,,,,,,,,,,,,,,,,,,,,,,,,,,25698.000000,1692873792.547922,0.000000,0.000000,0.000000,0.000000,0.000000,0.000000
1692873792.572607,,,,,,,,,,,,,,,,,,,,,,,,,,,,,,,,,,,,,,,,,,,25699.000000,1692873792.557951,0.000000,0.000000,0.000000,0.000000,0.000000,0.000000
1692873792.572617,0.905923,-0.025652,-0.000916,15.425709,0.001676,0.000010,-0.088320,0.001601,-0.000046,-0.005394,-3.818563,-0.000653,0.000000,4.721731,0.000653,0.529920,2.698869,0.000565,-0.778000,0.154954,-0.006000,0.001225,0.504045,0.000000,-0.469000,0.211955,0.009999,0.071760,0.000123,0.000138,-1.366857,0.000002,-0.000038,13262.000000,1692873792.561502,0.909486,-1.569982,-0.000048,-0.015771,0.000153,0.000048,,,,,,,,,
1692873792.586958,,,,,,,,,,,,,,,,,,,,,,,,,,,,,,,,,,,,,,,,,,,25701.000000,1692873792.577879,0.000000,0.000000,0.000000,0.000000,0.000000,0.000000
1692873792.609114,2.313340,-0.025652,-0.001090,18.627271,0.001676,0.000392,0.082800,0.001601,-0.000046,-0.002697,-3.818563,-0.000653,0.010788,4.721731,0.000653,0.563040,2.698869,0.000094,-0.779000,0.155545,-0.001000,-0.000408,0.503454,0.005318,-0.467000,0.213546,0.004000,0.042320,0.000123,0.000138,-1.439143,0.000002,-0.000038,13263.000000,1692873792.581494,0.872686,-1.569982,-0.000048,-0.031543,0.000153,0.000048,,,,,,,,,
1692873792.609137,,,,,,,,,,,,,,,,,,,,,,,,,,,,,,,,,,,,,,,,,,,25702.000000,1692873792.587893,0.000000,0.000000,0.000000,0.000000,0.000000,0.000000
1692873792.619462,,,,,,,,,,,,,,,,,,,,,,,,,,,,,,,,,,,,,,,,,,,25704.000000,1692873792.607759,0.000000,0.000000,0.000000,0.000000,0.000000,0.000000
1692873792.622625,2.361872,-0.025652,0.001080,17.754117,0.001676,-0.000312,0.209760,0.001601,-0.000046,-0.005394,-3.818563,-0.000653,0.005394,4.721731,0.000653,0.529920,2.698869,0.000094,-0.778000,0.156727,-0.001000,0.001225,0.502272,0.002363,-0.467000,0.212727,-0.001000,0.053360,0.000123,0.000138,-1.320857,0.000002,-0.000038,13264.000000,1692873792.601497,0.772800,-1.569982,-0.000048,-0.031543,0.000153,0.000048,,,,,,,,,
1692873792.630406,,,,,,,,,,,,,,,,,,,,,,,,,,,,,,,,,,,,,,,,,,,25705.000000,1692873792.617756,0.000000,0.000000,0.000000,0.000000,0.000000,0.000000
1692873792.634496,2.992782,-0.025652,-0.000785,16.007811,0.001676,-0.000262,0.005520,0.001601,-0.000046,-0.010788,-3.818563,-0.000653,0.005394,4.721731,0.000653,0.529920,2.698869,0.000094,-0.771000,0.161909,0.004000,0.005732,0.501090,-0.005909,-0.467000,0.212909,-0.008999,0.058880,0.000123,0.000138,-1.340571,0.000002,-0.000038,13265.000000,1692873792.621493,0.914743,-1.569982,-0.000048,-0.015771,0.000153,0.000048,,,,,,,,,
1692873792.644716,,,,,,,,,,,,,,,,,,,,,,,,,,,,,,,,,,,,,,,,,,,25706.000000,1692873792.627881,0.000000,0.000000,0.000000,0.000000,0.000000,0.000000
1692873792.656567,,,,,,,,,,,,,,,,,,,,,,,,,,,,,,,,,,,,,,,,,,,25707.000000,1692873792.637837,0.000000,0.000000,0.000000,0.000000,0.000000,0.000000
1692873792.659097,1.164759,-0.025652,0.000018,16.589913,0.001676,0.000677,-0.126960,0.001601,-0.000046,-0.002697,-3.818563,-0.000653,0.000000,4.721731,0.000653,0.496800,2.698869,0.003487,-0.771000,0.161909,0.017999,0.006141,0.501090,-0.005909,-0.469000,0.211909,-0.013000,0.057040,0.000123,0.000138,-1.301143,0.000002,-0.000038,13266.000000,1692873792.641499,0.904229,-1.569982,-0.000048,-0.078857,0.000153,0.000048,,,,,,,,,
1692873792.664817,,,,,,,,,,,,,,,,,,,,,,,,,,,,,,,,,,,,,,,,,,,25708.000000,1692873792.648020,0.000000,0.000000,0.000000,0.000000,0.000000,0.000000
1692873792.666463,,,,,,,,,,,,,,,,,,,,,,,,,,,,,,,,,,,,,,,,,,0.000000,,,,,,,,
1692873792.676473,,,,,,,,,,,,,,,,,,,,,,,,,,,,,,,,,,,,,,,,,,,25709.000000,1692873792.657863,0.000000,0.000000,0.000000,0.000000,0.000000,0.000000
1692873792.683888,0.922101,-0.025268,0.000246,16.589913,0.001676,-0.000014,0.071760,0.001606,0.001043,-0.002697,-3.818563,-0.000653,0.005394,4.721731,0.000653,0.574080,2.698869,0.000094,-0.771000,0.160910,0.017999,0.009007,0.501090,-0.005909,-0.469000,0.211909,-0.013000,0.007360,0.000123,0.000138,-1.274857,0.000002,-0.000038,13267.000000,1692873792.661498,0.893714,-1.569982,-0.000048,-0.021029,0.000153,0.000048,,,,,,,,,
1692873792.685288,,,,,,,,,,,,,,,,,,,,,,,,,,,,,,,,,,,,,,,,,,,25710.000000,1692873792.668108,0.000000,0.000000,0.000000,0.000000,0.000000,0.000000
1692873792.695430,,,,,,,,,,,,,,,,,,,,,,,,,,,,,,,,,,,,,,,,,,,25711.000000,1692873792.677831,0.000000,0.000000,0.000000,0.000000,0.000000,0.000000
1692873792.697011,0.517670,-0.025652,0.000842,15.425709,0.001676,0.000254,0.066240,0.001606,0.000046,-0.005394,-3.818563,-0.000653,0.008091,4.721731,0.000653,0.540960,2.698869,0.005853,-0.774000,0.157500,0.013000,0.001225,0.500499,-0.011227,-0.469000,0.213500,-0.013000,0.053360,0.000123,0.000138,-1.288000,0.000002,-0.000038,13268.000000,1692873792.681499,0.883200,-1.569982,-0.000048,-0.057829,0.000153,0.000048,,,,,,,,,
1692873792.702071,,,,,,,,,,,,,,,,,,,,,,,,,,,,,,,,,,,,,,,,,,,25712.000000,1692873792.688660,0.000000,0.000000,0.000000,0.000000,0.000000,0.000000
1692873792.710981,,,,,,,,,,,,,,,,,,,,,,,,,,,,,,,,,,,,,,,,,,,25713.000000,1692873792.698359,0.000000,0.000000,0.000000,0.000000,0.000000,0.000000
1692873792.717805,2.491289,-0.025652,0.000018,16.298862,0.001676,-0.000024,-0.038640,0.001606,0.000046,-0.002697,-3.818563,-0.000653,0.008091,4.721731,0.000653,0.574080,2.698869,0.000094,-0.772000,0.159910,-0.007000,0.003275,0.501090,-0.008272,-0.469000,0.213909,-0.008000,0.051520,0.000123,0.000138,-1.360286,0.000002,-0.000038,13269.000000,1692873792.691505,0.883200,-1.569982,-0.000048,-0.010514,0.000153,0.000048,,,,,,,,,
1692873792.724505,,,,,,,,,,,,,,,,,,,,,,,,,,,,,,,,,,,,,,,,,,,25715.000000,1692873792.717833,0.000000,0.000000,0.000000,0.000000,0.000000,0.000000
1692873792.734132,0.744151,-0.025652,0.000018,16.298862,0.001676,0.000324,-0.005520,0.001606,0.000046,-0.005394,-3.818563,-0.000653,0.002697,4.721731,0.000653,0.563040,2.698869,0.000094,-0.771000,0.159319,0.008000,0.000408,0.501681,-0.007681,-0.474000,0.211318,-0.021999,0.033120,0.000123,0.000138,-1.412857,0.000002,-0.000038,13270.000000,1692873792.721494,0.977829,-1.569982,-0.000048,0.110400,0.000153,0.000048,,,,,,,,,
1692873792.734870,,,,,,,,,,,,,,,,,,,,,,,,,,,,,,,,,,,,,,,,,,,25716.000000,1692873792.727898,0.000000,0.000000,0.000000,0.000000,0.000000,0.000000
1692873792.744483,,,,,,,,,,,,,,,,,,,,,,,,,,,,,,,,,,,,,,,,,,,25717.000000,1692873792.737968,0.000000,0.000000,0.000000,0.000000,0.000000,0.000000
1692873792.744492,1.455948,-0.025652,0.000018,14.843606,0.001676,0.000175,-0.033120,0.001606,0.000046,-0.002697,-3.818563,-0.000653,0.010788,4.721731,0.000653,0.563040,2.698869,0.000094,-0.771000,0.158728,0.008000,0.000408,0.502272,-0.001772,-0.469000,0.215727,-0.010999,0.053360,0.000123,0.000138,-1.360286,0.000002,-0.000038,13271.000000,1692873792.731510,0.977829,-1.569982,-0.000048,-0.005257,0.000153,0.000048,,,,,,,,,
1692873792.759163,,,,,,,,,,,,,,,,,,,,,,,,,,,,,,,,,,,,,,,,,,,25718.000000,1692873792.747707,0.000000,0.000000,0.000000,0.000000,0.000000,0.000000
1692873792.768302,,,,,,,,,,,,,,,,,,,,,,,,,,,,,,,,,,,,,,,,,,,25719.000000,1692873792.757832,0.000000,0.000000,0.000000,0.000000,0.000000,0.000000
1692873792.774127,0.582379,-0.025652,0.000175,18.336220,0.001676,0.000422,-0.099360,0.001606,0.000046,-0.008091,-3.818563,-0.000653,0.005394,4.721731,0.000653,0.529920,2.698869,0.000094,-0.778000,0.154545,0.003000,0.000817,0.503454,0.006499,-0.472000,0.213546,0.008999,0.044160,0.000123,0.000138,-1.353714,0.000002,-0.000038,13272.000000,1692873792.761505,0.914743,-1.569982,-0.000048,0.005257,0.000153,0.000048,,,,,,,,,
1692873792.774144,,,,,,,,,,,,,,,,,,,,,,,,,,,,,,,,,,,,,,,,,,0.000000,,,,,,,,
1692873792.777953,,,,,,,,,,,,,,,,,,,,,,,,,,,,,,,,,,,,,,,,,,,25720.000000,1692873792.768126,0.000000,0.000000,0.000000,0.000000,0.000000,0.000000
1692873792.787446,,,,,,,,,,,,,,,,,,,,,,,,,,,,,,,,,,,,,,,,,,,25721.000000,1692873792.778135,0.000000,0.000000,0.000000,0.000000,0.000000,0.000000
1692873792.793896,1.828024,-0.025652,-0.001001,16.007811,0.001676,0.000116,0.038640,0.001606,0.000046,-0.005394,-3.818563,-0.000653,0.002697,4.721731,0.000653,0.496800,2.698869,0.001884,-0.782000,0.153954,-0.002000,0.001225,0.504045,0.014772,-0.476000,0.211955,0.008999,0.016560,0.000123,0.000138,-1.366857,0.000002,-0.000038,13273.000000,1692873792.781498,0.720229,-1.569982,-0.000048,-0.063086,0.000153,0.000048,,,,,,,,,
1692873792.794285,,,,,,,,,,,,,,,,,,,,,,,,,,,,,,,,,,,,,,,,,,,25722.000000,1692873792.788129,0.000000,0.000000,0.000000,0.000000,0.000000,0.000000
1692873792.795127,,,,,,,,,,,,,,,,,,,,,,,,,,,,,,,,,,,,,,,,,,,25723.000000,1692873792.797778,0.000000,0.000000,0.000000,0.000000,0.000000,0.000000
1692873792.821309,1.342708,-0.025268,-0.000018,16.589913,0.001676,0.000020,-0.132480,0.001606,0.000046,-0.002697,-3.818563,-0.000653,0.002697,4.721731,0.000653,0.496800,2.698858,-0.000429,-0.785000,0.152136,-0.014999,0.004091,0.502863,0.005318,-0.474000,0.214137,-0.006000,0.051520,0.000123,0.000138,-1.334000,0.000002,-0.000038,13274.000000,1692873792.801509,0.925257,-1.569982,-0.000048,0.005257,0.000153,0.000048,,,,,,,,,
1692873792.824315,,,,,,,,,,,,,,,,,,,,,,,,,,,,,,,,,,,,,,,,,,,25724.000000,1692873792.810510,0.000000,0.000000,0.000000,0.000000,0.000000,0.000000
1692873792.843882,2.054505,-0.025652,0.001728,17.463066,0.001676,0.000008,-0.077280,0.001606,0.000046,-0.005394,-3.818563,-0.000653,0.005394,4.721731,0.000653,0.552000,2.698869,0.000094,-0.783000,0.153546,-0.014000,0.002454,0.503454,0.004727,-0.474000,0.212546,0.004000,0.062560,0.000123,0.000138,-1.386571,0.000006,0.000038,13275.000000,1692873792.821499,0.746514,-1.569982,-0.000048,-0.021029,0.000153,0.000048,,,,,,,,,
1692873792.843901,,,,,,,,,,,,,,,,,,,,,,,,,,,,,,,,,,,,,,,,,,,25726.000000,1692873792.828256,0.000000,0.000000,0.000000,0.000000,0.000000,0.000000
1692873792.858180,,,,,,,,,,,,,,,,,,,,,,,,,,,,,,,,,,,,,,,,,,,25727.000000,1692873792.837921,0.000000,0.000000,0.000000,0.000000,0.000000,0.000000
1692873792.862017,,,,,,,,,,,,,,,,,,,,,,,,,,,,,,,,,,,,,,,,,,,25728.000000,1692873792.847775,0.000000,0.000000,0.000000,0.000000,0.000000,0.000000
1692873792.862027,0.808860,-0.025652,0.000018,15.716760,0.001676,0.000062,-0.066240,0.001606,0.000046,-0.005394,-3.818563,-0.000653,0.000000,4.721731,0.000653,0.507840,2.698858,-0.000848,-0.783000,0.153546,-0.008999,0.001225,0.503454,0.004727,-0.469000,0.216546,0.004000,0.053360,0.000123,0.000138,-1.472000,0.000006,0.000038,13276.000000,1692873792.831507,0.867429,-1.569982,-0.000048,0.105143,0.000153,0.000048,,,,,,,,,
1692873792.875724,,,,,,,,,,,,,,,,,,,,,,,,,,,,,,,,,,,,,,,,,,,25729.000000,1692873792.857864,0.000000,0.000000,0.000000,0.000000,0.000000,0.000000
1692873792.875738,,,,,,,,,,,,,,,,,,,,,,,,,,,,,,,,,,,,,,,,,,0.000000,,,,,,,,
1692873792.876034,3.008960,-0.026036,0.000018,16.589913,0.001676,0.000008,-0.066240,0.001606,0.000046,-0.005394,-3.818563,-0.000653,0.002697,4.721731,0.000653,0.529920,2.698869,0.006618,-0.782000,0.153954,-0.008999,0.009824,0.504045,0.007090,-0.469000,0.214954,0.016000,0.071760,0.000123,0.000138,-1.445714,0.000006,0.000038,13277.000000,1692873792.861504,0.972571,-1.569982,-0.000048,-0.063086,0.000153,0.000048,,,,,,,,,
1692873792.894428,,,,,,,,,,,,,,,,,,,,,,,,,,,,,,,,,,,,,,,,,,,25730.000000,1692873792.867905,0.000000,0.000000,0.000000,0.000000,0.000000,0.000000
1692873792.894732,2.038328,-0.025652,0.000603,16.589913,0.001676,0.000015,-0.093840,0.001606,0.000046,-0.002697,-3.818563,-0.000653,0.008091,4.721731,0.000653,0.529920,2.698869,0.000094,-0.781000,0.155545,-0.004000,0.000817,0.503454,0.001181,-0.460000,0.219545,0.029999,0.055200,0.000123,0.000138,-1.334000,0.000006,0.000038,13278.000000,1692873792.881495,0.951543,-1.569982,-0.000048,-0.084114,0.000153,0.000048,,,,,,,,,
1692873792.894757,,,,,,,,,,,,,,,,,,,,,,,,,,,,,,,,,,,,,,,,,,,25731.000000,1692873792.878410,0.000000,0.000000,0.000000,0.000000,0.000000,0.000000
1692873792.917452,,,,,,,,,,,,,,,,,,,,,,,,,,,,,,,,,,,,,,,,,,,25733.000000,1692873792.897941,0.000000,0.000000,0.000000,0.000000,0.000000,0.000000
1692873792.924900,0.776506,-0.025652,-0.000066,16.589913,0.001676,0.000008,-0.110400,0.001606,0.000046,-0.008091,-3.818563,-0.000653,0.000000,4.721731,0.000653,0.563040,2.698869,0.000094,-0.777000,0.159137,0.014999,0.001225,0.502863,0.000590,-0.462000,0.217137,0.027000,0.005520,0.000123,0.000138,-1.498286,0.000006,0.000038,13279.000000,1692873792.901495,0.956800,-1.569982,-0.000048,0.031543,0.000153,0.000048,,,,,,,,,
1692873792.940816,,,,,,,,,,,,,,,,,,,,,,,,,,,,,,,,,,,,,,,,,,,25735.000000,1692873792.917757,0.000000,0.000000,0.000000,0.000000,0.000000,0.000000
1692873792.952411,1.164759,-0.025652,-0.000018,16.589913,0.001676,0.000022,-0.126960,0.001601,-0.000690,-0.002697,-3.818563,-0.000653,0.005394,4.721731,0.000653,0.596160,2.698869,0.000094,-0.774000,0.159728,0.014999,0.000408,0.502272,-0.005318,-0.458000,0.219728,0.016000,0.044160,0.000123,0.000138,-1.373429,0.000002,-0.000038,13280.000000,1692873792.921495,0.888457,-1.569982,-0.000048,-0.052571,0.000153,0.000048,,,,,,,,,
1692873792.967775,,,,,,,,,,,,,,,,,,,,,,,,,,,,,,,,,,,,,,,,,,,25737.000000,1692873792.937832,0.000000,0.000000,0.000000,0.000000,0.000000,0.000000
1692873792.985205,2.264808,-0.025652,-0.000967,16.007811,0.001676,0.000008,0.000000,0.001601,-0.000046,-0.005394,-3.818563,-0.000653,0.005394,4.721731,0.000653,0.540960,2.698869,0.000094,-0.769000,0.162318,0.024000,0.003275,0.501681,-0.002363,-0.460000,0.217318,0.018999,0.012880,0.000123,0.000138,-1.491714,0.000002,-0.000038,13281.000000,1692873792.941495,0.909486,-1.569982,-0.000048,-0.021029,0.000153,0.000048,,,,,,,,,
1692873792.988470,,,,,,,,,,,,,,,,,,,,,,,,,,,,,,,,,,,,,,,,,,,25740.000000,1692873792.968154,0.000000,0.000000,0.000000,0.000000,0.000000,0.000000
1692873793.005413,,,,,,,,,,,,,,,,,,,,,,,,,,,,,,,,,,,,,,,,,,,25741.000000,1692873792.977960,0.000000,0.000000,0.000000,0.000000,0.000000,0.000000
1692873793.005622,0.922101,-0.025652,-0.000018,17.172015,0.001676,0.000008,-0.143520,0.001601,-0.000046,-0.008091,-3.818563,-0.000653,0.010788,4.721731,0.000653,0.386400,2.698858,-0.000764,-0.773000,0.158319,0.007000,0.002866,0.501681,-0.004727,-0.460000,0.216318,0.008999,0.055200,0.000123,0.000138,-1.432571,0.000002,-0.000038,13282.000000,1692873792.961501,0.778057,-1.569982,-0.000048,0.005257,0.000153,0.000048,,,,,,,,,
1692873793.006396,,,,,,,,,,,,,,,,,,,,,,,,,,,,,,,,,,,,,,,,,,0.000000,,,,,,,,
1692873793.007543,1.536834,-0.025652,0.000018,15.425709,0.001676,0.000008,-0.209760,0.001601,-0.000046,-0.002697,-3.818563,-0.000653,-0.002697,4.721731,0.000653,0.507840,2.698858,-0.006042,-0.773000,0.158728,0.002000,0.000000,0.502272,-0.007090,-0.460000,0.214728,-0.001000,0.080960,0.000123,0.000138,-1.360286,0.000002,-0.000038,13283.000000,1692873792.981498,0.962057,-1.569982,-0.000048,-0.047314,0.000153,0.000048,,,,,,,,,
1692873793.009860,,,,,,,,,,,,,,,,,,,,,,,,,,,,,,,,,,,,,,,,,,,25742.000000,1692873792.989890,0.000000,0.000000,0.000000,0.000000,0.000000,0.000000
1692873793.035202,0.889746,-0.025652,0.000018,16.007811,0.001676,0.000008,-0.071760,0.001601,-0.000046,-0.008091,-3.818563,-0.000653,0.005394,4.721731,0.000653,0.518880,2.698869,0.000094,-0.773000,0.156727,0.001000,0.001637,0.502272,-0.001181,-0.460000,0.214728,-0.001000,0.033120,0.000123,0.000138,-1.353714,0.000002,-0.000038,13284.000000,1692873793.001501,0.867429,-1.569982,-0.000048,-0.047314,0.000153,0.000048,,,,,,,,,
1692873793.035222,,,,,,,,,,,,,,,,,,,,,,,,,,,,,,,,,,,,,,,,,,,25744.000000,1692873793.007874,0.000000,0.000000,0.000000,0.000000,0.000000,0.000000
1692873793.043824,,,,,,,,,,,,,,,,,,,,,,,,,,,,,,,,,,,,,,,,,,,25745.000000,1692873793.017858,0.000000,0.000000,0.000000,0.000000,0.000000,0.000000
1692873793.052150,0.630911,-0.025652,0.000551,16.589913,0.001676,0.000008,0.038640,0.001601,-0.000046,-0.002697,-3.818563,-0.000653,0.000000,4.721731,0.000653,0.518880,2.698869,0.000094,-0.777000,0.155727,-0.008000,-0.000817,0.502272,-0.001181,-0.462000,0.214728,-0.004999,0.066240,0.000123,0.000138,-1.373429,0.000002,-0.000038,13286.000000,1692873793.031504,0.883200,-1.569982,-0.000048,-0.031543,0.000153,0.000048,,,,,,,,,
1692873793.054938,,,,,,,,,,,,,,,,,,,,,,,,,,,,,,,,,,,,,,,,,,,25746.000000,1692873793.027867,0.000000,0.000000,0.000000,0.000000,0.000000,0.000000
1692873793.062317,,,,,,,,,,,,,,,,,,,,,,,,,,,,,,,,,,,,,,,,,,,25747.000000,1692873793.039003,0.000000,0.000000,0.000000,0.000000,0.000000,0.000000
1692873793.068972,,,,,,,,,,,,,,,,,,,,,,,,,,,,,,,,,,,,,,,,,,,25748.000000,1692873793.047986,0.000000,0.000000,0.000000,0.000000,0.000000,0.000000
1692873793.075262,,,,,,,,,,,,,,,,,,,,,,,,,,,,,,,,,,,,,,,,,,,25749.000000,1692873793.057861,0.000000,0.000000,0.000000,0.000000,0.000000,0.000000
1692873793.075518,3.316327,-0.026036,0.000054,15.716760,0.001676,-0.000027,-0.027600,0.001601,-0.000046,-0.005394,-3.818563,-0.000653,0.002697,4.721731,0.000653,0.452640,2.698869,0.005937,-0.774000,0.159728,0.002000,0.004912,0.502272,-0.001181,-0.462000,0.214728,0.000000,0.073600,0.000123,0.000138,-1.432571,0.000002,-0.000038,13287.000000,1692873793.061500,0.951543,-1.569982,-0.000048,-0.036800,0.000153,0.000048,,,,,,,,,
1692873793.081099,,,,,,,,,,,,,,,,,,,,,,,,,,,,,,,,,,,,,,,,,,,25750.000000,1692873793.070468,0.000000,0.000000,0.000000,0.000000,0.000000,0.000000
1692873793.091714,2.119214,-0.026036,0.001074,14.843606,0.001676,-0.000636,-0.121440,0.001601,-0.000046,-0.005394,-3.818563,-0.000653,0.000000,4.721731,0.000653,0.474720,2.698869,0.000094,-0.773000,0.160910,0.010999,0.008186,0.501090,-0.001181,-0.462000,0.213909,0.000000,0.022080,0.000123,0.000138,-1.452286,0.000006,0.000712,13288.000000,1692873793.071503,0.888457,-1.569982,-0.000048,0.047314,0.000153,0.000048,,,,,,,,,
1692873793.093104,,,,,,,,,,,,,,,,,,,,,,,,,,,,,,,,,,,,,,,,,,,25751.000000,1692873793.080081,0.000000,0.000000,0.000000,0.000000,0.000000,0.000000
1692873793.105883,,,,,,,,,,,,,,,,,,,,,,,,,,,,,,,,,,,,,,,,,,,25753.000000,1692873793.098523,0.000000,0.000000,0.000000,0.000000,0.000000,0.000000
1692873793.105896,,,,,,,,,,,,,,,,,,,,,,,,,,,,,,,,,,,,,,,,,,0.000000,,,,,,,,
1692873793.121618,2.701593,-0.026036,-0.000018,17.172015,0.001676,0.000035,-0.077280,0.001601,-0.000046,-0.008091,-3.818563,-0.000653,0.005394,4.721731,0.000653,0.596160,2.698869,0.000094,-0.771000,0.161909,0.014999,0.001637,0.501090,-0.003545,-0.462000,0.214910,-0.004999,0.023920,0.000123,0.000138,-1.472000,0.000006,0.000266,13289.000000,1692873793.101508,1.014629,-1.569982,-0.000048,0.052571,0.000153,0.000048,,,,,,,,,
1692873793.125445,,,,,,,,,,,,,,,,,,,,,,,,,,,,,,,,,,,,,,,,,,,25754.000000,1692873793.112271,0.000000,0.000000,0.000000,0.000000,0.000000,0.000000
1692873793.135757,,,,,,,,,,,,,,,,,,,,,,,,,,,,,,,,,,,,,,,,,,,25755.000000,1692873793.118032,0.000000,0.000000,0.000000,0.000000,0.000000,0.000000
1692873793.142998,1.730961,-0.025652,0.000838,15.716760,0.001676,0.000008,-0.110400,0.001601,-0.000046,-0.005394,-3.818563,-0.000653,0.010788,4.721731,0.000653,0.419520,2.698858,-0.001151,-0.773000,0.159910,0.014999,0.000817,0.501090,0.000000,-0.460000,0.216909,0.004999,0.064400,0.000123,0.000138,-1.334000,0.000006,0.000038,13290.000000,1692873793.121497,0.856914,-1.569982,-0.000048,0.031543,0.000153,0.000048,,,,,,,,,
1692873793.143038,,,,,,,,,,,,,,,,,,,,,,,,,,,,,,,,,,,,,,,,,,,25756.000000,1692873793.129426,0.000000,0.000000,0.000000,0.000000,0.000000,0.000000
1692873793.152128,,,,,,,,,,,,,,,,,,,,,,,,,,,,,,,,,,,,,,,,,,,25757.000000,1692873793.137849,0.000000,0.000000,0.000000,0.000000,0.000000,0.000000
1692873793.166086,0.792683,-0.025652,0.000274,15.134658,0.001676,0.000201,-0.171120,0.001601,-0.000046,-0.005394,-3.818563,-0.000653,0.005394,4.721731,0.000653,0.540960,2.698869,0.000094,-0.776000,0.158319,0.000000,0.000408,0.501681,-0.002954,-0.462000,0.214319,0.004999,0.051520,0.000123,0.000138,-1.366857,0.000006,0.000038,13291.000000,1692873793.141501,1.035657,-1.569982,-0.000048,-0.005257,0.000153,0.000048,,,,,,,,,
1692873793.173352,,,,,,,,,,,,,,,,,,,,,,,,,,,,,,,,,,,,,,,,,,,25758.000000,1692873793.148788,0.000000,0.000000,0.000000,0.000000,0.000000,0.000000
1692873793.175424,,,,,,,,,,,,,,,,,,,,,,,,,,,,,,,,,,,,,,,,,,,25759.000000,1692873793.157862,0.000000,0.000000,0.000000,0.000000,0.000000,0.000000
1692873793.178159,3.736934,-0.026036,0.000317,17.463066,0.001676,-0.000261,-0.082800,0.001601,-0.000046,-0.005394,-3.818563,-0.000653,0.002697,4.721731,0.000653,0.474720,2.698869,0.004900,-0.779000,0.155727,0.000000,0.000000,0.502272,-0.002954,-0.458000,0.217728,0.000000,0.011040,0.000123,0.000138,-1.419429,0.000002,-0.000038,13292.000000,1692873793.161506,0.904229,-1.569982,-0.000048,0.005257,0.000153,0.000048,,,,,,,,,
1692873793.178176,,,,,,,,,,,,,,,,,,,,,,,,,,,,,,,,,,,,,,,,,,,25760.000000,1692873793.167847,0.000000,0.000000,0.000000,0.000000,0.000000,0.000000
1692873793.196623,,,,,,,,,,,,,,,,,,,,,,,,,,,,,,,,,,,,,,,,,,,25761.000000,1692873793.177855,0.000000,0.000000,0.000000,0.000000,0.000000,0.000000
1692873793.212662,3.931060,-0.026036,0.001335,16.298862,0.001676,0.000008,-0.182160,0.001601,-0.000046,-0.008091,-3.818563,-0.000653,0.008091,4.721731,0.000653,0.474720,2.698858,-0.001277,-0.779000,0.156136,0.000000,0.008186,0.502863,0.002363,-0.458000,0.216136,0.018999,0.036800,0.000123,0.000138,-1.419429,0.000006,0.000347,13293.000000,1692873793.181505,0.951543,-1.569982,-0.000048,-0.036800,0.000153,0.000048,,,,,,,,,
1692873793.221806,,,,,,,,,,,,,,,,,,,,,,,,,,,,,,,,,,,,,,,,,,,25762.000000,1692873793.188026,0.000000,0.000000,0.000000,0.000000,0.000000,0.000000
1692873793.227497,,,,,,,,,,,,,,,,,,,,,,,,,,,,,,,,,,,,,,,,,,0.000000,,,,,,,,
1692873793.227658,,,,,,,,,,,,,,,,,,,,,,,,,,,,,,,,,,,,,,,,,,,25763.000000,1692873793.198242,0.000000,0.000000,0.000000,0.000000,0.000000,0.000000
1692873793.239682,,,,,,,,,,,,,,,,,,,,,,,,,,,,,,,,,,,,,,,,,,,25764.000000,1692873793.208410,0.000000,0.000000,0.000000,0.000000,0.000000,0.000000
1692873793.244777,2.928074,-0.026036,0.000018,17.172015,0.001676,-0.000267,-0.165600,0.001601,-0.000046,-0.008091,-3.818563,-0.000653,0.008091,4.721731,0.000653,0.419520,2.698858,-0.000251,-0.782000,0.156727,-0.004999,-0.000408,0.502272,0.002363,-0.460000,0.214728,0.004000,0.046000,0.000123,0.000138,-1.478571,0.000002,-0.000038,13294.000000,1692873793.201495,0.814857,-1.569982,-0.000048,0.047314,0.000153,0.000048,,,,,,,,,
1692873793.259051,,,,,,,,,,,,,,,,,,,,,,,,,,,,,,,,,,,,,,,,,,,25765.000000,1692873793.217830,0.000000,0.000000,0.000000,0.000000,0.000000,0.000000
1692873793.271071,,,,,,,,,,,,,,,,,,,,,,,,,,,,,,,,,,,,,,,,,,,25766.000000,1692873793.228144,0.000000,0.000000,0.000000,0.000000,0.000000,0.000000
1692873793.271262,2.426580,-0.025652,-0.000488,15.134658,0.001676,0.000273,-0.215280,0.001601,-0.000046,-0.005394,-3.818563,-0.000653,0.008091,4.721731,0.000653,0.585120,2.698869,0.005298,-0.788000,0.151955,-0.023000,0.001637,0.504045,-0.000590,-0.465000,0.212955,0.004000,0.057040,0.000123,0.000138,-1.360286,0.000002,-0.000038,13296.000000,1692873793.231513,0.962057,-1.569982,-0.000048,-0.010514,0.000153,0.000048,,,,,,,,,
1692873793.277731,,,,,,,,,,,,,,,,,,,,,,,,,,,,,,,,,,,,,,,,,,,25768.000000,1692873793.247865,0.000000,0.000000,0.000000,0.000000,0.000000,0.000000
1692873793.290425,,,,,,,,,,,,,,,,,,,,,,,,,,,,,,,,,,,,,,,,,,,25769.000000,1692873793.257999,0.000000,0.000000,0.000000,0.000000,0.000000,0.000000
1692873793.297719,3.688402,-0.025652,-0.000791,15.716760,0.001676,0.000008,-0.176640,0.001601,-0.000046,-0.005394,-3.818563,-0.000653,0.000000,4.721731,0.000653,0.529920,2.698869,0.000094,-0.785000,0.156136,-0.006000,0.001225,0.502863,-0.000590,-0.456000,0.219137,0.008999,0.053360,0.000123,0.000138,-1.307714,0.000002,-0.000038,13297.000000,1692873793.261497,0.972571,-1.569982,-0.000048,-0.047314,0.000153,0.000048,,,,,,,,,
1692873793.297741,,,,,,,,,,,,,,,,,,,,,,,,,,,,,,,,,,,,,,,,,,,25771.000000,1692873793.277862,0.000000,0.000000,0.000000,0.000000,0.000000,0.000000
1692873793.307432,,,,,,,,,,,,,,,,,,,,,,,,,,,,,,,,,,,,,,,,,,,25772.000000,1692873793.288494,0.000000,0.000000,0.000000,0.000000,0.000000,0.000000
1692873793.307518,2.653061,-0.025652,0.000060,17.172015,0.001677,0.000623,-0.110400,0.001601,-0.000046,-0.005394,-3.818563,-0.000653,0.002697,4.721731,0.000653,0.518880,2.698869,0.000230,-0.778000,0.159910,-0.004999,0.008598,0.501090,0.002363,-0.456000,0.217909,0.017000,0.020240,0.000123,0.000138,-1.458857,0.000002,-0.000038,13298.000000,1692873793.281502,0.888457,-1.569982,-0.000048,0.010514,0.000153,0.000048,,,,,,,,,
