__time,/hsrb/wrist_wrench/compensated/header/seq,/hsrb/wrist_wrench/compensated/header/stamp,/hsrb/wrist_wrench/compensated/wrench/force/x,/hsrb/wrist_wrench/compensated/wrench/force/y,/hsrb/wrist_wrench/compensated/wrench/force/z,/hsrb/wrist_wrench/compensated/wrench/torque/x,/hsrb/wrist_wrench/compensated/wrench/torque/y,/hsrb/wrist_wrench/compensated/wrench/torque/z
1694167489.917068,97957.000000,1694167489.909300,0.000000,0.000000,0.000000,0.000000,0.000000,0.000000
1694167489.928514,97958.000000,1694167489.919420,0.000000,0.000000,0.000000,0.000000,0.000000,0.000000
1694167489.943645,97959.000000,1694167489.929247,0.000000,0.000000,0.000000,0.000000,0.000000,0.000000
1694167489.957740,97960.000000,1694167489.939270,0.000000,0.000000,0.000000,0.000000,0.000000,0.000000
1694167489.973147,97962.000000,1694167489.959290,0.000000,0.000000,0.000000,0.000000,0.000000,0.000000
1694167489.989516,97963.000000,1694167489.969218,0.000000,0.000000,0.000000,0.000000,0.000000,0.000000
1694167490.006248,97965.000000,1694167489.989393,0.000000,0.000000,0.000000,0.000000,0.000000,0.000000
1694167490.016389,97966.000000,1694167489.999296,0.000000,0.000000,0.000000,0.000000,0.000000,0.000000
1694167490.023901,97967.000000,1694167490.010112,0.000000,0.000000,0.000000,0.000000,0.000000,0.000000
1694167490.043074,97968.000000,1694167490.019423,0.000000,0.000000,0.000000,0.000000,0.000000,0.000000
1694167490.055734,97969.000000,1694167490.029305,0.000000,0.000000,0.000000,0.000000,0.000000,0.000000
1694167490.064746,97970.000000,1694167490.039262,0.000000,0.000000,0.000000,0.000000,0.000000,0.000000
1694167490.074027,97971.000000,1694167490.049281,0.000000,0.000000,0.000000,0.000000,0.000000,0.000000
1694167490.081417,97973.000000,1694167490.069291,0.000000,0.000000,0.000000,0.000000,0.000000,0.000000
1694167490.089484,97974.000000,1694167490.079476,0.000000,0.000000,0.000000,0.000000,0.000000,0.000000
1694167490.103881,97975.000000,1694167490.089420,0.000000,0.000000,0.000000,0.000000,0.000000,0.000000
1694167490.116197,97977.000000,1694167490.109383,0.000000,0.000000,0.000000,0.000000,0.000000,0.000000
1694167490.124528,97978.000000,1694167490.119440,0.000000,0.000000,0.000000,0.000000,0.000000,0.000000
1694167490.140612,97979.000000,1694167490.129267,0.000000,0.000000,0.000000,0.000000,0.000000,0.000000
1694167490.152330,97980.000000,1694167490.139265,0.000000,0.000000,0.000000,0.000000,0.000000,0.000000
1694167490.160731,97981.000000,1694167490.149294,0.000000,0.000000,0.000000,0.000000,0.000000,0.000000
1694167490.172229,97982.000000,1694167490.159415,0.000000,0.000000,0.000000,0.000000,0.000000,0.000000
1694167490.182924,97983.000000,1694167490.169165,0.000000,0.000000,0.000000,0.000000,0.000000,0.000000
1694167490.194389,97984.000000,1694167490.180645,0.000000,0.000000,0.000000,0.000000,0.000000,0.000000
1694167490.196373,97985.000000,1694167490.189684,0.000000,0.000000,0.000000,0.000000,0.000000,0.000000
1694167490.208837,97986.000000,1694167490.199374,0.000000,0.000000,0.000000,0.000000,0.000000,0.000000
1694167490.219871,97987.000000,1694167490.209237,0.000000,0.000000,0.000000,0.000000,0.000000,0.000000
1694167490.234104,97988.000000,1694167490.226684,0.000000,0.000000,0.000000,0.000000,0.000000,0.000000
1694167490.236116,97989.000000,1694167490.229445,0.000000,0.000000,0.000000,0.000000,0.000000,0.000000
1694167490.246499,97990.000000,1694167490.239529,0.000000,0.000000,0.000000,0.000000,0.000000,0.000000
1694167490.261557,97991.000000,1694167490.250638,0.000000,0.000000,0.000000,0.000000,0.000000,0.000000
1694167490.272238,97992.000000,1694167490.259290,0.000000,0.000000,0.000000,0.000000,0.000000,0.000000
1694167490.281527,97993.000000,1694167490.269412,0.000000,0.000000,0.000000,0.000000,0.000000,0.000000
1694167490.290287,97994.000000,1694167490.279293,0.000000,0.000000,0.000000,0.000000,0.000000,0.000000
1694167490.305408,97995.000000,1694167490.289236,0.000000,0.000000,0.000000,0.000000,0.000000,0.000000
1694167490.314414,97996.000000,1694167490.299402,0.000000,0.000000,0.000000,0.000000,0.000000,0.000000
1694167490.316591,97997.000000,1694167490.309181,0.000000,0.000000,0.000000,0.000000,0.000000,0.000000
1694167490.326960,97998.000000,1694167490.319438,0.000000,0.000000,0.000000,0.000000,0.000000,0.000000
1694167490.337346,97999.000000,1694167490.329498,0.000000,0.000000,0.000000,0.000000,0.000000,0.000000
1694167490.347557,98000.000000,1694167490.339387,0.000000,0.000000,0.000000,0.000000,0.000000,0.000000
1694167490.364630,98001.000000,1694167490.349827,0.000000,0.000000,0.000000,0.000000,0.000000,0.000000
1694167490.371811,98002.000000,1694167490.359269,0.000000,0.000000,0.000000,0.000000,0.000000,0.000000
1694167490.382987,98003.000000,1694167490.369393,0.000000,0.000000,0.000000,0.000000,0.000000,0.000000
1694167490.394549,98004.000000,1694167490.379167,0.000000,0.000000,0.000000,0.000000,0.000000,0.000000
1694167490.405727,98005.000000,1694167490.389378,0.000000,0.000000,0.000000,0.000000,0.000000,0.000000
1694167490.415804,98006.000000,1694167490.399259,0.000000,0.000000,0.000000,0.000000,0.000000,0.000000
1694167490.417491,98007.000000,1694167490.409718,0.000000,0.000000,0.000000,0.000000,0.000000,0.000000
1694167490.427615,98008.000000,1694167490.419294,0.000000,0.000000,0.000000,0.000000,0.000000,0.000000
1694167490.435828,98009.000000,1694167490.429374,0.000000,0.000000,0.000000,0.000000,0.000000,0.000000
1694167490.444981,98010.000000,1694167490.439415,0.000000,0.000000,0.000000,0.000000,0.000000,0.000000
1694167490.454953,98011.000000,1694167490.449722,0.000000,0.000000,0.000000,0.000000,0.000000,0.000000
1694167490.468499,98012.000000,1694167490.459307,0.000000,0.000000,0.000000,0.000000,0.000000,0.000000
1694167490.479419,98013.000000,1694167490.469505,0.000000,0.000000,0.000000,0.000000,0.000000,0.000000
1694167490.489125,98014.000000,1694167490.480525,0.000000,0.000000,0.000000,0.000000,0.000000,0.000000
1694167490.497370,98015.000000,1694167490.489992,0.000000,0.000000,0.000000,0.000000,0.000000,0.000000
1694167490.507544,98016.000000,1694167490.499285,0.000000,0.000000,0.000000,0.000000,0.000000,0.000000
1694167490.517653,98017.000000,1694167490.509407,0.000000,0.000000,0.000000,0.000000,0.000000,0.000000
1694167490.527244,98018.000000,1694167490.520386,0.000000,0.000000,0.000000,0.000000,0.000000,0.000000
1694167490.537380,98019.000000,1694167490.530166,0.000000,0.000000,0.000000,0.000000,0.000000,0.000000
1694167490.545615,98020.000000,1694167490.540255,0.000000,0.000000,0.000000,0.000000,0.000000,0.000000
1694167490.559773,98021.000000,1694167490.555932,0.000000,0.000000,0.000000,0.000000,0.000000,0.000000
1694167490.572911,98022.000000,1694167490.559380,0.000000,0.000000,0.000000,0.000000,0.000000,0.000000
1694167490.581054,98023.000000,1694167490.569241,0.000000,0.000000,0.000000,0.000000,0.000000,0.000000
1694167490.594901,98024.000000,1694167490.579433,0.000000,0.000000,0.000000,0.000000,0.000000,0.000000
1694167490.596952,98025.000000,1694167490.591719,0.000000,0.000000,0.000000,0.000000,0.000000,0.000000
1694167490.611519,98026.000000,1694167490.599271,0.000000,0.000000,0.000000,0.000000,0.000000,0.000000
1694167490.615852,98027.000000,1694167490.612123,0.000000,0.000000,0.000000,0.000000,0.000000,0.000000
1694167490.634018,98028.000000,1694167490.624427,0.000000,0.000000,0.000000,0.000000,0.000000,0.000000
1694167490.643579,98029.000000,1694167490.629249,0.000000,0.000000,0.000000,0.000000,0.000000,0.000000
1694167490.656276,98030.000000,1694167490.639365,0.000000,0.000000,0.000000,0.000000,0.000000,0.000000
1694167490.657992,98031.000000,1694167490.650140,0.000000,0.000000,0.000000,0.000000,0.000000,0.000000
1694167490.667167,98032.000000,1694167490.659373,0.000000,0.000000,0.000000,0.000000,0.000000,0.000000
1694167490.674710,98033.000000,1694167490.669373,0.000000,0.000000,0.000000,0.000000,0.000000,0.000000
1694167490.685940,98034.000000,1694167490.679508,0.000000,0.000000,0.000000,0.000000,0.000000,0.000000
1694167490.697768,98035.000000,1694167490.693303,0.000000,0.000000,0.000000,0.000000,0.000000,0.000000
1694167490.709160,98036.000000,1694167490.699274,0.000000,0.000000,0.000000,0.000000,0.000000,0.000000
1694167490.727467,98037.000000,1694167490.712354,0.000000,0.000000,0.000000,0.000000,0.000000,0.000000
1694167490.734205,98038.000000,1694167490.719296,0.000000,0.000000,0.000000,0.000000,0.000000,0.000000
1694167490.734230,98039.000000,1694167490.729193,0.000000,0.000000,0.000000,0.000000,0.000000,0.000000
1694167490.749140,98040.000000,1694167490.739231,0.000000,0.000000,0.000000,0.000000,0.000000,0.000000
1694167490.761881,98041.000000,1694167490.749529,0.000000,0.000000,0.000000,0.000000,0.000000,0.000000
1694167490.773877,98042.000000,1694167490.759671,0.000000,0.000000,0.000000,0.000000,0.000000,0.000000
1694167490.784643,98043.000000,1694167490.769855,0.000000,0.000000,0.000000,0.000000,0.000000,0.000000
1694167490.791911,98044.000000,1694167490.779258,0.000000,0.000000,0.000000,0.000000,0.000000,0.000000
1694167490.802421,98045.000000,1694167490.789339,0.000000,0.000000,0.000000,0.000000,0.000000,0.000000
1694167490.813125,98046.000000,1694167490.799621,0.000000,0.000000,0.000000,0.000000,0.000000,0.000000
1694167490.818817,98047.000000,1694167490.811334,0.000000,0.000000,0.000000,0.000000,0.000000,0.000000
1694167490.829493,98048.000000,1694167490.819412,0.000000,0.000000,0.000000,0.000000,0.000000,0.000000
1694167490.840749,98049.000000,1694167490.830496,0.000000,0.000000,0.000000,0.000000,0.000000,0.000000
1694167490.848649,98050.000000,1694167490.839288,0.000000,0.000000,0.000000,0.000000,0.000000,0.000000
1694167490.861343,98051.000000,1694167490.849244,0.000000,0.000000,0.000000,0.000000,0.000000,0.000000
1694167490.873778,98052.000000,1694167490.859288,0.000000,0.000000,0.000000,0.000000,0.000000,0.000000
1694167490.883085,98053.000000,1694167490.869375,0.000000,0.000000,0.000000,0.000000,0.000000,0.000000
1694167490.888680,98054.000000,1694167490.881749,0.000000,0.000000,0.000000,0.000000,0.000000,0.000000
1694167490.900046,98055.000000,1694167490.891510,0.000000,0.000000,0.000000,0.000000,0.000000,0.000000
1694167490.908651,98056.000000,1694167490.899147,0.000000,0.000000,0.000000,0.000000,0.000000,0.000000
1694167490.917846,98057.000000,1694167490.909279,0.000000,0.000000,0.000000,0.000000,0.000000,0.000000
1694167490.934024,98058.000000,1694167490.919624,0.000000,0.000000,0.000000,0.000000,0.000000,0.000000
1694167490.944072,98060.000000,1694167490.939290,0.000000,0.000000,0.000000,0.000000,0.000000,0.000000
1694167490.958636,98061.000000,1694167490.949369,0.000000,0.000000,0.000000,0.000000,0.000000,0.000000
1694167490.974010,98062.000000,1694167490.960042,0.000000,0.000000,0.000000,0.000000,0.000000,0.000000
1694167490.985862,98063.000000,1694167490.969129,0.000000,0.000000,0.000000,0.000000,0.000000,0.000000
1694167490.988934,98064.000000,1694167490.982051,0.000000,0.000000,0.000000,0.000000,0.000000,0.000000
1694167490.997812,98065.000000,1694167490.989630,0.000000,0.000000,0.000000,0.000000,0.000000,0.000000
1694167491.012886,98066.000000,1694167490.999597,0.000000,0.000000,0.000000,0.000000,0.000000,0.000000
1694167491.023482,98067.000000,1694167491.009232,0.000000,0.000000,0.000000,0.000000,0.000000,0.000000
1694167491.033841,98068.000000,1694167491.019816,0.000000,0.000000,0.000000,0.000000,0.000000,0.000000
1694167491.044870,98069.000000,1694167491.029661,0.000000,0.000000,0.000000,0.000000,0.000000,0.000000
1694167491.052462,98070.000000,1694167491.039142,0.000000,0.000000,0.000000,0.000000,0.000000,0.000000
1694167491.063566,98071.000000,1694167491.049230,0.000000,0.000000,0.000000,0.000000,0.000000,0.000000
1694167491.073721,98072.000000,1694167491.060357,0.000000,0.000000,0.000000,0.000000,0.000000,0.000000
1694167491.081917,98073.000000,1694167491.069565,0.000000,0.000000,0.000000,0.000000,0.000000,0.000000
1694167491.105883,98074.000000,1694167491.082697,0.000000,0.000000,0.000000,0.000000,0.000000,0.000000
1694167491.109653,98075.000000,1694167491.089260,0.000000,0.000000,0.000000,0.000000,0.000000,0.000000
1694167491.121186,98077.000000,1694167491.109415,0.000000,0.000000,0.000000,0.000000,0.000000,0.000000
1694167491.144156,98078.000000,1694167491.119291,0.000000,0.000000,0.000000,0.000000,0.000000,0.000000
1694167491.145664,98080.000000,1694167491.139271,0.000000,0.000000,0.000000,0.000000,0.000000,0.000000
1694167491.164383,98081.000000,1694167491.149325,0.000000,0.000000,0.000000,0.000000,0.000000,0.000000
1694167491.184413,98082.000000,1694167491.159401,0.000000,0.000000,0.000000,0.000000,0.000000,0.000000
1694167491.185631,98083.000000,1694167491.169335,0.000000,0.000000,0.000000,0.000000,0.000000,0.000000
1694167491.193037,98084.000000,1694167491.179430,0.000000,0.000000,0.000000,0.000000,0.000000,0.000000
1694167491.200392,98085.000000,1694167491.189759,0.000000,0.000000,0.000000,0.000000,0.000000,0.000000
1694167491.212824,98086.000000,1694167491.199497,0.000000,0.000000,0.000000,0.000000,0.000000,0.000000
1694167491.235875,98087.000000,1694167491.209191,0.000000,0.000000,0.000000,0.000000,0.000000,0.000000
1694167491.238664,98088.000000,1694167491.219243,0.000000,0.000000,0.000000,0.000000,0.000000,0.000000
1694167491.249186,98089.000000,1694167491.229275,0.000000,0.000000,0.000000,0.000000,0.000000,0.000000
1694167491.252813,98090.000000,1694167491.239384,0.000000,0.000000,0.000000,0.000000,0.000000,0.000000
1694167491.258770,98091.000000,1694167491.249236,0.000000,0.000000,0.000000,0.000000,0.000000,0.000000
1694167491.267826,98092.000000,1694167491.260128,0.000000,0.000000,0.000000,0.000000,0.000000,0.000000
1694167491.273405,98093.000000,1694167491.269509,0.000000,0.000000,0.000000,0.000000,0.000000,0.000000
1694167491.294994,98094.000000,1694167491.279416,0.000000,0.000000,0.000000,0.000000,0.000000,0.000000
1694167491.308352,98095.000000,1694167491.294807,0.000000,0.000000,0.000000,0.000000,0.000000,0.000000
1694167491.312798,98096.000000,1694167491.299282,0.000000,0.000000,0.000000,0.000000,0.000000,0.000000
1694167491.320121,98097.000000,1694167491.310167,0.000000,0.000000,0.000000,0.000000,0.000000,0.000000
1694167491.328267,98098.000000,1694167491.319280,0.000000,0.000000,0.000000,0.000000,0.000000,0.000000
1694167491.337784,98099.000000,1694167491.333663,0.000000,0.000000,0.000000,0.000000,0.000000,0.000000
1694167491.348686,98100.000000,1694167491.339407,0.000000,0.000000,0.000000,0.000000,0.000000,0.000000
1694167491.359944,98101.000000,1694167491.349157,0.000000,0.000000,0.000000,0.000000,0.000000,0.000000
1694167491.377353,98102.000000,1694167491.362795,0.000000,0.000000,0.000000,0.000000,0.000000,0.000000
1694167491.387527,98104.000000,1694167491.379788,0.000000,0.000000,0.000000,0.000000,0.000000,0.000000
1694167491.406758,98105.000000,1694167491.390279,0.000000,0.000000,0.000000,0.000000,0.000000,0.000000
1694167491.410422,98106.000000,1694167491.399381,0.000000,0.000000,0.000000,0.000000,0.000000,0.000000
1694167491.423625,98107.000000,1694167491.409379,0.000000,0.000000,0.000000,0.000000,0.000000,0.000000
1694167491.439290,98108.000000,1694167491.419488,0.000000,0.000000,0.000000,0.000000,0.000000,0.000000
1694167491.444072,98109.000000,1694167491.429800,0.000000,0.000000,0.000000,0.000000,0.000000,0.000000
1694167491.450563,98110.000000,1694167491.439270,0.000000,0.000000,0.000000,0.000000,0.000000,0.000000
1694167491.461611,98111.000000,1694167491.449294,0.000000,0.000000,0.000000,0.000000,0.000000,0.000000
1694167491.470392,98112.000000,1694167491.459923,0.000000,0.000000,0.000000,0.000000,0.000000,0.000000
1694167491.486798,98113.000000,1694167491.469467,0.000000,0.000000,0.000000,0.000000,0.000000,0.000000
1694167491.499293,98115.000000,1694167491.489182,0.000000,0.000000,0.000000,0.000000,0.000000,0.000000
1694167491.520883,98116.000000,1694167491.499289,0.000000,0.000000,0.000000,0.000000,0.000000,0.000000
1694167491.530930,98117.000000,1694167491.509288,0.000000,0.000000,0.000000,0.000000,0.000000,0.000000
1694167491.532246,98118.000000,1694167491.519285,0.000000,0.000000,0.000000,0.000000,0.000000,0.000000
1694167491.540014,98119.000000,1694167491.529239,0.000000,0.000000,0.000000,0.000000,0.000000,0.000000
1694167491.546911,98120.000000,1694167491.539279,0.000000,0.000000,0.000000,0.000000,0.000000,0.000000
1694167491.556975,98121.000000,1694167491.550875,0.000000,0.000000,0.000000,0.000000,0.000000,0.000000
1694167491.568351,98122.000000,1694167491.559147,0.000000,0.000000,0.000000,0.000000,0.000000,0.000000
1694167491.575939,98123.000000,1694167491.569324,0.000000,0.000000,0.000000,0.000000,0.000000,0.000000
1694167491.585054,98124.000000,1694167491.579298,0.000000,0.000000,0.000000,0.000000,0.000000,0.000000
1694167491.601700,98125.000000,1694167491.589361,0.000000,0.000000,0.000000,0.000000,0.000000,0.000000
1694167491.616099,98126.000000,1694167491.599268,0.000000,0.000000,0.000000,0.000000,0.000000,0.000000
1694167491.628476,98127.000000,1694167491.609254,0.000000,0.000000,0.000000,0.000000,0.000000,0.000000
1694167491.628493,98128.000000,1694167491.620178,0.000000,0.000000,0.000000,0.000000,0.000000,0.000000
1694167491.636410,98129.000000,1694167491.629419,0.000000,0.000000,0.000000,0.000000,0.000000,0.000000
1694167491.645405,98130.000000,1694167491.639278,0.000000,0.000000,0.000000,0.000000,0.000000,0.000000
1694167491.653680,98131.000000,1694167491.650497,0.000000,0.000000,0.000000,0.000000,0.000000,0.000000
1694167491.663279,98132.000000,1694167491.659660,0.000000,0.000000,0.000000,0.000000,0.000000,0.000000
1694167491.674525,98133.000000,1694167491.669281,0.000000,0.000000,0.000000,0.000000,0.000000,0.000000
1694167491.682940,98134.000000,1694167491.679364,0.000000,0.000000,0.000000,0.000000,0.000000,0.000000
1694167491.702101,98135.000000,1694167491.689372,0.000000,0.000000,0.000000,0.000000,0.000000,0.000000
1694167491.713817,98136.000000,1694167491.703078,0.000000,0.000000,0.000000,0.000000,0.000000,0.000000
1694167491.721519,98137.000000,1694167491.709266,0.000000,0.000000,0.000000,0.000000,0.000000,0.000000
1694167491.736095,98138.000000,1694167491.719515,0.000000,0.000000,0.000000,0.000000,0.000000,0.000000
1694167491.744141,98140.000000,1694167491.739396,0.000000,0.000000,0.000000,0.000000,0.000000,0.000000
1694167491.756566,98141.000000,1694167491.751404,0.000000,0.000000,0.000000,0.000000,0.000000,0.000000
1694167491.764859,98142.000000,1694167491.759399,0.000000,0.000000,0.000000,0.000000,0.000000,0.000000
1694167491.776578,98143.000000,1694167491.769228,0.000000,0.000000,0.000000,0.000000,0.000000,0.000000
1694167491.790925,98144.000000,1694167491.779288,0.000000,0.000000,0.000000,0.000000,0.000000,0.000000
1694167491.801898,98145.000000,1694167491.789519,0.000000,0.000000,0.000000,0.000000,0.000000,0.000000
1694167491.811158,98146.000000,1694167491.799960,0.000000,0.000000,0.000000,0.000000,0.000000,0.000000
1694167491.818055,98147.000000,1694167491.809241,0.000000,0.000000,0.000000,0.000000,0.000000,0.000000
1694167491.825623,98148.000000,1694167491.819274,0.000000,0.000000,0.000000,0.000000,0.000000,0.000000
1694167491.837998,98149.000000,1694167491.829367,0.000000,0.000000,0.000000,0.000000,0.000000,0.000000
1694167491.848748,98150.000000,1694167491.839279,0.000000,0.000000,0.000000,0.000000,0.000000,0.000000
1694167491.861089,98151.000000,1694167491.849227,0.000000,0.000000,0.000000,0.000000,0.000000,0.000000
1694167491.865145,98152.000000,1694167491.859421,0.000000,0.000000,0.000000,0.000000,0.000000,0.000000
1694167491.873821,98153.000000,1694167491.869262,0.000000,0.000000,0.000000,0.000000,0.000000,0.000000
1694167491.885121,98154.000000,1694167491.879248,0.000000,0.000000,0.000000,0.000000,0.000000,0.000000
1694167491.899097,98155.000000,1694167491.890065,0.000000,0.000000,0.000000,0.000000,0.000000,0.000000
1694167491.905384,98156.000000,1694167491.899364,0.000000,0.000000,0.000000,0.000000,0.000000,0.000000
1694167491.916614,98157.000000,1694167491.909290,0.000000,0.000000,0.000000,0.000000,0.000000,0.000000
1694167491.926973,98158.000000,1694167491.921262,0.000000,0.000000,0.000000,0.000000,0.000000,0.000000
1694167491.937967,98159.000000,1694167491.929780,0.000000,0.000000,0.000000,0.000000,0.000000,0.000000
1694167491.946280,98160.000000,1694167491.939247,0.000000,0.000000,0.000000,0.000000,0.000000,0.000000
1694167491.959152,98161.000000,1694167491.949611,0.000000,0.000000,0.000000,0.000000,0.000000,0.000000
1694167491.971530,98162.000000,1694167491.959263,0.000000,0.000000,0.000000,0.000000,0.000000,0.000000
1694167491.984042,98163.000000,1694167491.969855,0.000000,0.000000,0.000000,0.000000,0.000000,0.000000
1694167491.988898,98164.000000,1694167491.979245,0.000000,0.000000,0.000000,0.000000,0.000000,0.000000
1694167491.995592,98165.000000,1694167491.989282,0.000000,0.000000,0.000000,0.000000,0.000000,0.000000
1694167492.010195,98166.000000,1694167491.999521,0.000000,0.000000,0.000000,0.000000,0.000000,0.000000
1694167492.019585,98167.000000,1694167492.009156,0.000000,0.000000,0.000000,0.000000,0.000000,0.000000
1694167492.026861,98168.000000,1694167492.021900,0.000000,0.000000,0.000000,0.000000,0.000000,0.000000
1694167492.042203,98169.000000,1694167492.031006,0.000000,0.000000,0.000000,0.000000,0.000000,0.000000
1694167492.052960,98170.000000,1694167492.039272,0.000000,0.000000,0.000000,0.000000,0.000000,0.000000
1694167492.063066,98171.000000,1694167492.049229,0.000000,0.000000,0.000000,0.000000,0.000000,0.000000
1694167492.071064,98172.000000,1694167492.059398,0.000000,0.000000,0.000000,0.000000,0.000000,0.000000
1694167492.084687,98173.000000,1694167492.071676,0.000000,0.000000,0.000000,0.000000,0.000000,0.000000
1694167492.092441,98174.000000,1694167492.079165,0.000000,0.000000,0.000000,0.000000,0.000000,0.000000
1694167492.107803,98175.000000,1694167492.089236,0.000000,0.000000,0.000000,0.000000,0.000000,0.000000
1694167492.113737,98177.000000,1694167492.109359,0.000000,0.000000,0.000000,0.000000,0.000000,0.000000
1694167492.127912,98178.000000,1694167492.119280,0.000000,0.000000,0.000000,0.000000,0.000000,0.000000
1694167492.138410,98179.000000,1694167492.130003,0.000000,0.000000,0.000000,0.000000,0.000000,0.000000
1694167492.151512,98180.000000,1694167492.139393,0.000000,0.000000,0.000000,0.000000,0.000000,0.000000
1694167492.160100,98181.000000,1694167492.150494,0.000000,0.000000,0.000000,0.000000,0.000000,0.000000
1694167492.168425,98182.000000,1694167492.161138,0.000000,0.000000,0.000000,0.000000,0.000000,0.000000
1694167492.178098,98183.000000,1694167492.169245,0.000000,0.000000,0.000000,0.000000,0.000000,0.000000
1694167492.193110,98184.000000,1694167492.179269,0.000000,0.000000,0.000000,0.000000,0.000000,0.000000
1694167492.200653,98185.000000,1694167492.189898,0.000000,0.000000,0.000000,0.000000,0.000000,0.000000
1694167492.211889,98186.000000,1694167492.199867,0.000000,0.000000,0.000000,0.000000,0.000000,0.000000
1694167492.219327,98187.000000,1694167492.209660,0.000000,0.000000,0.000000,0.000000,0.000000,0.000000
1694167492.228150,98188.000000,1694167492.221450,0.000000,0.000000,0.000000,0.000000,0.000000,0.000000
1694167492.249002,98189.000000,1694167492.229290,0.000000,0.000000,0.000000,0.000000,0.000000,0.000000
1694167492.257789,98191.000000,1694167492.249264,0.000000,0.000000,0.000000,0.000000,0.000000,0.000000
1694167492.270484,98192.000000,1694167492.259283,0.000000,0.000000,0.000000,0.000000,0.000000,0.000000
1694167492.280219,98193.000000,1694167492.269404,0.000000,0.000000,0.000000,0.000000,0.000000,0.000000
1694167492.289606,98194.000000,1694167492.279495,0.000000,0.000000,0.000000,0.000000,0.000000,0.000000
1694167492.307641,98195.000000,1694167492.289258,0.000000,0.000000,0.000000,0.000000,0.000000,0.000000
1694167492.314467,98197.000000,1694167492.309490,0.000000,0.000000,0.000000,0.000000,0.000000,0.000000
1694167492.325085,98198.000000,1694167492.319405,0.000000,0.000000,0.000000,0.000000,0.000000,0.000000
1694167492.341116,98199.000000,1694167492.330340,0.000000,0.000000,0.000000,0.000000,0.000000,0.000000
1694167492.348994,98200.000000,1694167492.339262,0.000000,0.000000,0.000000,0.000000,0.000000,0.000000
1694167492.358912,98201.000000,1694167492.349403,0.000000,0.000000,0.000000,0.000000,0.000000,0.000000
1694167492.370448,98202.000000,1694167492.359294,0.000000,0.000000,0.000000,0.000000,0.000000,0.000000
1694167492.380575,98203.000000,1694167492.369702,0.000000,0.000000,0.000000,0.000000,0.000000,0.000000
1694167492.389961,98204.000000,1694167492.379494,0.000000,0.000000,0.000000,0.000000,0.000000,0.000000
1694167492.397967,98205.000000,1694167492.389254,0.000000,0.000000,0.000000,0.000000,0.000000,0.000000
1694167492.407880,98206.000000,1694167492.399270,0.000000,0.000000,0.000000,0.000000,0.000000,0.000000
1694167492.421567,98207.000000,1694167492.409229,0.000000,0.000000,0.000000,0.000000,0.000000,0.000000
1694167492.428283,98208.000000,1694167492.419386,0.000000,0.000000,0.000000,0.000000,0.000000,0.000000
1694167492.439891,98209.000000,1694167492.433159,0.000000,0.000000,0.000000,0.000000,0.000000,0.000000
1694167492.449459,98210.000000,1694167492.439302,0.000000,0.000000,0.000000,0.000000,0.000000,0.000000
1694167492.462446,98211.000000,1694167492.450267,0.000000,0.000000,0.000000,0.000000,0.000000,0.000000
1694167492.472049,98212.000000,1694167492.459271,0.000000,0.000000,0.000000,0.000000,0.000000,0.000000
1694167492.474403,98213.000000,1694167492.469283,0.000000,0.000000,0.000000,0.000000,0.000000,0.000000
1694167492.486977,98214.000000,1694167492.479628,0.000000,0.000000,0.000000,0.000000,0.000000,0.000000
1694167492.497476,98215.000000,1694167492.489327,0.000000,0.000000,0.000000,0.000000,0.000000,0.000000
1694167492.510956,98216.000000,1694167492.499397,0.000000,0.000000,0.000000,0.000000,0.000000,0.000000
1694167492.524763,98217.000000,1694167492.509275,0.000000,0.000000,0.000000,0.000000,0.000000,0.000000
1694167492.530772,98218.000000,1694167492.519404,0.000000,0.000000,0.000000,0.000000,0.000000,0.000000
1694167492.540965,98219.000000,1694167492.529202,0.000000,0.000000,0.000000,0.000000,0.000000,0.000000
1694167492.554307,98220.000000,1694167492.539366,0.000000,0.000000,0.000000,0.000000,0.000000,0.000000
1694167492.567921,98221.000000,1694167492.549278,0.000000,0.000000,0.000000,0.000000,0.000000,0.000000
1694167492.571052,98222.000000,1694167492.559466,0.000000,0.000000,0.000000,0.000000,0.000000,0.000000
1694167492.575021,98223.000000,1694167492.569469,0.000000,0.000000,0.000000,0.000000,0.000000,0.000000
1694167492.582751,98224.000000,1694167492.579247,0.000000,0.000000,0.000000,0.000000,0.000000,0.000000
1694167492.596775,98225.000000,1694167492.589391,0.000000,0.000000,0.000000,0.000000,0.000000,0.000000
1694167492.606901,98226.000000,1694167492.599401,0.000000,0.000000,0.000000,0.000000,0.000000,0.000000
1694167492.622226,98227.000000,1694167492.609308,0.000000,0.000000,0.000000,0.000000,0.000000,0.000000
1694167492.630358,98228.000000,1694167492.619672,0.000000,0.000000,0.000000,0.000000,0.000000,0.000000
1694167492.642802,98229.000000,1694167492.629268,0.000000,0.000000,0.000000,0.000000,0.000000,0.000000
1694167492.664667,98230.000000,1694167492.639388,0.000000,0.000000,0.000000,0.000000,0.000000,0.000000
1694167492.667674,98231.000000,1694167492.649212,0.000000,0.000000,0.000000,0.000000,0.000000,0.000000
1694167492.683773,98232.000000,1694167492.659419,0.000000,0.000000,0.000000,0.000000,0.000000,0.000000
1694167492.690177,98233.000000,1694167492.669216,0.000000,0.000000,0.000000,0.000000,0.000000,0.000000
1694167492.697458,98234.000000,1694167492.679266,0.000000,0.000000,0.000000,0.000000,0.000000,0.000000
1694167492.704249,98235.000000,1694167492.689222,0.000000,0.000000,0.000000,0.000000,0.000000,0.000000
1694167492.718447,98236.000000,1694167492.701398,0.000000,0.000000,0.000000,0.000000,0.000000,0.000000
1694167492.727608,98237.000000,1694167492.709305,0.000000,0.000000,0.000000,0.000000,0.000000,0.000000
1694167492.730304,98238.000000,1694167492.719271,0.000000,0.000000,0.000000,0.000000,0.000000,0.000000
1694167492.739786,98239.000000,1694167492.729674,0.000000,0.000000,0.000000,0.000000,0.000000,0.000000
1694167492.755512,98240.000000,1694167492.739357,0.000000,0.000000,0.000000,0.000000,0.000000,0.000000
1694167492.770583,98242.000000,1694167492.759394,0.000000,0.000000,0.000000,0.000000,0.000000,0.000000
1694167492.786479,98243.000000,1694167492.772224,0.000000,0.000000,0.000000,0.000000,0.000000,0.000000
1694167492.802490,98244.000000,1694167492.779511,0.000000,0.000000,0.000000,0.000000,0.000000,0.000000
1694167492.804465,98245.000000,1694167492.789258,0.000000,0.000000,0.000000,0.000000,0.000000,0.000000
1694167492.814430,98246.000000,1694167492.799625,0.000000,0.000000,0.000000,0.000000,0.000000,0.000000
1694167492.824893,98247.000000,1694167492.809218,0.000000,0.000000,0.000000,0.000000,0.000000,0.000000
1694167492.836227,98248.000000,1694167492.819266,0.000000,0.000000,0.000000,0.000000,0.000000,0.000000
1694167492.849692,98250.000000,1694167492.839278,0.000000,0.000000,0.000000,0.000000,0.000000,0.000000
1694167492.858671,98251.000000,1694167492.849252,0.004937,-0.000412,-0.001330,-0.000020,0.000260,0.000065
1694167492.866546,98252.000000,1694167492.859357,0.013741,-0.001255,-0.003703,-0.000057,0.000718,0.000180
1694167492.875743,98253.000000,1694167492.871307,0.022830,-0.002259,-0.006153,-0.000094,0.001185,0.000298
1694167492.884056,98254.000000,1694167492.879262,0.033298,-0.003521,-0.008996,-0.000136,0.001715,0.000432
1694167492.892614,98255.000000,1694167492.889246,0.045169,-0.005038,-0.012260,-0.000184,0.002307,0.000581
1694167492.905497,98256.000000,1694167492.899487,0.057228,-0.006667,-0.015581,-0.000231,0.002898,0.000729
1694167492.912715,98257.000000,1694167492.909265,0.068986,-0.008377,-0.018712,-0.000275,0.003464,0.000872
1694167492.929432,98258.000000,1694167492.919598,0.079593,-0.010161,-0.021371,-0.000312,0.003967,0.000997
1694167492.940709,98259.000000,1694167492.929230,0.087398,-0.011797,-0.023237,-0.000337,0.004333,0.001088
1694167492.947690,98260.000000,1694167492.939473,0.092272,-0.013103,-0.024335,-0.000351,0.004560,0.001145
1694167492.957998,98261.000000,1694167492.949732,0.095078,-0.014187,-0.024873,-0.000358,0.004689,0.001179
1694167492.969388,98262.000000,1694167492.960937,0.096820,-0.015271,-0.025057,-0.000361,0.004770,0.001201
1694167492.979537,98263.000000,1694167492.969438,0.097367,-0.016283,-0.024820,-0.000358,0.004795,0.001206
1694167492.992174,98264.000000,1694167492.979285,0.094690,-0.016816,-0.023893,-0.000345,0.004672,0.001172
1694167492.998808,98265.000000,1694167492.989272,0.087982,-0.016590,-0.022128,-0.000320,0.004364,0.001089
1694167493.010293,98266.000000,1694167492.999290,0.079647,-0.015905,-0.019970,-0.000289,0.003978,0.000989
1694167493.018458,98267.000000,1694167493.009306,0.072198,-0.015230,-0.018085,-0.000262,0.003629,0.000899
1694167493.031929,98268.000000,1694167493.019267,0.066015,-0.014603,-0.016625,-0.000241,0.003337,0.000826
1694167493.036376,98269.000000,1694167493.029389,0.062251,-0.014266,-0.015771,-0.000228,0.003157,0.000781
1694167493.048430,98270.000000,1694167493.039737,0.061461,-0.014408,-0.015567,-0.000227,0.003116,0.000771
1694167493.060328,98271.000000,1694167493.049187,0.061755,-0.014637,-0.015652,-0.000229,0.003127,0.000776
1694167493.070188,98272.000000,1694167493.059266,0.062328,-0.014864,-0.015903,-0.000233,0.003152,0.000784
1694167493.077288,98273.000000,1694167493.070416,0.062891,-0.015098,-0.016109,-0.000237,0.003178,0.000791
1694167493.090520,98274.000000,1694167493.079348,0.063884,-0.015481,-0.016334,-0.000244,0.003225,0.000803
1694167493.099670,98275.000000,1694167493.089243,0.066749,-0.016372,-0.016940,-0.000256,0.003360,0.000839
1694167493.109878,98276.000000,1694167493.100220,0.071114,-0.017549,-0.017747,-0.000273,0.003562,0.000891
1694167493.117036,98277.000000,1694167493.109407,0.077262,-0.018925,-0.018867,-0.000297,0.003844,0.000962
1694167493.134454,98278.000000,1694167493.125431,0.087212,-0.020980,-0.020812,-0.000337,0.004295,0.001074
1694167493.144439,98279.000000,1694167493.129226,0.101005,-0.023829,-0.023460,-0.000391,0.004910,0.001228
1694167493.149337,98280.000000,1694167493.139357,0.117025,-0.027148,-0.026388,-0.000452,0.005612,0.001406
1694167493.158776,98281.000000,1694167493.149359,0.133608,-0.030571,-0.029326,-0.000513,0.006323,0.001585
1694167493.170580,98282.000000,1694167493.159267,0.149231,-0.033784,-0.032021,-0.000569,0.006980,0.001749
1694167493.180606,98283.000000,1694167493.169244,0.163108,-0.036719,-0.034207,-0.000617,0.007555,0.001892
1694167493.188068,98284.000000,1694167493.179516,0.175669,-0.039700,-0.035933,-0.000659,0.008069,0.002020
1694167493.199661,98285.000000,1694167493.189221,0.187098,-0.042846,-0.037319,-0.000698,0.008530,0.002134
1694167493.208376,98286.000000,1694167493.201274,0.196240,-0.045901,-0.038174,-0.000731,0.008893,0.002223
1694167493.216897,98287.000000,1694167493.209231,0.202609,-0.048796,-0.038418,-0.000754,0.009147,0.002282
1694167493.227170,98288.000000,1694167493.219262,0.206411,-0.051566,-0.038060,-0.000765,0.009303,0.002313
1694167493.238014,98289.000000,1694167493.229342,0.208787,-0.054435,-0.037374,-0.000768,0.009406,0.002327
1694167493.244776,98290.000000,1694167493.239276,0.210541,-0.057307,-0.036747,-0.000768,0.009489,0.002334
1694167493.253896,98291.000000,1694167493.249374,0.210203,-0.059592,-0.036185,-0.000761,0.009493,0.002322
1694167493.268739,98292.000000,1694167493.259166,0.205906,-0.060720,-0.035456,-0.000743,0.009340,0.002271
1694167493.283091,98293.000000,1694167493.269285,0.198356,-0.060643,-0.034496,-0.000715,0.009054,0.002186
1694167493.292587,98294.000000,1694167493.279272,0.190971,-0.060277,-0.033585,-0.000686,0.008770,0.002102
1694167493.299199,98295.000000,1694167493.289271,0.184977,-0.060100,-0.032772,-0.000660,0.008540,0.002032
1694167493.304858,98296.000000,1694167493.299902,0.177872,-0.059311,-0.031544,-0.000631,0.008258,0.001951
1694167493.320158,98297.000000,1694167493.309654,0.167554,-0.057135,-0.029630,-0.000594,0.007836,0.001838
1694167493.337773,98298.000000,1694167493.319435,0.154554,-0.053679,-0.027369,-0.000551,0.007290,0.001699
1694167493.350281,98299.000000,1694167493.330011,0.140426,-0.049315,-0.024947,-0.000504,0.006684,0.001547
1694167493.357486,98301.000000,1694167493.349274,0.112607,-0.039533,-0.019683,-0.000410,0.005454,0.001246
1694167493.374176,98302.000000,1694167493.359259,0.099141,-0.034666,-0.017191,-0.000364,0.004845,0.001100
1694167493.384332,98303.000000,1694167493.369661,0.085592,-0.029694,-0.014933,-0.000318,0.004223,0.000953
1694167493.387910,98304.000000,1694167493.379380,0.070661,-0.024220,-0.012582,-0.000267,0.003525,0.000790
1694167493.400692,98305.000000,1694167493.389634,0.053887,-0.018209,-0.009882,-0.000208,0.002725,0.000606
1694167493.407863,98306.000000,1694167493.399503,0.037333,-0.012399,-0.007043,-0.000147,0.001914,0.000423
1694167493.421044,98307.000000,1694167493.409237,0.022897,-0.007455,-0.004397,-0.000092,0.001189,0.000261
1694167493.436745,98308.000000,1694167493.419271,0.009741,-0.003109,-0.001903,-0.000039,0.000512,0.000112
1694167493.447149,98310.000000,1694167493.439266,0.000000,0.000000,0.000000,0.000000,0.000000,0.000000
1694167493.461803,98311.000000,1694167493.449236,0.000000,0.000000,0.000000,0.000000,0.000000,0.000000
1694167493.475571,98312.000000,1694167493.459399,0.000000,0.000000,0.000000,0.000000,0.000000,0.000000
1694167493.488293,98314.000000,1694167493.479258,0.000000,0.000000,0.000000,0.000000,0.000000,0.000000
1694167493.496768,98315.000000,1694167493.489604,0.000000,0.000000,0.000000,0.000000,0.000000,0.000000
1694167493.503459,98316.000000,1694167493.499260,0.000000,0.000000,0.000000,0.000000,0.000000,0.000000
1694167493.516494,98317.000000,1694167493.509430,0.000000,0.000000,0.000000,0.000000,0.000000,0.000000
1694167493.528949,98318.000000,1694167493.519279,0.000000,0.000000,0.000000,0.000000,0.000000,0.000000
1694167493.540847,98319.000000,1694167493.531088,0.000000,0.000000,0.000000,0.000000,0.000000,0.000000
1694167493.549842,98320.000000,1694167493.539446,0.000000,0.000000,0.000000,0.000000,0.000000,0.000000
1694167493.561185,98321.000000,1694167493.549259,0.000000,0.000000,0.000000,0.000000,0.000000,0.000000
1694167493.567405,98322.000000,1694167493.559473,0.000000,0.000000,0.000000,0.000000,0.000000,0.000000
1694167493.582088,98323.000000,1694167493.569647,0.000000,0.000000,0.000000,0.000000,0.000000,0.000000
1694167493.594496,98324.000000,1694167493.579247,0.000000,0.000000,0.000000,0.000000,0.000000,0.000000
1694167493.600382,98325.000000,1694167493.589258,0.000000,0.000000,0.000000,0.000000,0.000000,0.000000
1694167493.615066,98326.000000,1694167493.599398,0.000000,0.000000,0.000000,0.000000,0.000000,0.000000
1694167493.623048,98327.000000,1694167493.609302,0.000000,0.000000,0.000000,0.000000,0.000000,0.000000
1694167493.631903,98328.000000,1694167493.619969,0.000000,0.000000,0.000000,0.000000,0.000000,0.000000
1694167493.642735,98329.000000,1694167493.629973,0.000000,0.000000,0.000000,0.000000,0.000000,0.000000
1694167493.655868,98330.000000,1694167493.639502,0.000000,0.000000,0.000000,0.000000,0.000000,0.000000
1694167493.657640,98331.000000,1694167493.649249,0.000000,0.000000,0.000000,0.000000,0.000000,0.000000
1694167493.666533,98332.000000,1694167493.659274,0.000000,0.000000,0.000000,0.000000,0.000000,0.000000
1694167493.676969,98333.000000,1694167493.670126,0.000000,0.000000,0.000000,0.000000,0.000000,0.000000
1694167493.688971,98334.000000,1694167493.679253,0.000000,0.000000,0.000000,0.000000,0.000000,0.000000
1694167493.697371,98335.000000,1694167493.689202,0.000000,0.000000,0.000000,0.000000,0.000000,0.000000
1694167493.704872,98336.000000,1694167493.699463,0.000000,0.000000,0.000000,0.000000,0.000000,0.000000
1694167493.715749,98337.000000,1694167493.709242,0.000000,0.000000,0.000000,0.000000,0.000000,0.000000
1694167493.727269,98338.000000,1694167493.719263,0.000000,0.000000,0.000000,0.000000,0.000000,0.000000
1694167493.735207,98339.000000,1694167493.729220,0.000000,0.000000,0.000000,0.000000,0.000000,0.000000
1694167493.754677,98340.000000,1694167493.739357,0.000000,0.000000,0.000000,0.000000,0.000000,0.000000
1694167493.766615,98341.000000,1694167493.749264,0.000000,0.000000,0.000000,0.000000,0.000000,0.000000
1694167493.767319,98342.000000,1694167493.759381,0.000000,0.000000,0.000000,0.000000,0.000000,0.000000
1694167493.776628,98343.000000,1694167493.771758,0.000000,0.000000,0.000000,0.000000,0.000000,0.000000
1694167493.788713,98344.000000,1694167493.779231,0.000000,0.000000,0.000000,0.000000,0.000000,0.000000
1694167493.797832,98345.000000,1694167493.789254,0.000000,0.000000,0.000000,0.000000,0.000000,0.000000
1694167493.810076,98346.000000,1694167493.800519,0.000000,0.000000,0.000000,0.000000,0.000000,0.000000
1694167493.817526,98347.000000,1694167493.809563,0.000000,0.000000,0.000000,0.000000,0.000000,0.000000
1694167493.830599,98348.000000,1694167493.819280,0.000000,0.000000,0.000000,0.000000,0.000000,0.000000
1694167493.844986,98349.000000,1694167493.832874,0.000000,0.000000,0.000000,0.000000,0.000000,0.000000
1694167493.855853,98350.000000,1694167493.839380,0.000000,0.000000,0.000000,0.000000,0.000000,0.000000
1694167493.867515,98351.000000,1694167493.850403,0.000000,0.000000,0.000000,0.000000,0.000000,0.000000
1694167493.875600,98353.000000,1694167493.869245,0.000000,0.000000,0.000000,0.000000,0.000000,0.000000
1694167493.887094,98354.000000,1694167493.879242,0.000000,0.000000,0.000000,0.000000,0.000000,0.000000
1694167493.898740,98355.000000,1694167493.889543,0.000000,0.000000,0.000000,0.000000,0.000000,0.000000
1694167493.904404,98356.000000,1694167493.899245,0.000000,0.000000,0.000000,0.000000,0.000000,0.000000
1694167493.915301,98357.000000,1694167493.910990,0.000000,0.000000,0.000000,0.000000,0.000000,0.000000
1694167493.923188,98358.000000,1694167493.919119,0.000000,0.000000,0.000000,0.000000,0.000000,0.000000
1694167493.938280,98359.000000,1694167493.929256,0.000000,0.000000,0.000000,0.000000,0.000000,0.000000
1694167493.954508,98360.000000,1694167493.940003,0.000000,0.000000,0.000000,0.000000,0.000000,0.000000
1694167493.961223,98361.000000,1694167493.949244,0.000000,0.000000,0.000000,0.000000,0.000000,0.000000
1694167493.972980,98362.000000,1694167493.959268,0.000000,0.000000,0.000000,0.000000,0.000000,0.000000
1694167493.977128,98363.000000,1694167493.969262,0.000000,0.000000,0.000000,0.000000,0.000000,0.000000
1694167493.985347,98364.000000,1694167493.979396,0.000000,0.000000,0.000000,0.000000,0.000000,0.000000
1694167493.995904,98365.000000,1694167493.989137,0.000000,0.000000,0.000000,0.000000,0.000000,0.000000
1694167494.007198,98366.000000,1694167493.999257,0.000000,0.000000,0.000000,0.000000,0.000000,0.000000
1694167494.017284,98367.000000,1694167494.009514,0.000000,0.000000,0.000000,0.000000,0.000000,0.000000
1694167494.030172,98368.000000,1694167494.019253,0.000000,0.000000,0.000000,0.000000,0.000000,0.000000
1694167494.035161,98369.000000,1694167494.029262,0.000000,0.000000,0.000000,0.000000,0.000000,0.000000
1694167494.051368,98370.000000,1694167494.039386,0.000000,0.000000,0.000000,0.000000,0.000000,0.000000
1694167494.063655,98371.000000,1694167494.049722,0.000000,0.000000,0.000000,0.000000,0.000000,0.000000
1694167494.076464,98372.000000,1694167494.059755,0.000000,0.000000,0.000000,0.000000,0.000000,0.000000
1694167494.086865,98374.000000,1694167494.079604,0.000000,0.000000,0.000000,0.000000,0.000000,0.000000
1694167494.108460,98375.000000,1694167494.089222,0.000000,0.000000,0.000000,0.000000,0.000000,0.000000
1694167494.121362,98376.000000,1694167494.099349,0.000000,0.000000,0.000000,0.000000,0.000000,0.000000
1694167494.127890,98378.000000,1694167494.122626,0.000000,0.000000,0.000000,0.000000,0.000000,0.000000
1694167494.136445,98379.000000,1694167494.129236,0.000000,0.000000,0.000000,0.000000,0.000000,0.000000
1694167494.143755,98380.000000,1694167494.139742,0.000000,0.000000,0.000000,0.000000,0.000000,0.000000
1694167494.155765,98381.000000,1694167494.149596,0.000000,0.000000,0.000000,0.000000,0.000000,0.000000
1694167494.168764,98382.000000,1694167494.159336,0.000000,0.000000,0.000000,0.000000,0.000000,0.000000
1694167494.180424,98383.000000,1694167494.169273,0.000000,0.000000,0.000000,0.000000,0.000000,0.000000
1694167494.192755,98384.000000,1694167494.179665,0.000000,0.000000,0.000000,0.000000,0.000000,0.000000
1694167494.201305,98385.000000,1694167494.189383,0.000000,0.000000,0.000000,0.000000,0.000000,0.000000
1694167494.205114,98386.000000,1694167494.199359,0.000000,0.000000,0.000000,0.000000,0.000000,0.000000
1694167494.215687,98387.000000,1694167494.209264,0.000000,0.000000,0.000000,0.000000,0.000000,0.000000
1694167494.226496,98388.000000,1694167494.219473,0.000000,0.000000,0.000000,0.000000,0.000000,0.000000
1694167494.237882,98389.000000,1694167494.229841,0.000000,0.000000,0.000000,0.000000,0.000000,0.000000
1694167494.244746,98390.000000,1694167494.239267,0.000000,0.000000,0.000000,0.000000,0.000000,0.000000
1694167494.253641,98391.000000,1694167494.249216,0.000000,0.000000,0.000000,0.000000,0.000000,0.000000
1694167494.266101,98392.000000,1694167494.259345,0.000000,0.000000,0.000000,0.000000,0.000000,0.000000
1694167494.276491,98393.000000,1694167494.269461,0.000000,0.000000,0.000000,0.000000,0.000000,0.000000
1694167494.286267,98394.000000,1694167494.279748,0.000000,0.000000,0.000000,0.000000,0.000000,0.000000
1694167494.293289,98395.000000,1694167494.289416,0.000000,0.000000,0.000000,0.000000,0.000000,0.000000
1694167494.303231,98396.000000,1694167494.299224,0.000000,0.000000,0.000000,0.000000,0.000000,0.000000
1694167494.320203,98397.000000,1694167494.309267,0.000000,0.000000,0.000000,0.000000,0.000000,0.000000
1694167494.335214,98398.000000,1694167494.319266,0.000000,0.000000,0.000000,0.000000,0.000000,0.000000
1694167494.341761,98399.000000,1694167494.330917,0.000000,0.000000,0.000000,0.000000,0.000000,0.000000
1694167494.348495,98400.000000,1694167494.340982,0.000000,0.000000,0.000000,0.000000,0.000000,0.000000
1694167494.361194,98401.000000,1694167494.349429,0.000000,0.000000,0.000000,0.000000,0.000000,0.000000
1694167494.372452,98402.000000,1694167494.359482,0.000000,0.000000,0.000000,0.000000,0.000000,0.000000
1694167494.385801,98403.000000,1694167494.369190,0.000000,0.000000,0.000000,0.000000,0.000000,0.000000
1694167494.398704,98405.000000,1694167494.389259,0.000000,0.000000,0.000000,0.000000,0.000000,0.000000
1694167494.409945,98406.000000,1694167494.399386,0.000000,0.000000,0.000000,0.000000,0.000000,0.000000
1694167494.419908,98407.000000,1694167494.409261,0.000000,0.000000,0.000000,0.000000,0.000000,0.000000
1694167494.425153,98408.000000,1694167494.419334,0.000000,0.000000,0.000000,0.000000,0.000000,0.000000
1694167494.434773,98409.000000,1694167494.429390,0.000000,0.000000,0.000000,0.000000,0.000000,0.000000
1694167494.444800,98410.000000,1694167494.439459,0.000000,0.000000,0.000000,0.000000,0.000000,0.000000
1694167494.456769,98411.000000,1694167494.449231,0.000000,0.000000,0.000000,0.000000,0.000000,0.000000
1694167494.467969,98412.000000,1694167494.462108,0.000000,0.000000,0.000000,0.000000,0.000000,0.000000
1694167494.475310,98413.000000,1694167494.471771,0.000000,0.000000,0.000000,0.000000,0.000000,0.000000
1694167494.484679,98414.000000,1694167494.479392,0.000000,0.000000,0.000000,0.000000,0.000000,0.000000
1694167494.493867,98415.000000,1694167494.489226,0.000000,0.000000,0.000000,0.000000,0.000000,0.000000
1694167494.503558,98416.000000,1694167494.499373,0.000000,0.000000,0.000000,0.000000,0.000000,0.000000
1694167494.515500,98417.000000,1694167494.509384,0.000000,0.000000,0.000000,0.000000,0.000000,0.000000
1694167494.526666,98418.000000,1694167494.519398,0.000000,0.000000,0.000000,0.000000,0.000000,0.000000
1694167494.541581,98419.000000,1694167494.529476,0.000000,0.000000,0.000000,0.000000,0.000000,0.000000
1694167494.548427,98420.000000,1694167494.544725,0.000000,0.000000,0.000000,0.000000,0.000000,0.000000
1694167494.566633,98421.000000,1694167494.549530,0.000000,0.000000,0.000000,0.000000,0.000000,0.000000
1694167494.570737,98422.000000,1694167494.559252,0.000000,0.000000,0.000000,0.000000,0.000000,0.000000
1694167494.580342,98423.000000,1694167494.569368,0.000000,0.000000,0.000000,0.000000,0.000000,0.000000
1694167494.588289,98424.000000,1694167494.579371,0.000000,0.000000,0.000000,0.000000,0.000000,0.000000
1694167494.597622,98425.000000,1694167494.589358,0.000000,0.000000,0.000000,0.000000,0.000000,0.000000
1694167494.609188,98426.000000,1694167494.599259,0.000000,0.000000,0.000000,0.000000,0.000000,0.000000
1694167494.615682,98427.000000,1694167494.611139,0.000000,0.000000,0.000000,0.000000,0.000000,0.000000
1694167494.625041,98428.000000,1694167494.619346,0.000000,0.000000,0.000000,0.000000,0.000000,0.000000
1694167494.636113,98429.000000,1694167494.629370,0.000000,0.000000,0.000000,0.000000,0.000000,0.000000
1694167494.647183,98430.000000,1694167494.639391,0.000000,0.000000,0.000000,0.000000,0.000000,0.000000
1694167494.656535,98431.000000,1694167494.650194,0.000000,0.000000,0.000000,0.000000,0.000000,0.000000
1694167494.669034,98432.000000,1694167494.659235,0.000000,0.000000,0.000000,0.000000,0.000000,0.000000
1694167494.679600,98433.000000,1694167494.669234,0.000000,0.000000,0.000000,0.000000,0.000000,0.000000
1694167494.687764,98434.000000,1694167494.679269,0.000000,0.000000,0.000000,0.000000,0.000000,0.000000
1694167494.700754,98435.000000,1694167494.689204,0.000000,0.000000,0.000000,0.000000,0.000000,0.000000
1694167494.709569,98436.000000,1694167494.703274,0.000000,0.000000,0.000000,0.000000,0.000000,0.000000
1694167494.718483,98437.000000,1694167494.709383,0.000000,0.000000,0.000000,0.000000,0.000000,0.000000
1694167494.725443,98438.000000,1694167494.719777,0.000000,0.000000,0.000000,0.000000,0.000000,0.000000
1694167494.732549,98439.000000,1694167494.729259,0.000000,0.000000,0.000000,0.000000,0.000000,0.000000
1694167494.750992,98440.000000,1694167494.743042,0.000000,0.000000,0.000000,0.000000,0.000000,0.000000
1694167494.758856,98441.000000,1694167494.750982,0.000000,0.000000,0.000000,0.000000,0.000000,0.000000
1694167494.770871,98442.000000,1694167494.759319,0.000000,0.000000,0.000000,0.000000,0.000000,0.000000
1694167494.778913,98443.000000,1694167494.769250,0.000000,0.000000,0.000000,0.000000,0.000000,0.000000
1694167494.784922,98444.000000,1694167494.780501,0.000000,0.000000,0.000000,0.000000,0.000000,0.000000
1694167494.792443,98445.000000,1694167494.789332,0.000000,0.000000,0.000000,0.000000,0.000000,0.000000
1694167494.809172,98446.000000,1694167494.799453,0.000000,0.000000,0.000000,0.000000,0.000000,0.000000
1694167494.821864,98447.000000,1694167494.809449,0.000000,0.000000,0.000000,0.000000,0.000000,0.000000
1694167494.828956,98448.000000,1694167494.819615,0.000000,0.000000,0.000000,0.000000,0.000000,0.000000
1694167494.838613,98449.000000,1694167494.830202,0.000000,0.000000,0.000000,0.000000,0.000000,0.000000
1694167494.850367,98450.000000,1694167494.839609,0.000000,0.000000,0.000000,0.000000,0.000000,0.000000
1694167494.861836,98451.000000,1694167494.849284,0.000000,0.000000,0.000000,0.000000,0.000000,0.000000
1694167494.876610,98452.000000,1694167494.859259,0.000000,0.000000,0.000000,0.000000,0.000000,0.000000
1694167494.884759,98454.000000,1694167494.880259,0.000000,0.000000,0.000000,0.000000,0.000000,0.000000
1694167494.893951,98455.000000,1694167494.889197,0.000000,0.000000,0.000000,0.000000,0.000000,0.000000
1694167494.912130,98456.000000,1694167494.899328,0.000000,0.000000,0.000000,0.000000,0.000000,0.000000
1694167494.922446,98457.000000,1694167494.909591,0.000000,0.000000,0.000000,0.000000,0.000000,0.000000
1694167494.931303,98458.000000,1694167494.919338,0.000000,0.000000,0.000000,0.000000,0.000000,0.000000
1694167494.939445,98459.000000,1694167494.930232,0.000000,0.000000,0.000000,0.000000,0.000000,0.000000
1694167494.950346,98460.000000,1694167494.939335,0.000000,0.000000,0.000000,0.000000,0.000000,0.000000
1694167494.960618,98461.000000,1694167494.949509,0.000000,0.000000,0.000000,0.000000,0.000000,0.000000
1694167494.977551,98462.000000,1694167494.959334,0.000000,0.000000,0.000000,0.000000,0.000000,0.000000
1694167494.983890,98464.000000,1694167494.980011,0.000000,0.000000,0.000000,0.000000,0.000000,0.000000
1694167494.997750,98465.000000,1694167494.990376,0.000000,0.000000,0.000000,0.000000,0.000000,0.000000
1694167495.008525,98466.000000,1694167494.999373,0.000000,0.000000,0.000000,0.000000,0.000000,0.000000
1694167495.017106,98467.000000,1694167495.009245,0.000000,0.000000,0.000000,0.000000,0.000000,0.000000
1694167495.027923,98468.000000,1694167495.019667,0.000000,0.000000,0.000000,0.000000,0.000000,0.000000
1694167495.034466,98469.000000,1694167495.029867,0.000000,0.000000,0.000000,0.000000,0.000000,0.000000
1694167495.050374,98470.000000,1694167495.040510,0.000000,0.000000,0.000000,0.000000,0.000000,0.000000
1694167495.062148,98471.000000,1694167495.051770,0.000000,0.000000,0.000000,0.000000,0.000000,0.000000
1694167495.068252,98472.000000,1694167495.059340,0.000000,0.000000,0.000000,0.000000,0.000000,0.000000
1694167495.082174,98473.000000,1694167495.069340,0.000000,0.000000,0.000000,0.000000,0.000000,0.000000
1694167495.088953,98474.000000,1694167495.079707,0.000000,0.000000,0.000000,0.000000,0.000000,0.000000
1694167495.095601,98475.000000,1694167495.089370,0.000000,0.000000,0.000000,0.000000,0.000000,0.000000
1694167495.103015,98476.000000,1694167495.099370,0.000000,0.000000,0.000000,0.000000,0.000000,0.000000
1694167495.117611,98477.000000,1694167495.109374,0.000000,0.000000,0.000000,0.000000,0.000000,0.000000
1694167495.128426,98478.000000,1694167495.119613,0.000000,0.000000,0.000000,0.000000,0.000000,0.000000
1694167495.137278,98479.000000,1694167495.129258,0.000000,0.000000,0.000000,0.000000,0.000000,0.000000
1694167495.147285,98480.000000,1694167495.139232,0.000000,0.000000,0.000000,0.000000,0.000000,0.000000
1694167495.156970,98481.000000,1694167495.149374,0.000000,0.000000,0.000000,0.000000,0.000000,0.000000
1694167495.165273,98482.000000,1694167495.159462,0.000000,0.000000,0.000000,0.000000,0.000000,0.000000
1694167495.178671,98483.000000,1694167495.169152,0.000000,0.000000,0.000000,0.000000,0.000000,0.000000
1694167495.189680,98484.000000,1694167495.179463,0.000000,0.000000,0.000000,0.000000,0.000000,0.000000
1694167495.200482,98485.000000,1694167495.189581,0.000000,0.000000,0.000000,0.000000,0.000000,0.000000
1694167495.216152,98486.000000,1694167495.199246,0.000000,0.000000,0.000000,0.000000,0.000000,0.000000
1694167495.223017,98488.000000,1694167495.219342,0.000000,0.000000,0.000000,0.000000,0.000000,0.000000
1694167495.239232,98489.000000,1694167495.231447,0.000000,0.000000,0.000000,0.000000,0.000000,0.000000
1694167495.249238,98490.000000,1694167495.239323,0.000000,0.000000,0.000000,0.000000,0.000000,0.000000
1694167495.259069,98491.000000,1694167495.249255,0.000000,0.000000,0.000000,0.000000,0.000000,0.000000
1694167495.267368,98492.000000,1694167495.259483,0.000000,0.000000,0.000000,0.000000,0.000000,0.000000
1694167495.283514,98493.000000,1694167495.269228,0.000000,0.000000,0.000000,0.000000,0.000000,0.000000
1694167495.295800,98494.000000,1694167495.279816,0.000000,0.000000,0.000000,0.000000,0.000000,0.000000
1694167495.305485,98495.000000,1694167495.289231,0.000000,0.000000,0.000000,0.000000,0.000000,0.000000
1694167495.309698,98496.000000,1694167495.299595,0.000000,0.000000,0.000000,0.000000,0.000000,0.000000
1694167495.313585,98497.000000,1694167495.309335,0.000000,0.000000,0.000000,0.000000,0.000000,0.000000
1694167495.326325,98498.000000,1694167495.320242,0.000000,0.000000,0.000000,0.000000,0.000000,0.000000
1694167495.339843,98499.000000,1694167495.329427,0.000000,0.000000,0.000000,0.000000,0.000000,0.000000
1694167495.348606,98500.000000,1694167495.339334,0.000000,0.000000,0.000000,0.000000,0.000000,0.000000
1694167495.360199,98501.000000,1694167495.349347,0.000000,0.000000,0.000000,0.000000,0.000000,0.000000
1694167495.368220,98502.000000,1694167495.359388,0.000000,0.000000,0.000000,0.000000,0.000000,0.000000
1694167495.378899,98503.000000,1694167495.369336,0.000000,0.000000,0.000000,0.000000,0.000000,0.000000
1694167495.387935,98504.000000,1694167495.379362,0.000000,0.000000,0.000000,0.000000,0.000000,0.000000
1694167495.395886,98505.000000,1694167495.389344,0.000000,0.000000,0.000000,0.000000,0.000000,0.000000
1694167495.404410,98506.000000,1694167495.399603,0.000000,0.000000,0.000000,0.000000,0.000000,0.000000
1694167495.417811,98507.000000,1694167495.409566,0.000000,0.000000,0.000000,0.000000,0.000000,0.000000
1694167495.427900,98508.000000,1694167495.419359,0.000000,0.000000,0.000000,0.000000,0.000000,0.000000
1694167495.435567,98509.000000,1694167495.429584,0.000000,0.000000,0.000000,0.000000,0.000000,0.000000
1694167495.446227,98510.000000,1694167495.439349,0.000000,0.000000,0.000000,0.000000,0.000000,0.000000
1694167495.455496,98511.000000,1694167495.449861,0.000000,0.000000,0.000000,0.000000,0.000000,0.000000
1694167495.466688,98512.000000,1694167495.459400,0.000000,0.000000,0.000000,0.000000,0.000000,0.000000
1694167495.477030,98513.000000,1694167495.469455,0.000000,0.000000,0.000000,0.000000,0.000000,0.000000
1694167495.486919,98514.000000,1694167495.479409,0.000000,0.000000,0.000000,0.000000,0.000000,0.000000
1694167495.496122,98515.000000,1694167495.489232,0.000000,0.000000,0.000000,0.000000,0.000000,0.000000
1694167495.504749,98516.000000,1694167495.499653,0.000000,0.000000,0.000000,0.000000,0.000000,0.000000
1694167495.515972,98517.000000,1694167495.509451,0.000000,0.000000,0.000000,0.000000,0.000000,0.000000
1694167495.527270,98518.000000,1694167495.519331,0.000000,0.000000,0.000000,0.000000,0.000000,0.000000
1694167495.537089,98519.000000,1694167495.529252,0.000000,0.000000,0.000000,0.000000,0.000000,0.000000
1694167495.547302,98520.000000,1694167495.539462,0.000000,0.000000,0.000000,0.000000,0.000000,0.000000
1694167495.556085,98521.000000,1694167495.549974,0.000000,0.000000,0.000000,0.000000,0.000000,0.000000
1694167495.570507,98522.000000,1694167495.559368,0.000000,0.000000,0.000000,0.000000,0.000000,0.000000
1694167495.577178,98523.000000,1694167495.569252,0.000000,0.000000,0.000000,0.000000,0.000000,0.000000
1694167495.591963,98524.000000,1694167495.579375,0.000000,0.000000,0.000000,0.000000,0.000000,0.000000
1694167495.600899,98525.000000,1694167495.589458,0.000000,0.000000,0.000000,0.000000,0.000000,0.000000
1694167495.604595,98526.000000,1694167495.599441,0.000000,0.000000,0.000000,0.000000,0.000000,0.000000
1694167495.617582,98527.000000,1694167495.611377,0.000000,0.000000,0.000000,0.000000,0.000000,0.000000
1694167495.626628,98528.000000,1694167495.619344,0.000000,0.000000,0.000000,0.000000,0.000000,0.000000
1694167495.643697,98529.000000,1694167495.629359,0.000000,0.000000,0.000000,0.000000,0.000000,0.000000
1694167495.658077,98530.000000,1694167495.639593,0.000000,0.000000,0.000000,0.000000,0.000000,0.000000
1694167495.670792,98532.000000,1694167495.659370,0.000000,0.000000,0.000000,0.000000,0.000000,0.000000
1694167495.682182,98533.000000,1694167495.669444,0.000000,0.000000,0.000000,0.000000,0.000000,0.000000
1694167495.693067,98534.000000,1694167495.683504,0.000000,0.000000,0.000000,0.000000,0.000000,0.000000
1694167495.701140,98535.000000,1694167495.690209,0.000000,0.000000,0.000000,0.000000,0.000000,0.000000
1694167495.709719,98536.000000,1694167495.699369,0.000000,0.000000,0.000000,0.000000,0.000000,0.000000
1694167495.715847,98537.000000,1694167495.710109,0.000000,0.000000,0.000000,0.000000,0.000000,0.000000
1694167495.732629,98538.000000,1694167495.722382,0.000000,0.000000,0.000000,0.000000,0.000000,0.000000
1694167495.743677,98539.000000,1694167495.729215,0.000000,0.000000,0.000000,0.000000,0.000000,0.000000
1694167495.752606,98540.000000,1694167495.739334,0.000000,0.000000,0.000000,0.000000,0.000000,0.000000
1694167495.762205,98541.000000,1694167495.749885,0.000000,0.000000,0.000000,0.000000,0.000000,0.000000
1694167495.773594,98542.000000,1694167495.759320,0.000000,0.000000,0.000000,0.000000,0.000000,0.000000
1694167495.774171,98543.000000,1694167495.769429,0.000000,0.000000,0.000000,0.000000,0.000000,0.000000
1694167495.784104,98544.000000,1694167495.779725,0.000000,0.000000,0.000000,0.000000,0.000000,0.000000
1694167495.792793,98545.000000,1694167495.789253,0.000000,0.000000,0.000000,0.000000,0.000000,0.000000
1694167495.803747,98546.000000,1694167495.799318,0.000000,0.000000,0.000000,0.000000,0.000000,0.000000
1694167495.812058,98547.000000,1694167495.809220,0.000000,0.000000,0.000000,0.000000,0.000000,0.000000
1694167495.826829,98548.000000,1694167495.819410,0.000000,0.000000,0.000000,0.000000,0.000000,0.000000
1694167495.834635,98549.000000,1694167495.829323,0.000000,0.000000,0.000000,0.000000,0.000000,0.000000
1694167495.853065,98550.000000,1694167495.839380,0.000000,0.000000,0.000000,0.000000,0.000000,0.000000
1694167495.861333,98551.000000,1694167495.852702,0.000000,0.000000,0.000000,0.000000,0.000000,0.000000
1694167495.873452,98552.000000,1694167495.859231,0.000000,0.000000,0.000000,0.000000,0.000000,0.000000
1694167495.883036,98553.000000,1694167495.869331,0.000000,0.000000,0.000000,0.000000,0.000000,0.000000
1694167495.886947,98554.000000,1694167495.879323,0.000000,0.000000,0.000000,0.000000,0.000000,0.000000
1694167495.903164,98555.000000,1694167495.890246,0.000000,0.000000,0.000000,0.000000,0.000000,0.000000
1694167495.913608,98556.000000,1694167495.899347,0.000000,0.000000,0.000000,0.000000,0.000000,0.000000
1694167495.914599,98557.000000,1694167495.909743,0.000000,0.000000,0.000000,0.000000,0.000000,0.000000
1694167495.924691,98558.000000,1694167495.919581,0.000000,0.000000,0.000000,0.000000,0.000000,0.000000
1694167495.933791,98559.000000,1694167495.929537,0.000000,0.000000,0.000000,0.000000,0.000000,0.000000
