__time,/hsrb/wrist_wrench/compensated/header/seq,/hsrb/wrist_wrench/compensated/header/stamp,/hsrb/wrist_wrench/compensated/wrench/force/x,/hsrb/wrist_wrench/compensated/wrench/force/y,/hsrb/wrist_wrench/compensated/wrench/force/z,/hsrb/wrist_wrench/compensated/wrench/torque/x,/hsrb/wrist_wrench/compensated/wrench/torque/y,/hsrb/wrist_wrench/compensated/wrench/torque/z
1694167637.808872,112687.000000,1694167637.798007,0.000000,0.000000,0.000000,0.000000,0.000000,0.000000
1694167637.818825,112689.000000,1694167637.809717,0.000000,0.000000,0.000000,0.000000,0.000000,0.000000
1694167637.832235,112690.000000,1694167637.822048,0.000000,0.000000,0.000000,0.000000,0.000000,0.000000
1694167637.841449,112691.000000,1694167637.829851,0.000000,0.000000,0.000000,0.000000,0.000000,0.000000
1694167637.855726,112692.000000,1694167637.839989,0.000000,0.000000,0.000000,0.000000,0.000000,0.000000
1694167637.864255,112693.000000,1694167637.849858,0.000000,0.000000,0.000000,0.000000,0.000000,0.000000
1694167637.877786,112694.000000,1694167637.860096,0.000000,0.000000,0.000000,0.000000,0.000000,0.000000
1694167637.882871,112695.000000,1694167637.870562,0.000000,0.000000,0.000000,0.000000,0.000000,0.000000
1694167637.894070,112696.000000,1694167637.879839,0.000000,0.000000,0.000000,0.000000,0.000000,0.000000
1694167637.901899,112697.000000,1694167637.890449,0.000000,0.000000,0.000000,0.000000,0.000000,0.000000
1694167637.912925,112698.000000,1694167637.901247,0.000000,0.000000,0.000000,0.000000,0.000000,0.000000
1694167637.924486,112699.000000,1694167637.910498,0.000000,0.000000,0.000000,0.000000,0.000000,0.000000
1694167637.936880,112700.000000,1694167637.925011,0.000000,0.000000,0.000000,0.000000,0.000000,0.000000
1694167637.945040,112701.000000,1694167637.938686,0.000000,0.000000,0.000000,0.000000,0.000000,0.000000
1694167637.954931,112702.000000,1694167637.940824,0.000000,0.000000,0.000000,0.000000,0.000000,0.000000
1694167637.971006,112703.000000,1694167637.958401,0.000000,0.000000,0.000000,0.000000,0.000000,0.000000
1694167637.979574,112705.000000,1694167637.969755,0.000000,0.000000,0.000000,0.000000,0.000000,0.000000
1694167637.986194,112706.000000,1694167637.980227,0.000000,0.000000,0.000000,0.000000,0.000000,0.000000
1694167637.999152,112707.000000,1694167637.993191,0.000000,0.000000,0.000000,0.000000,0.000000,0.000000
1694167638.032266,112708.000000,1694167637.999869,0.000000,0.000000,0.000000,0.000000,0.000000,0.000000
1694167638.037468,112710.000000,1694167638.019643,0.000000,0.000000,0.000000,0.000000,0.000000,0.000000
1694167638.051113,112711.000000,1694167638.031609,0.000000,0.000000,0.000000,0.000000,0.000000,0.000000
1694167638.059791,112713.000000,1694167638.049715,0.000000,0.000000,0.000000,0.000000,0.000000,0.000000
1694167638.066592,112714.000000,1694167638.061385,0.000000,0.000000,0.000000,0.000000,0.000000,0.000000
1694167638.098900,112715.000000,1694167638.088545,0.000000,0.000000,0.000000,0.000000,0.000000,0.000000
1694167638.114083,112716.000000,1694167638.095787,0.000000,0.000000,0.000000,0.000000,0.000000,0.000000
1694167638.124675,112717.000000,1694167638.113203,0.000000,0.000000,0.000000,0.000000,0.000000,0.000000
1694167638.132757,112718.000000,1694167638.119898,0.000000,0.000000,0.000000,0.000000,0.000000,0.000000
1694167638.150856,112719.000000,1694167638.130148,0.000000,0.000000,0.000000,0.000000,0.000000,0.000000
1694167638.168613,112720.000000,1694167638.162819,0.000000,0.000000,0.000000,0.000000,0.000000,0.000000
1694167638.189519,112721.000000,1694167638.164719,0.000000,0.000000,0.000000,0.000000,0.000000,0.000000
1694167638.202260,112723.000000,1694167638.184472,0.000000,0.000000,0.000000,0.000000,0.000000,0.000000
1694167638.232984,112724.000000,1694167638.194433,0.000000,0.000000,0.000000,0.000000,0.000000,0.000000
1694167638.235383,112725.000000,1694167638.204392,0.000000,0.000000,0.000000,0.000000,0.000000,0.000000
1694167638.270119,112727.000000,1694167638.230698,0.000000,0.000000,0.000000,0.000000,0.000000,0.000000
1694167638.273819,112729.000000,1694167638.247680,0.000000,0.000000,0.000000,0.000000,0.000000,0.000000
1694167638.285259,112732.000000,1694167638.274378,0.000000,0.000000,0.000000,0.000000,0.000000,0.000000
1694167638.300241,112733.000000,1694167638.289445,0.000000,0.000000,0.000000,0.000000,0.000000,0.000000
1694167638.315955,112734.000000,1694167638.296086,0.000000,0.000000,0.000000,0.000000,0.000000,0.000000
1694167638.329148,112736.000000,1694167638.314372,0.000000,0.000000,0.000000,0.000000,0.000000,0.000000
1694167638.335947,112737.000000,1694167638.324334,0.000000,0.000000,0.000000,0.000000,0.000000,0.000000
1694167638.354587,112738.000000,1694167638.336683,0.000000,0.000000,0.000000,0.000000,0.000000,0.000000
1694167638.366606,112739.000000,1694167638.344340,0.000000,0.000000,0.000000,0.000000,0.000000,0.000000
1694167638.385470,112740.000000,1694167638.356564,0.000000,0.000000,0.000000,0.000000,0.000000,0.000000
1694167638.423577,112742.000000,1694167638.374196,0.000000,0.000000,0.000000,0.000000,0.000000,0.000000
1694167638.433172,112743.000000,1694167638.384337,0.000000,0.000000,0.000000,0.000000,0.000000,0.000000
1694167638.464241,112747.000000,1694167638.427606,0.000000,0.000000,0.000000,0.000000,0.000000,0.000000
1694167638.495082,112749.000000,1694167638.450809,0.000000,0.000000,0.000000,0.000000,0.000000,0.000000
1694167638.498923,112750.000000,1694167638.454795,0.000000,0.000000,0.000000,0.000000,0.000000,0.000000
1694167638.498936,112751.000000,1694167638.465185,0.000000,0.000000,0.000000,0.000000,0.000000,0.000000
1694167638.525848,112753.000000,1694167638.484816,0.000000,0.000000,0.000000,0.000000,0.000000,0.000000
1694167638.525863,112754.000000,1694167638.495158,0.000000,0.000000,0.000000,0.000000,0.000000,0.000000
1694167638.536782,112756.000000,1694167638.514376,0.000000,0.000000,0.000000,0.000000,0.000000,0.000000
1694167638.551530,112757.000000,1694167638.525226,0.000000,0.000000,0.000000,0.000000,0.000000,0.000000
1694167638.562521,112758.000000,1694167638.534257,0.000000,0.000000,0.000000,0.000000,0.000000,0.000000
1694167638.573738,112759.000000,1694167638.545002,0.000000,0.000000,0.000000,0.000000,0.000000,0.000000
1694167638.602059,112761.000000,1694167638.564344,0.000000,0.000000,0.000000,0.000000,0.000000,0.000000
1694167638.617575,112762.000000,1694167638.574419,0.000000,0.000000,0.000000,0.000000,0.000000,0.000000
1694167638.639625,112765.000000,1694167638.604590,0.015156,0.004756,0.006065,-0.000104,0.000853,0.000192
1694167638.659260,112766.000000,1694167638.614278,0.021019,0.006722,0.008286,-0.000144,0.001176,0.000266
1694167638.693458,112769.000000,1694167638.644392,0.021758,0.007091,0.008031,-0.000151,0.001208,0.000277
1694167638.697516,112770.000000,1694167638.654165,0.018178,0.005888,0.006559,-0.000126,0.001009,0.000233
1694167638.725689,112774.000000,1694167638.694838,0.000000,0.000000,0.000000,0.000000,0.000000,0.000000
1694167638.746783,112777.000000,1694167638.724333,0.000000,0.000000,0.000000,0.000000,0.000000,0.000000
1694167638.774195,112779.000000,1694167638.744577,0.000000,0.000000,0.000000,0.000000,0.000000,0.000000
1694167638.816284,112782.000000,1694167638.774568,0.000000,0.000000,0.000000,0.000000,0.000000,0.000000
1694167638.850794,112786.000000,1694167638.816950,0.000000,0.000000,0.000000,0.000000,0.000000,0.000000
1694167638.905535,112790.000000,1694167638.854722,0.000000,0.000000,0.000000,0.000000,0.000000,0.000000
1694167638.918335,112792.000000,1694167638.874358,0.000000,0.000000,0.000000,0.000000,0.000000,0.000000
1694167638.937467,112795.000000,1694167638.904448,0.000000,0.000000,0.000000,0.000000,0.000000,0.000000
1694167638.951187,112797.000000,1694167638.924374,0.000000,0.000000,0.000000,0.000000,0.000000,0.000000
1694167638.958584,112798.000000,1694167638.934252,0.000000,0.000000,0.000000,0.000000,0.000000,0.000000
1694167638.962262,112799.000000,1694167638.945161,0.000000,0.000000,0.000000,0.000000,0.000000,0.000000
1694167638.971116,112800.000000,1694167638.954581,0.000000,0.000000,0.000000,0.000000,0.000000,0.000000
1694167638.971595,112801.000000,1694167638.964238,0.000000,0.000000,0.000000,0.000000,0.000000,0.000000
1694167638.979381,112802.000000,1694167638.974546,0.000000,0.000000,0.000000,0.000000,0.000000,0.000000
1694167638.993654,112803.000000,1694167638.984637,0.000000,0.000000,0.000000,0.000000,0.000000,0.000000
1694167639.007474,112804.000000,1694167638.994453,0.000000,0.000000,0.000000,0.000000,0.000000,0.000000
1694167639.021636,112805.000000,1694167639.004356,0.000000,0.000000,0.000000,0.000000,0.000000,0.000000
1694167639.030611,112806.000000,1694167639.014227,0.000000,0.000000,0.000000,0.000000,0.000000,0.000000
1694167639.037278,112807.000000,1694167639.027939,0.000000,0.000000,0.000000,0.000000,0.000000,0.000000
1694167639.055494,112808.000000,1694167639.034570,0.000000,0.000000,0.000000,0.000000,0.000000,0.000000
1694167639.060790,112810.000000,1694167639.055162,0.000000,0.000000,0.000000,0.000000,0.000000,0.000000
1694167639.070096,112811.000000,1694167639.064660,0.000000,0.000000,0.000000,0.000000,0.000000,0.000000
1694167639.086225,112812.000000,1694167639.074422,0.000000,0.000000,0.000000,0.000000,0.000000,0.000000
1694167639.104935,112813.000000,1694167639.084368,0.000000,0.000000,0.000000,0.000000,0.000000,0.000000
1694167639.111983,112815.000000,1694167639.104229,0.000000,0.000000,0.000000,0.000000,0.000000,0.000000
1694167639.118647,112816.000000,1694167639.114342,0.000000,0.000000,0.000000,0.000000,0.000000,0.000000
1694167639.131230,112817.000000,1694167639.124588,0.000000,0.000000,0.000000,0.000000,0.000000,0.000000
1694167639.140994,112818.000000,1694167639.134305,0.000000,0.000000,0.000000,0.000000,0.000000,0.000000
1694167639.155242,112819.000000,1694167639.144307,0.000000,0.000000,0.000000,0.000000,0.000000,0.000000
1694167639.165191,112820.000000,1694167639.154364,0.000000,0.000000,0.000000,0.000000,0.000000,0.000000
1694167639.173609,112821.000000,1694167639.164451,0.000000,0.000000,0.000000,0.000000,0.000000,0.000000
1694167639.185509,112822.000000,1694167639.174262,0.000000,0.000000,0.000000,0.000000,0.000000,0.000000
1694167639.197548,112823.000000,1694167639.184419,0.000000,0.000000,0.000000,0.000000,0.000000,0.000000
1694167639.208073,112824.000000,1694167639.194575,0.000000,0.000000,0.000000,0.000000,0.000000,0.000000
1694167639.218102,112825.000000,1694167639.204314,0.000000,0.000000,0.000000,0.000000,0.000000,0.000000
1694167639.223531,112826.000000,1694167639.214225,0.000000,0.000000,0.000000,0.000000,0.000000,0.000000
1694167639.230285,112827.000000,1694167639.224323,0.000000,0.000000,0.000000,0.000000,0.000000,0.000000
1694167639.241058,112828.000000,1694167639.234357,0.000000,0.000000,0.000000,0.000000,0.000000,0.000000
1694167639.258646,112829.000000,1694167639.244420,0.000000,0.000000,0.000000,0.000000,0.000000,0.000000
1694167639.276893,112830.000000,1694167639.254253,0.000000,0.000000,0.000000,0.000000,0.000000,0.000000
1694167639.291145,112832.000000,1694167639.275362,0.000000,0.000000,0.000000,0.000000,0.000000,0.000000
1694167639.302582,112833.000000,1694167639.284320,0.000000,0.000000,0.000000,0.000000,0.000000,0.000000
1694167639.305219,112834.000000,1694167639.294189,0.000000,0.000000,0.000000,0.000000,0.000000,0.000000
1694167639.313796,112835.000000,1694167639.304376,0.000000,0.000000,0.000000,0.000000,0.000000,0.000000
1694167639.325198,112836.000000,1694167639.314411,0.000000,0.000000,0.000000,0.000000,0.000000,0.000000
1694167639.337306,112837.000000,1694167639.324325,0.000000,0.000000,0.000000,0.000000,0.000000,0.000000
1694167639.353282,112838.000000,1694167639.334539,0.000000,0.000000,0.000000,0.000000,0.000000,0.000000
1694167639.361964,112839.000000,1694167639.344573,0.000000,0.000000,0.000000,0.000000,0.000000,0.000000
1694167639.363923,112840.000000,1694167639.354313,0.000000,0.000000,0.000000,0.000000,0.000000,0.000000
1694167639.383034,112841.000000,1694167639.364320,0.000000,0.000000,0.000000,0.000000,0.000000,0.000000
1694167639.402455,112843.000000,1694167639.384321,0.000000,0.000000,0.000000,0.000000,0.000000,0.000000
1694167639.422827,112845.000000,1694167639.404561,0.000000,0.000000,0.000000,0.000000,0.000000,0.000000
1694167639.448520,112847.000000,1694167639.425355,0.000000,0.000000,0.000000,0.000000,0.000000,0.000000
1694167639.461209,112849.000000,1694167639.444383,0.000000,0.000000,0.000000,0.000000,0.000000,0.000000
1694167639.475755,112850.000000,1694167639.454358,0.000000,0.000000,0.000000,0.000000,0.000000,0.000000
1694167639.480945,112852.000000,1694167639.474565,0.000000,0.000000,0.000000,0.000000,0.000000,0.000000
1694167639.495222,112853.000000,1694167639.484352,0.000000,0.000000,0.000000,0.000000,0.000000,0.000000
1694167639.508008,112854.000000,1694167639.494229,0.000000,0.000000,0.000000,0.000000,0.000000,0.000000
1694167639.516644,112855.000000,1694167639.504317,0.000000,0.000000,0.000000,0.000000,0.000000,0.000000
1694167639.525561,112856.000000,1694167639.514355,0.000000,0.000000,0.000000,0.000000,0.000000,0.000000
1694167639.533400,112857.000000,1694167639.524327,0.000000,0.000000,0.000000,0.000000,0.000000,0.000000
1694167639.545332,112858.000000,1694167639.537382,0.000000,0.000000,0.000000,0.000000,0.000000,0.000000
1694167639.553182,112859.000000,1694167639.544571,0.000000,0.000000,0.000000,0.000000,0.000000,0.000000
1694167639.569910,112860.000000,1694167639.554223,0.000000,0.000000,0.000000,0.000000,0.000000,0.000000
1694167639.581058,112861.000000,1694167639.565866,0.000000,0.000000,0.000000,0.000000,0.000000,0.000000
1694167639.584489,112862.000000,1694167639.574385,0.000000,0.000000,0.000000,0.000000,0.000000,0.000000
1694167639.594664,112863.000000,1694167639.584344,0.000000,0.000000,0.000000,0.000000,0.000000,0.000000
1694167639.604345,112864.000000,1694167639.594428,0.000000,0.000000,0.000000,0.000000,0.000000,0.000000
1694167639.609025,112865.000000,1694167639.604481,0.000000,0.000000,0.000000,0.000000,0.000000,0.000000
1694167639.621509,112866.000000,1694167639.614443,0.000000,0.000000,0.000000,0.000000,0.000000,0.000000
1694167639.630638,112867.000000,1694167639.624236,0.000000,0.000000,0.000000,0.000000,0.000000,0.000000
1694167639.640441,112868.000000,1694167639.634376,0.000000,0.000000,0.000000,0.000000,0.000000,0.000000
1694167639.652081,112869.000000,1694167639.644660,0.000000,0.000000,0.000000,0.000000,0.000000,0.000000
1694167639.667822,112870.000000,1694167639.654302,0.000000,0.000000,0.000000,0.000000,0.000000,0.000000
1694167639.677258,112871.000000,1694167639.664354,0.000000,0.000000,0.000000,0.000000,0.000000,0.000000
1694167639.680079,112872.000000,1694167639.674350,0.000000,0.000000,0.000000,0.000000,0.000000,0.000000
1694167639.694556,112873.000000,1694167639.684583,0.000000,0.000000,0.000000,0.000000,0.000000,0.000000
1694167639.704651,112874.000000,1694167639.694332,0.000000,0.000000,0.000000,0.000000,0.000000,0.000000
1694167639.717103,112875.000000,1694167639.705338,0.000000,0.000000,0.000000,0.000000,0.000000,0.000000
1694167639.724247,112876.000000,1694167639.714556,0.000000,0.000000,0.000000,0.000000,0.000000,0.000000
1694167639.731881,112877.000000,1694167639.724316,0.000000,0.000000,0.000000,0.000000,0.000000,0.000000
1694167639.743326,112878.000000,1694167639.734281,0.000000,0.000000,0.000000,0.000000,0.000000,0.000000
1694167639.756673,112879.000000,1694167639.745735,0.000000,0.000000,0.000000,0.000000,0.000000,0.000000
1694167639.768336,112880.000000,1694167639.754444,0.000000,0.000000,0.000000,0.000000,0.000000,0.000000
1694167639.781031,112881.000000,1694167639.764329,0.000000,0.000000,0.000000,0.000000,0.000000,0.000000
1694167639.784953,112882.000000,1694167639.774245,0.000000,0.000000,0.000000,0.000000,0.000000,0.000000
1694167639.793695,112883.000000,1694167639.787611,0.000000,0.000000,0.000000,0.000000,0.000000,0.000000
1694167639.803890,112884.000000,1694167639.795464,0.000000,0.000000,0.000000,0.000000,0.000000,0.000000
1694167639.811686,112885.000000,1694167639.804323,0.000000,0.000000,0.000000,0.000000,0.000000,0.000000
1694167639.826033,112886.000000,1694167639.814281,0.000000,0.000000,0.000000,0.000000,0.000000,0.000000
1694167639.848655,112887.000000,1694167639.835605,0.000000,0.000000,0.000000,0.000000,0.000000,0.000000
1694167639.864421,112888.000000,1694167639.836819,0.000000,0.000000,0.000000,0.000000,0.000000,0.000000
1694167639.868710,112889.000000,1694167639.845284,0.000000,0.000000,0.000000,0.000000,0.000000,0.000000
1694167639.871517,112890.000000,1694167639.854531,0.000000,0.000000,0.000000,0.000000,0.000000,0.000000
1694167639.878036,112891.000000,1694167639.864609,0.000000,0.000000,0.000000,0.000000,0.000000,0.000000
1694167639.884400,112892.000000,1694167639.875442,0.000000,0.000000,0.000000,0.000000,0.000000,0.000000
1694167639.891923,112893.000000,1694167639.886678,0.000000,0.000000,0.000000,0.000000,0.000000,0.000000
1694167639.903132,112894.000000,1694167639.894416,0.000000,0.000000,0.000000,0.000000,0.000000,0.000000
1694167639.915099,112895.000000,1694167639.904319,0.000000,0.000000,0.000000,0.000000,0.000000,0.000000
1694167639.925406,112896.000000,1694167639.914335,0.000000,0.000000,0.000000,0.000000,0.000000,0.000000
1694167639.935720,112897.000000,1694167639.924583,0.000000,0.000000,0.000000,0.000000,0.000000,0.000000
1694167639.944039,112898.000000,1694167639.935845,0.000000,0.000000,0.000000,0.000000,0.000000,0.000000
1694167639.955217,112899.000000,1694167639.945189,0.000000,0.000000,0.000000,0.000000,0.000000,0.000000
1694167639.962499,112900.000000,1694167639.954321,0.000000,0.000000,0.000000,0.000000,0.000000,0.000000
1694167639.974388,112901.000000,1694167639.968708,0.000000,0.000000,0.000000,0.000000,0.000000,0.000000
1694167639.983957,112902.000000,1694167639.974291,0.000000,0.000000,0.000000,0.000000,0.000000,0.000000
1694167639.995547,112903.000000,1694167639.984312,0.000000,0.000000,0.000000,0.000000,0.000000,0.000000
1694167640.013654,112904.000000,1694167639.994962,0.000000,0.000000,0.000000,0.000000,0.000000,0.000000
1694167640.018539,112905.000000,1694167640.004224,0.000000,0.000000,0.000000,0.000000,0.000000,0.000000
1694167640.022521,112906.000000,1694167640.014269,0.000000,0.000000,0.000000,0.000000,0.000000,0.000000
1694167640.032267,112907.000000,1694167640.024338,0.000000,0.000000,0.000000,0.000000,0.000000,0.000000
1694167640.041746,112908.000000,1694167640.034768,0.000000,0.000000,0.000000,0.000000,0.000000,0.000000
1694167640.051051,112909.000000,1694167640.044749,0.000000,0.000000,0.000000,0.000000,0.000000,0.000000
1694167640.063315,112910.000000,1694167640.054770,0.000000,0.000000,0.000000,0.000000,0.000000,0.000000
1694167640.077461,112911.000000,1694167640.068732,0.000000,0.000000,0.000000,0.000000,0.000000,0.000000
1694167640.085017,112912.000000,1694167640.074232,0.000000,0.000000,0.000000,0.000000,0.000000,0.000000
1694167640.102474,112913.000000,1694167640.084299,0.000000,0.000000,0.000000,0.000000,0.000000,0.000000
1694167640.112176,112915.000000,1694167640.104356,0.000000,0.000000,0.000000,0.000000,0.000000,0.000000
1694167640.129076,112916.000000,1694167640.114305,0.000000,0.000000,0.000000,0.000000,0.000000,0.000000
1694167640.134529,112917.000000,1694167640.124299,0.000000,0.000000,0.000000,0.000000,0.000000,0.000000
1694167640.134871,112918.000000,1694167640.134434,0.000000,0.000000,0.000000,0.000000,0.000000,0.000000
1694167640.150863,112919.000000,1694167640.144428,0.000000,0.000000,0.000000,0.000000,0.000000,0.000000
1694167640.166897,112920.000000,1694167640.154838,0.000000,0.000000,0.000000,0.000000,0.000000,0.000000
1694167640.177039,112921.000000,1694167640.165151,0.000000,0.000000,0.000000,0.000000,0.000000,0.000000
1694167640.188440,112922.000000,1694167640.174318,0.000000,0.000000,0.000000,0.000000,0.000000,0.000000
1694167640.197307,112923.000000,1694167640.184699,0.000000,0.000000,0.000000,0.000000,0.000000,0.000000
1694167640.214458,112924.000000,1694167640.196742,0.000000,0.000000,0.000000,0.000000,0.000000,0.000000
1694167640.223700,112925.000000,1694167640.204580,0.000000,0.000000,0.000000,0.000000,0.000000,0.000000
1694167640.225710,112926.000000,1694167640.214350,0.000000,0.000000,0.000000,0.000000,0.000000,0.000000
1694167640.235524,112927.000000,1694167640.224364,0.000000,0.000000,0.000000,0.000000,0.000000,0.000000
1694167640.243759,112928.000000,1694167640.234570,0.000000,0.000000,0.000000,0.000000,0.000000,0.000000
1694167640.257533,112929.000000,1694167640.244344,0.000000,0.000000,0.000000,0.000000,0.000000,0.000000
1694167640.269443,112930.000000,1694167640.254284,0.000000,0.000000,0.000000,0.000000,0.000000,0.000000
1694167640.290485,112932.000000,1694167640.274558,0.000000,0.000000,0.000000,0.000000,0.000000,0.000000
1694167640.304287,112933.000000,1694167640.284348,0.000000,0.000000,0.000000,0.000000,0.000000,0.000000
1694167640.311908,112935.000000,1694167640.304344,0.000000,0.000000,0.000000,0.000000,0.000000,0.000000
1694167640.325369,112936.000000,1694167640.314420,0.000000,0.000000,0.000000,0.000000,0.000000,0.000000
1694167640.334126,112937.000000,1694167640.324429,0.000000,0.000000,0.000000,0.000000,0.000000,0.000000
1694167640.347437,112938.000000,1694167640.334424,0.000000,0.000000,0.000000,0.000000,0.000000,0.000000
1694167640.356382,112939.000000,1694167640.344977,0.000000,0.000000,0.000000,0.000000,0.000000,0.000000
1694167640.364965,112940.000000,1694167640.354349,0.000000,0.000000,0.000000,0.000000,0.000000,0.000000
1694167640.375674,112941.000000,1694167640.364726,0.000000,0.000000,0.000000,0.000000,0.000000,0.000000
1694167640.385058,112942.000000,1694167640.374286,0.000000,0.000000,0.000000,0.000000,0.000000,0.000000
1694167640.396603,112943.000000,1694167640.384512,0.000000,0.000000,0.000000,0.000000,0.000000,0.000000
1694167640.413264,112944.000000,1694167640.394336,0.000000,0.000000,0.000000,0.000000,0.000000,0.000000
1694167640.425905,112945.000000,1694167640.404727,0.000000,0.000000,0.000000,0.000000,0.000000,0.000000
1694167640.429423,112946.000000,1694167640.414378,0.000000,0.000000,0.000000,0.000000,0.000000,0.000000
1694167640.437018,112947.000000,1694167640.424338,0.000000,0.000000,0.000000,0.000000,0.000000,0.000000
1694167640.446934,112948.000000,1694167640.434356,0.000000,0.000000,0.000000,0.000000,0.000000,0.000000
1694167640.458324,112949.000000,1694167640.444551,0.000000,0.000000,0.000000,0.000000,0.000000,0.000000
1694167640.469722,112950.000000,1694167640.454244,0.000000,0.000000,0.000000,0.000000,0.000000,0.000000
1694167640.483083,112951.000000,1694167640.464319,0.000000,0.000000,0.000000,0.000000,0.000000,0.000000
1694167640.492448,112952.000000,1694167640.474681,0.000000,0.000000,0.000000,0.000000,0.000000,0.000000
1694167640.498202,112953.000000,1694167640.484587,0.000000,0.000000,0.000000,0.000000,0.000000,0.000000
1694167640.506370,112954.000000,1694167640.495105,0.000000,0.000000,0.000000,0.000000,0.000000,0.000000
1694167640.519344,112955.000000,1694167640.504319,0.000000,0.000000,0.000000,0.000000,0.000000,0.000000
1694167640.530027,112956.000000,1694167640.514569,0.000000,0.000000,0.000000,0.000000,0.000000,0.000000
1694167640.539842,112957.000000,1694167640.524543,0.000000,0.000000,0.000000,0.000000,0.000000,0.000000
1694167640.563828,112958.000000,1694167640.534372,0.000000,0.000000,0.000000,0.000000,0.000000,0.000000
1694167640.571759,112960.000000,1694167640.554329,0.000000,0.000000,0.000000,0.000000,0.000000,0.000000
1694167640.579966,112961.000000,1694167640.564317,0.000000,0.000000,0.000000,0.000000,0.000000,0.000000
1694167640.594156,112962.000000,1694167640.574517,0.000000,0.000000,0.000000,0.000000,0.000000,0.000000
1694167640.600205,112963.000000,1694167640.584561,0.000000,0.000000,0.000000,0.000000,0.000000,0.000000
1694167640.607022,112964.000000,1694167640.594229,0.000000,0.000000,0.000000,0.000000,0.000000,0.000000
1694167640.621822,112965.000000,1694167640.604370,0.000000,0.000000,0.000000,0.000000,0.000000,0.000000
1694167640.631132,112966.000000,1694167640.614281,0.000000,0.000000,0.000000,0.000000,0.000000,0.000000
1694167640.636865,112967.000000,1694167640.624437,0.000000,0.000000,0.000000,0.000000,0.000000,0.000000
1694167640.645384,112968.000000,1694167640.634420,0.000000,0.000000,0.000000,0.000000,0.000000,0.000000
1694167640.652530,112969.000000,1694167640.644304,0.000000,0.000000,0.000000,0.000000,0.000000,0.000000
1694167640.659791,112970.000000,1694167640.654421,0.000000,0.000000,0.000000,0.000000,0.000000,0.000000
1694167640.672366,112971.000000,1694167640.664590,0.000000,0.000000,0.000000,0.000000,0.000000,0.000000
1694167640.685449,112972.000000,1694167640.674843,0.000000,0.000000,0.000000,0.000000,0.000000,0.000000
1694167640.696267,112973.000000,1694167640.684607,0.000000,0.000000,0.000000,0.000000,0.000000,0.000000
1694167640.709484,112974.000000,1694167640.694335,0.000000,0.000000,0.000000,0.000000,0.000000,0.000000
1694167640.721966,112975.000000,1694167640.705332,0.000000,0.000000,0.000000,0.000000,0.000000,0.000000
1694167640.728984,112976.000000,1694167640.714302,0.000000,0.000000,0.000000,0.000000,0.000000,0.000000
1694167640.737815,112977.000000,1694167640.724738,0.000000,0.000000,0.000000,0.000000,0.000000,0.000000
1694167640.748436,112978.000000,1694167640.734463,0.000000,0.000000,0.000000,0.000000,0.000000,0.000000
1694167640.765067,112979.000000,1694167640.750226,0.000000,0.000000,0.000000,0.000000,0.000000,0.000000
1694167640.768099,112980.000000,1694167640.754703,0.000000,0.000000,0.000000,0.000000,0.000000,0.000000
1694167640.777325,112981.000000,1694167640.764575,0.000000,0.000000,0.000000,0.000000,0.000000,0.000000
1694167640.786932,112982.000000,1694167640.774260,0.000000,0.000000,0.000000,0.000000,0.000000,0.000000
1694167640.794711,112983.000000,1694167640.784423,0.000000,0.000000,0.000000,0.000000,0.000000,0.000000
1694167640.816241,112984.000000,1694167640.794784,0.000000,0.000000,0.000000,0.000000,0.000000,0.000000
1694167640.832516,112985.000000,1694167640.804222,0.000000,0.000000,0.000000,0.000000,0.000000,0.000000
1694167640.839512,112986.000000,1694167640.814270,0.000000,0.000000,0.000000,0.000000,0.000000,0.000000
1694167640.845942,112988.000000,1694167640.834342,0.000000,0.000000,0.000000,0.000000,0.000000,0.000000
1694167640.857546,112989.000000,1694167640.844451,0.000000,0.000000,0.000000,0.000000,0.000000,0.000000
1694167640.876993,112990.000000,1694167640.854274,0.000000,0.000000,0.000000,0.000000,0.000000,0.000000
1694167640.884264,112991.000000,1694167640.864705,0.000000,0.000000,0.000000,0.000000,0.000000,0.000000
1694167640.893546,112992.000000,1694167640.874613,0.000000,0.000000,0.000000,0.000000,0.000000,0.000000
1694167640.903170,112993.000000,1694167640.884361,0.000000,0.000000,0.000000,0.000000,0.000000,0.000000
1694167640.909705,112994.000000,1694167640.894797,0.000000,0.000000,0.000000,0.000000,0.000000,0.000000
1694167640.916106,112995.000000,1694167640.904893,0.000000,0.000000,0.000000,0.000000,0.000000,0.000000
1694167640.927366,112996.000000,1694167640.914318,0.000000,0.000000,0.000000,0.000000,0.000000,0.000000
1694167640.941416,112997.000000,1694167640.924517,0.000000,0.000000,0.000000,0.000000,0.000000,0.000000
1694167640.954160,112998.000000,1694167640.934709,0.000000,0.000000,0.000000,0.000000,0.000000,0.000000
1694167640.955512,112999.000000,1694167640.944409,0.000000,0.000000,0.000000,0.000000,0.000000,0.000000
1694167640.958180,113000.000000,1694167640.954326,0.000000,0.000000,0.000000,0.000000,0.000000,0.000000
1694167640.967571,113001.000000,1694167640.964826,0.000000,0.000000,0.000000,0.000000,0.000000,0.000000
1694167640.987317,113002.000000,1694167640.975125,0.000000,0.000000,0.000000,0.000000,0.000000,0.000000
1694167641.007486,113003.000000,1694167640.984316,0.000000,0.000000,0.000000,0.000000,0.000000,0.000000
1694167641.013192,113005.000000,1694167641.004923,0.000000,0.000000,0.000000,0.000000,0.000000,0.000000
1694167641.034029,113006.000000,1694167641.014461,0.000000,0.000000,0.000000,0.000000,0.000000,0.000000
1694167641.041306,113008.000000,1694167641.034556,0.000000,0.000000,0.000000,0.000000,0.000000,0.000000
1694167641.057153,113009.000000,1694167641.045259,0.000000,0.000000,0.000000,0.000000,0.000000,0.000000
1694167641.068847,113010.000000,1694167641.054294,0.000000,0.000000,0.000000,0.000000,0.000000,0.000000
1694167641.085786,113011.000000,1694167641.064313,0.000000,0.000000,0.000000,0.000000,0.000000,0.000000
1694167641.093955,113013.000000,1694167641.084316,0.000000,0.000000,0.000000,0.000000,0.000000,0.000000
1694167641.102630,113014.000000,1694167641.094269,0.000000,0.000000,0.000000,0.000000,0.000000,0.000000
1694167641.114888,113015.000000,1694167641.104545,0.000032,-0.000004,0.000016,-0.000000,0.000002,0.000001
1694167641.128739,113016.000000,1694167641.114300,0.005742,-0.000657,0.002841,-0.000033,0.000316,0.000092
1694167641.139720,113017.000000,1694167641.126820,0.008056,-0.000897,0.003982,-0.000047,0.000442,0.000128
1694167641.146058,113018.000000,1694167641.137885,0.008790,-0.000939,0.004342,-0.000052,0.000481,0.000138
1694167641.156306,113019.000000,1694167641.144331,0.009859,-0.000999,0.004878,-0.000059,0.000539,0.000154
1694167641.162511,113020.000000,1694167641.154332,0.009879,-0.000944,0.004912,-0.000060,0.000540,0.000154
1694167641.171109,113021.000000,1694167641.165615,0.007251,-0.000655,0.003624,-0.000045,0.000398,0.000113
1694167641.186444,113022.000000,1694167641.174510,0.002919,-0.000251,0.001465,-0.000018,0.000161,0.000045
1694167641.197597,113023.000000,1694167641.184203,0.000000,0.000000,0.000000,0.000000,0.000000,0.000000
1694167641.213617,113024.000000,1694167641.194295,0.000000,0.000000,0.000000,0.000000,0.000000,0.000000
1694167641.215896,113025.000000,1694167641.204615,0.000000,0.000000,0.000000,0.000000,0.000000,0.000000
1694167641.225119,113026.000000,1694167641.214370,0.000000,0.000000,0.000000,0.000000,0.000000,0.000000
1694167641.236742,113027.000000,1694167641.224880,0.000000,0.000000,0.000000,0.000000,0.000000,0.000000
1694167641.251819,113028.000000,1694167641.234303,0.000000,0.000000,0.000000,0.000000,0.000000,0.000000
1694167641.262423,113030.000000,1694167641.254227,0.000000,0.000000,0.000000,0.000000,0.000000,0.000000
1694167641.275357,113031.000000,1694167641.264830,0.000000,0.000000,0.000000,0.000000,0.000000,0.000000
1694167641.286776,113032.000000,1694167641.274328,0.000000,0.000000,0.000000,0.000000,0.000000,0.000000
1694167641.298806,113033.000000,1694167641.284337,0.000000,0.000000,0.000000,0.000000,0.000000,0.000000
1694167641.308790,113034.000000,1694167641.294281,0.000000,0.000000,0.000000,0.000000,0.000000,0.000000
1694167641.316514,113035.000000,1694167641.304409,0.000000,0.000000,0.000000,0.000000,0.000000,0.000000
1694167641.328714,113036.000000,1694167641.314558,0.000000,0.000000,0.000000,0.000000,0.000000,0.000000
1694167641.339303,113037.000000,1694167641.324483,0.000000,0.000000,0.000000,0.000000,0.000000,0.000000
1694167641.345361,113038.000000,1694167641.334353,0.000000,0.000000,0.000000,0.000000,0.000000,0.000000
1694167641.355248,113039.000000,1694167641.344331,0.000000,0.000000,0.000000,0.000000,0.000000,0.000000
1694167641.364145,113040.000000,1694167641.354324,0.000000,0.000000,0.000000,0.000000,0.000000,0.000000
1694167641.377784,113041.000000,1694167641.368024,0.000000,0.000000,0.000000,0.000000,0.000000,0.000000
1694167641.386088,113042.000000,1694167641.374261,0.000000,0.000000,0.000000,0.000000,0.000000,0.000000
1694167641.394004,113043.000000,1694167641.384520,0.000000,0.000000,0.000000,0.000000,0.000000,0.000000
1694167641.405775,113044.000000,1694167641.394210,0.000000,0.000000,0.000000,0.000000,0.000000,0.000000
1694167641.421365,113045.000000,1694167641.404327,0.000000,0.000000,0.000000,0.000000,0.000000,0.000000
1694167641.430309,113046.000000,1694167641.414805,0.000000,0.000000,0.000000,0.000000,0.000000,0.000000
1694167641.439585,113047.000000,1694167641.424331,0.000000,0.000000,0.000000,0.000000,0.000000,0.000000
1694167641.444242,113048.000000,1694167641.434339,0.000000,0.000000,0.000000,0.000000,0.000000,0.000000
1694167641.456381,113049.000000,1694167641.444313,0.000000,0.000000,0.000000,0.000000,0.000000,0.000000
1694167641.469658,113050.000000,1694167641.454410,0.000000,0.000000,0.000000,0.000000,0.000000,0.000000
1694167641.480052,113051.000000,1694167641.464215,0.000000,0.000000,0.000000,0.000000,0.000000,0.000000
1694167641.489239,113052.000000,1694167641.474327,0.000000,0.000000,0.000000,0.000000,0.000000,0.000000
1694167641.502573,113053.000000,1694167641.484330,0.000000,0.000000,0.000000,0.000000,0.000000,0.000000
1694167641.514258,113054.000000,1694167641.494287,0.000000,0.000000,0.000000,0.000000,0.000000,0.000000
1694167641.520578,113055.000000,1694167641.505647,0.000000,0.000000,0.000000,0.000000,0.000000,0.000000
1694167641.532973,113056.000000,1694167641.514283,0.000000,0.000000,0.000000,0.000000,0.000000,0.000000
1694167641.542157,113057.000000,1694167641.524528,0.000000,0.000000,0.000000,0.000000,0.000000,0.000000
1694167641.555381,113058.000000,1694167641.545176,0.000000,0.000000,0.000000,0.000000,0.000000,0.000000
1694167641.568242,113060.000000,1694167641.554287,0.000000,0.000000,0.000000,0.000000,0.000000,0.000000
1694167641.574306,113061.000000,1694167641.564347,0.000000,0.000000,0.000000,0.000000,0.000000,0.000000
1694167641.584003,113062.000000,1694167641.574231,0.000000,0.000000,0.000000,0.000000,0.000000,0.000000
1694167641.594756,113063.000000,1694167641.584270,0.000000,0.000000,0.000000,0.000000,0.000000,0.000000
1694167641.606116,113064.000000,1694167641.594701,0.000000,0.000000,0.000000,0.000000,0.000000,0.000000
1694167641.618990,113065.000000,1694167641.607327,0.000000,0.000000,0.000000,0.000000,0.000000,0.000000
1694167641.622515,113066.000000,1694167641.614286,0.000000,0.000000,0.000000,0.000000,0.000000,0.000000
1694167641.634050,113067.000000,1694167641.624683,0.000000,0.000000,0.000000,0.000000,0.000000,0.000000
1694167641.652755,113068.000000,1694167641.635961,0.000000,0.000000,0.000000,0.000000,0.000000,0.000000
1694167641.659062,113070.000000,1694167641.654255,0.000000,0.000000,0.000000,0.000000,0.000000,0.000000
1694167641.678049,113071.000000,1694167641.664422,0.000000,0.000000,0.000000,0.000000,0.000000,0.000000
1694167641.696854,113072.000000,1694167641.674281,0.000000,0.000000,0.000000,0.000000,0.000000,0.000000
1694167641.708968,113074.000000,1694167641.694506,0.000000,0.000000,0.000000,0.000000,0.000000,0.000000
1694167641.718494,113075.000000,1694167641.704290,0.000000,0.000000,0.000000,0.000000,0.000000,0.000000
1694167641.730951,113076.000000,1694167641.714324,0.000000,0.000000,0.000000,0.000000,0.000000,0.000000
1694167641.739798,113077.000000,1694167641.724277,0.000000,0.000000,0.000000,0.000000,0.000000,0.000000
1694167641.754155,113078.000000,1694167641.734374,0.000000,0.000000,0.000000,0.000000,0.000000,0.000000
1694167641.755141,113079.000000,1694167641.744286,0.000000,0.000000,0.000000,0.000000,0.000000,0.000000
1694167641.763926,113080.000000,1694167641.754301,0.000000,0.000000,0.000000,0.000000,0.000000,0.000000
1694167641.774144,113081.000000,1694167641.764750,0.000000,0.000000,0.000000,0.000000,0.000000,0.000000
1694167641.785856,113082.000000,1694167641.774233,0.000000,0.000000,0.000000,0.000000,0.000000,0.000000
1694167641.799649,113083.000000,1694167641.784277,0.000000,0.000000,0.000000,0.000000,0.000000,0.000000
1694167641.806374,113084.000000,1694167641.794293,0.000000,0.000000,0.000000,0.000000,0.000000,0.000000
1694167641.821723,113085.000000,1694167641.804341,0.000000,0.000000,0.000000,0.000000,0.000000,0.000000
1694167641.831104,113087.000000,1694167641.824316,0.000000,0.000000,0.000000,0.000000,0.000000,0.000000
1694167641.845242,113088.000000,1694167641.835385,0.000000,0.000000,0.000000,0.000000,0.000000,0.000000
1694167641.855119,113089.000000,1694167641.844211,0.000000,0.000000,0.000000,0.000000,0.000000,0.000000
1694167641.876277,113090.000000,1694167641.854220,0.000000,0.000000,0.000000,0.000000,0.000000,0.000000
1694167641.876675,113091.000000,1694167641.864295,0.000000,0.000000,0.000000,0.000000,0.000000,0.000000
1694167641.887051,113092.000000,1694167641.879880,0.000000,0.000000,0.000000,0.000000,0.000000,0.000000
1694167641.898255,113093.000000,1694167641.885742,0.000000,0.000000,0.000000,0.000000,0.000000,0.000000
1694167641.907515,113094.000000,1694167641.902369,0.000000,0.000000,0.000000,0.000000,0.000000,0.000000
1694167641.919539,113095.000000,1694167641.906689,0.000000,0.000000,0.000000,0.000000,0.000000,0.000000
1694167641.932937,113096.000000,1694167641.914203,0.000000,0.000000,0.000000,0.000000,0.000000,0.000000
1694167641.939596,113097.000000,1694167641.924277,0.000000,0.000000,0.000000,0.000000,0.000000,0.000000
1694167641.939608,113098.000000,1694167641.934925,0.000000,0.000000,0.000000,0.000000,0.000000,0.000000
1694167641.953618,113099.000000,1694167641.944728,0.000000,0.000000,0.000000,0.000000,0.000000,0.000000
1694167641.963751,113100.000000,1694167641.954319,0.000000,0.000000,0.000000,0.000000,0.000000,0.000000
1694167641.973447,113101.000000,1694167641.964295,0.000000,0.000000,0.000000,0.000000,0.000000,0.000000
1694167641.988034,113102.000000,1694167641.974416,0.000000,0.000000,0.000000,0.000000,0.000000,0.000000
1694167641.995889,113103.000000,1694167641.984195,0.000000,0.000000,0.000000,0.000000,0.000000,0.000000
1694167642.005983,113104.000000,1694167641.994281,0.000000,0.000000,0.000000,0.000000,0.000000,0.000000
1694167642.021895,113105.000000,1694167642.004275,0.000000,0.000000,0.000000,0.000000,0.000000,0.000000
1694167642.029467,113106.000000,1694167642.014275,0.000000,0.000000,0.000000,0.000000,0.000000,0.000000
1694167642.036000,113107.000000,1694167642.024609,0.000000,0.000000,0.000000,0.000000,0.000000,0.000000
1694167642.038613,113108.000000,1694167642.034401,0.000000,0.000000,0.000000,0.000000,0.000000,0.000000
1694167642.054693,113109.000000,1694167642.046091,0.000000,0.000000,0.000000,0.000000,0.000000,0.000000
1694167642.064522,113110.000000,1694167642.054253,0.000000,0.000000,0.000000,0.000000,0.000000,0.000000
1694167642.074831,113111.000000,1694167642.064274,0.000000,0.000000,0.000000,0.000000,0.000000,0.000000
1694167642.086164,113112.000000,1694167642.074536,0.000000,0.000000,0.000000,0.000000,0.000000,0.000000
1694167642.094116,113113.000000,1694167642.084301,0.000000,0.000000,0.000000,0.000000,0.000000,0.000000
1694167642.103920,113114.000000,1694167642.094248,0.000000,0.000000,0.000000,0.000000,0.000000,0.000000
1694167642.117100,113115.000000,1694167642.110304,0.000000,0.000000,0.000000,0.000000,0.000000,0.000000
1694167642.126763,113116.000000,1694167642.114522,0.000000,0.000000,0.000000,0.000000,0.000000,0.000000
1694167642.135770,113117.000000,1694167642.125085,0.000000,0.000000,0.000000,0.000000,0.000000,0.000000
1694167642.142037,113118.000000,1694167642.134429,0.000000,0.000000,0.000000,0.000000,0.000000,0.000000
1694167642.155792,113119.000000,1694167642.144282,0.000000,0.000000,0.000000,0.000000,0.000000,0.000000
1694167642.168199,113120.000000,1694167642.154310,0.000000,0.000000,0.000000,0.000000,0.000000,0.000000
1694167642.179851,113121.000000,1694167642.165028,0.000000,0.000000,0.000000,0.000000,0.000000,0.000000
1694167642.190307,113122.000000,1694167642.174279,0.000000,0.000000,0.000000,0.000000,0.000000,0.000000
1694167642.196407,113123.000000,1694167642.184556,0.000000,0.000000,0.000000,0.000000,0.000000,0.000000
1694167642.200433,113124.000000,1694167642.194194,0.000000,0.000000,0.000000,0.000000,0.000000,0.000000
1694167642.213278,113125.000000,1694167642.204321,0.000000,0.000000,0.000000,0.000000,0.000000,0.000000
1694167642.227575,113126.000000,1694167642.214498,0.000000,0.000000,0.000000,0.000000,0.000000,0.000000
1694167642.237934,113127.000000,1694167642.224288,0.000000,0.000000,0.000000,0.000000,0.000000,0.000000
1694167642.246010,113128.000000,1694167642.234396,0.000000,0.000000,0.000000,0.000000,0.000000,0.000000
1694167642.252602,113129.000000,1694167642.244306,0.000000,0.000000,0.000000,0.000000,0.000000,0.000000
1694167642.266281,113130.000000,1694167642.254386,0.000000,0.000000,0.000000,0.000000,0.000000,0.000000
1694167642.270700,113131.000000,1694167642.264321,0.000000,0.000000,0.000000,0.000000,0.000000,0.000000
1694167642.286107,113132.000000,1694167642.274404,0.000000,0.000000,0.000000,0.000000,0.000000,0.000000
1694167642.304726,113133.000000,1694167642.284535,0.000000,0.000000,0.000000,0.000000,0.000000,0.000000
1694167642.316678,113135.000000,1694167642.304323,0.000000,0.000000,0.000000,0.000000,0.000000,0.000000
1694167642.334607,113136.000000,1694167642.314303,0.000000,0.000000,0.000000,0.000000,0.000000,0.000000
1694167642.335193,113137.000000,1694167642.324411,0.000000,0.000000,0.000000,0.000000,0.000000,0.000000
1694167642.346796,113138.000000,1694167642.334295,0.000000,0.000000,0.000000,0.000000,0.000000,0.000000
1694167642.356551,113139.000000,1694167642.344317,0.000000,0.000000,0.000000,0.000000,0.000000,0.000000
1694167642.366344,113140.000000,1694167642.354524,0.000000,0.000000,0.000000,0.000000,0.000000,0.000000
1694167642.377774,113141.000000,1694167642.364272,0.000000,0.000000,0.000000,0.000000,0.000000,0.000000
1694167642.384764,113142.000000,1694167642.374272,0.000000,0.000000,0.000000,0.000000,0.000000,0.000000
1694167642.395156,113143.000000,1694167642.384315,0.000000,0.000000,0.000000,0.000000,0.000000,0.000000
1694167642.405257,113144.000000,1694167642.394311,0.000000,0.000000,0.000000,0.000000,0.000000,0.000000
1694167642.414583,113145.000000,1694167642.405372,0.000000,0.000000,0.000000,0.000000,0.000000,0.000000
1694167642.429920,113146.000000,1694167642.414351,0.000000,0.000000,0.000000,0.000000,0.000000,0.000000
1694167642.441369,113147.000000,1694167642.424561,0.000000,0.000000,0.000000,0.000000,0.000000,0.000000
1694167642.451498,113148.000000,1694167642.434273,0.000000,0.000000,0.000000,0.000000,0.000000,0.000000
1694167642.455306,113149.000000,1694167642.444638,0.000000,0.000000,0.000000,0.000000,0.000000,0.000000
1694167642.471571,113150.000000,1694167642.454252,0.000000,0.000000,0.000000,0.000000,0.000000,0.000000
1694167642.479080,113151.000000,1694167642.464639,0.000000,0.000000,0.000000,0.000000,0.000000,0.000000
1694167642.494559,113152.000000,1694167642.475194,0.000000,0.000000,0.000000,0.000000,0.000000,0.000000
1694167642.503397,113153.000000,1694167642.484312,0.000000,0.000000,0.000000,0.000000,0.000000,0.000000
1694167642.507948,113154.000000,1694167642.494385,0.000000,0.000000,0.000000,0.000000,0.000000,0.000000
1694167642.513837,113155.000000,1694167642.504331,0.000000,0.000000,0.000000,0.000000,0.000000,0.000000
1694167642.521336,113156.000000,1694167642.514434,0.000000,0.000000,0.000000,0.000000,0.000000,0.000000
1694167642.537892,113157.000000,1694167642.524307,0.000000,0.000000,0.000000,0.000000,0.000000,0.000000
1694167642.553935,113158.000000,1694167642.534294,0.000000,0.000000,0.000000,0.000000,0.000000,0.000000
1694167642.562726,113160.000000,1694167642.554396,0.000000,0.000000,0.000000,0.000000,0.000000,0.000000
1694167642.576631,113161.000000,1694167642.564553,0.000000,0.000000,0.000000,0.000000,0.000000,0.000000
1694167642.596110,113162.000000,1694167642.574210,0.000000,0.000000,0.000000,0.000000,0.000000,0.000000
1694167642.606104,113164.000000,1694167642.594296,0.000000,0.000000,0.000000,0.000000,0.000000,0.000000
1694167642.619729,113165.000000,1694167642.604397,0.000000,0.000000,0.000000,0.000000,0.000000,0.000000
1694167642.638123,113166.000000,1694167642.614289,0.000000,0.000000,0.000000,0.000000,0.000000,0.000000
1694167642.646371,113167.000000,1694167642.624315,0.000000,0.000000,0.000000,0.000000,0.000000,0.000000
1694167642.650044,113168.000000,1694167642.634697,0.000000,0.000000,0.000000,0.000000,0.000000,0.000000
1694167642.657163,113169.000000,1694167642.644208,0.000000,0.000000,0.000000,0.000000,0.000000,0.000000
1694167642.676935,113170.000000,1694167642.654246,0.000000,0.000000,0.000000,0.000000,0.000000,0.000000
1694167642.685850,113172.000000,1694167642.678338,0.000000,0.000000,0.000000,0.000000,0.000000,0.000000
1694167642.699123,113173.000000,1694167642.684301,0.000000,0.000000,0.000000,0.000000,0.000000,0.000000
1694167642.713211,113174.000000,1694167642.694220,0.000000,0.000000,0.000000,0.000000,0.000000,0.000000
1694167642.723662,113175.000000,1694167642.704528,0.000000,0.000000,0.000000,0.000000,0.000000,0.000000
1694167642.725118,113176.000000,1694167642.714451,0.000000,0.000000,0.000000,0.000000,0.000000,0.000000
1694167642.735080,113177.000000,1694167642.724748,0.000000,0.000000,0.000000,0.000000,0.000000,0.000000
1694167642.746079,113178.000000,1694167642.740238,0.000000,0.000000,0.000000,0.000000,0.000000,0.000000
1694167642.758128,113179.000000,1694167642.747135,0.000000,0.000000,0.000000,0.000000,0.000000,0.000000
1694167642.772789,113180.000000,1694167642.754431,0.000000,0.000000,0.000000,0.000000,0.000000,0.000000
1694167642.779155,113181.000000,1694167642.764395,0.000000,0.000000,0.000000,0.000000,0.000000,0.000000
1694167642.783087,113182.000000,1694167642.774376,0.000000,0.000000,0.000000,0.000000,0.000000,0.000000
1694167642.795260,113183.000000,1694167642.784182,0.000000,0.000000,0.000000,0.000000,0.000000,0.000000
1694167642.804075,113184.000000,1694167642.794311,0.000000,0.000000,0.000000,0.000000,0.000000,0.000000
1694167642.813374,113185.000000,1694167642.804520,0.000000,0.000000,0.000000,0.000000,0.000000,0.000000
1694167642.827932,113186.000000,1694167642.815088,0.000000,0.000000,0.000000,0.000000,0.000000,0.000000
1694167642.840730,113187.000000,1694167642.824317,0.000000,0.000000,0.000000,0.000000,0.000000,0.000000
1694167642.848200,113188.000000,1694167642.834316,0.000000,0.000000,0.000000,0.000000,0.000000,0.000000
1694167642.855589,113189.000000,1694167642.844397,0.000000,0.000000,0.000000,0.000000,0.000000,0.000000
1694167642.867988,113190.000000,1694167642.854254,0.000000,0.000000,0.000000,0.000000,0.000000,0.000000
1694167642.883808,113191.000000,1694167642.864643,0.000000,0.000000,0.000000,0.000000,0.000000,0.000000
1694167642.893147,113193.000000,1694167642.884407,0.000000,0.000000,0.000000,0.000000,0.000000,0.000000
1694167642.908009,113194.000000,1694167642.894488,0.000000,0.000000,0.000000,0.000000,0.000000,0.000000
1694167642.916679,113195.000000,1694167642.904307,0.000000,0.000000,0.000000,0.000000,0.000000,0.000000
1694167642.925992,113196.000000,1694167642.914386,0.000000,0.000000,0.000000,0.000000,0.000000,0.000000
1694167642.940474,113197.000000,1694167642.924407,0.000000,0.000000,0.000000,0.000000,0.000000,0.000000
1694167642.954255,113198.000000,1694167642.937764,0.000000,0.000000,0.000000,0.000000,0.000000,0.000000
1694167642.961069,113199.000000,1694167642.945352,0.000000,0.000000,0.000000,0.000000,0.000000,0.000000
1694167642.967463,113200.000000,1694167642.954834,0.000000,0.000000,0.000000,0.000000,0.000000,0.000000
1694167642.978510,113201.000000,1694167642.966761,0.000000,0.000000,0.000000,0.000000,0.000000,0.000000
1694167642.990530,113202.000000,1694167642.974242,0.000000,0.000000,0.000000,0.000000,0.000000,0.000000
1694167643.001497,113203.000000,1694167642.985570,0.000000,0.000000,0.000000,0.000000,0.000000,0.000000
1694167643.018147,113204.000000,1694167642.994277,0.000000,0.000000,0.000000,0.000000,0.000000,0.000000
1694167643.024083,113205.000000,1694167643.006948,0.000000,0.000000,0.000000,0.000000,0.000000,0.000000
1694167643.031829,113206.000000,1694167643.014485,0.000000,0.000000,0.000000,0.000000,0.000000,0.000000
1694167643.039737,113207.000000,1694167643.025666,0.000000,0.000000,0.000000,0.000000,0.000000,0.000000
1694167643.048723,113208.000000,1694167643.034306,0.000000,0.000000,0.000000,0.000000,0.000000,0.000000
1694167643.060861,113209.000000,1694167643.045351,0.000000,0.000000,0.000000,0.000000,0.000000,0.000000
1694167643.090876,113211.000000,1694167643.064313,0.000000,0.000000,0.000000,0.000000,0.000000,0.000000
1694167643.096297,113212.000000,1694167643.074292,0.000000,0.000000,0.000000,0.000000,0.000000,0.000000
1694167643.104445,113214.000000,1694167643.094212,0.000000,0.000000,0.000000,0.000000,0.000000,0.000000
1694167643.115883,113215.000000,1694167643.104348,0.000000,0.000000,0.000000,0.000000,0.000000,0.000000
1694167643.126426,113216.000000,1694167643.114331,0.000000,0.000000,0.000000,0.000000,0.000000,0.000000
1694167643.144665,113217.000000,1694167643.125358,0.000000,0.000000,0.000000,0.000000,0.000000,0.000000
1694167643.153153,113219.000000,1694167643.144609,0.000000,0.000000,0.000000,0.000000,0.000000,0.000000
1694167643.171317,113220.000000,1694167643.154497,0.000000,0.000000,0.000000,0.000000,0.000000,0.000000
1694167643.193436,113222.000000,1694167643.174279,0.000000,0.000000,0.000000,0.000000,0.000000,0.000000
1694167643.206938,113224.000000,1694167643.194280,0.000000,0.000000,0.000000,0.000000,0.000000,0.000000
1694167643.214746,113225.000000,1694167643.204345,0.000000,0.000000,0.000000,0.000000,0.000000,0.000000
1694167643.222722,113226.000000,1694167643.214348,0.000000,0.000000,0.000000,0.000000,0.000000,0.000000
1694167643.229181,113227.000000,1694167643.225440,0.000000,0.000000,0.000000,0.000000,0.000000,0.000000
1694167643.235714,113228.000000,1694167643.234169,0.000000,0.000000,0.000000,0.000000,0.000000,0.000000
1694167643.249608,113229.000000,1694167643.244394,0.000000,0.000000,0.000000,0.000000,0.000000,0.000000
1694167643.264915,113230.000000,1694167643.254261,0.000000,0.000000,0.000000,0.000000,0.000000,0.000000
1694167643.281518,113231.000000,1694167643.264322,0.000000,0.000000,0.000000,0.000000,0.000000,0.000000
1694167643.288396,113232.000000,1694167643.274294,0.000000,0.000000,0.000000,0.000000,0.000000,0.000000
1694167643.302534,113233.000000,1694167643.284305,0.000000,0.000000,0.000000,0.000000,0.000000,0.000000
1694167643.307012,113234.000000,1694167643.296018,0.000000,0.000000,0.000000,0.000000,0.000000,0.000000
1694167643.318344,113235.000000,1694167643.304388,0.000000,0.000000,0.000000,0.000000,0.000000,0.000000
1694167643.328821,113236.000000,1694167643.315612,0.000000,0.000000,0.000000,0.000000,0.000000,0.000000
1694167643.336837,113237.000000,1694167643.324523,0.000000,0.000000,0.000000,0.000000,0.000000,0.000000
1694167643.350618,113238.000000,1694167643.334272,0.000000,0.000000,0.000000,0.000000,0.000000,0.000000
1694167643.365243,113239.000000,1694167643.344756,0.000000,0.000000,0.000000,0.000000,0.000000,0.000000
1694167643.375021,113240.000000,1694167643.354798,0.000000,0.000000,0.000000,0.000000,0.000000,0.000000
1694167643.376216,113241.000000,1694167643.364516,0.000000,0.000000,0.000000,0.000000,0.000000,0.000000
1694167643.386733,113242.000000,1694167643.374259,0.000000,0.000000,0.000000,0.000000,0.000000,0.000000
1694167643.395262,113243.000000,1694167643.384717,0.000000,0.000000,0.000000,0.000000,0.000000,0.000000
1694167643.403018,113244.000000,1694167643.394540,0.000000,0.000000,0.000000,0.000000,0.000000,0.000000
1694167643.414242,113245.000000,1694167643.404388,0.000000,0.000000,0.000000,0.000000,0.000000,0.000000
1694167643.423553,113246.000000,1694167643.414254,0.000000,0.000000,0.000000,0.000000,0.000000,0.000000
1694167643.436914,113247.000000,1694167643.424293,0.000000,0.000000,0.000000,0.000000,0.000000,0.000000
1694167643.453442,113248.000000,1694167643.435241,0.000000,0.000000,0.000000,0.000000,0.000000,0.000000
1694167643.458790,113250.000000,1694167643.454229,0.000000,0.000000,0.000000,0.000000,0.000000,0.000000
1694167643.477714,113251.000000,1694167643.464504,0.000000,0.000000,0.000000,0.000000,0.000000,0.000000
1694167643.490445,113252.000000,1694167643.474276,0.000000,0.000000,0.000000,0.000000,0.000000,0.000000
1694167643.507988,113254.000000,1694167643.494240,0.000000,0.000000,0.000000,0.000000,0.000000,0.000000
1694167643.516678,113255.000000,1694167643.504534,0.000000,0.000000,0.000000,0.000000,0.000000,0.000000
1694167643.526547,113256.000000,1694167643.514404,0.000000,0.000000,0.000000,0.000000,0.000000,0.000000
1694167643.538706,113257.000000,1694167643.527220,0.000000,0.000000,0.000000,0.000000,0.000000,0.000000
1694167643.560729,113258.000000,1694167643.534476,0.000000,0.000000,0.000000,0.000000,0.000000,0.000000
1694167643.562978,113259.000000,1694167643.544271,0.000000,0.000000,0.000000,0.000000,0.000000,0.000000
1694167643.563400,113260.000000,1694167643.554300,0.000000,0.000000,0.000000,0.000000,0.000000,0.000000
1694167643.577097,113261.000000,1694167643.566621,0.000000,0.000000,0.000000,0.000000,0.000000,0.000000
1694167643.591094,113262.000000,1694167643.574565,0.000000,0.000000,0.000000,0.000000,0.000000,0.000000
1694167643.607161,113263.000000,1694167643.584345,0.000000,0.000000,0.000000,0.000000,0.000000,0.000000
1694167643.607195,113264.000000,1694167643.594509,0.000000,0.000000,0.000000,0.000000,0.000000,0.000000
1694167643.619773,113265.000000,1694167643.607652,0.000000,0.000000,0.000000,0.000000,0.000000,0.000000
1694167643.625537,113266.000000,1694167643.615240,0.000000,0.000000,0.000000,0.000000,0.000000,0.000000
1694167643.640498,113267.000000,1694167643.624561,0.000000,0.000000,0.000000,0.000000,0.000000,0.000000
1694167643.658701,113268.000000,1694167643.634380,0.000000,0.000000,0.000000,0.000000,0.000000,0.000000
1694167643.664860,113270.000000,1694167643.654256,0.000000,0.000000,0.000000,0.000000,0.000000,0.000000
1694167643.676421,113271.000000,1694167643.664296,0.000000,0.000000,0.000000,0.000000,0.000000,0.000000
1694167643.685981,113272.000000,1694167643.674524,0.000000,0.000000,0.000000,0.000000,0.000000,0.000000
1694167643.701074,113273.000000,1694167643.684269,0.000000,0.000000,0.000000,0.000000,0.000000,0.000000
1694167643.715562,113274.000000,1694167643.694208,0.000000,0.000000,0.000000,0.000000,0.000000,0.000000
1694167643.718576,113275.000000,1694167643.704287,0.000000,0.000000,0.000000,0.000000,0.000000,0.000000
1694167643.727429,113276.000000,1694167643.714403,0.000000,0.000000,0.000000,0.000000,0.000000,0.000000
1694167643.738128,113277.000000,1694167643.724637,0.000000,0.000000,0.000000,0.000000,0.000000,0.000000
1694167643.749413,113278.000000,1694167643.734305,0.000000,0.000000,0.000000,0.000000,0.000000,0.000000
1694167643.754871,113279.000000,1694167643.744567,0.000000,0.000000,0.000000,0.000000,0.000000,0.000000
1694167643.770645,113280.000000,1694167643.754158,0.000000,0.000000,0.000000,0.000000,0.000000,0.000000
1694167643.782499,113282.000000,1694167643.774277,0.000000,0.000000,0.000000,0.000000,0.000000,0.000000
1694167643.794239,113283.000000,1694167643.784282,0.000000,0.000000,0.000000,0.000000,0.000000,0.000000
1694167643.808721,113284.000000,1694167643.794374,0.000000,0.000000,0.000000,0.000000,0.000000,0.000000
1694167643.817519,113285.000000,1694167643.804276,0.000000,0.000000,0.000000,0.000000,0.000000,0.000000
1694167643.827283,113286.000000,1694167643.814380,0.000000,0.000000,0.000000,0.000000,0.000000,0.000000
1694167643.831003,113287.000000,1694167643.824774,0.000000,0.000000,0.000000,0.000000,0.000000,0.000000
1694167643.843247,113288.000000,1694167643.836607,0.000000,0.000000,0.000000,0.000000,0.000000,0.000000
1694167643.863773,113289.000000,1694167643.847400,0.000000,0.000000,0.000000,0.000000,0.000000,0.000000
1694167643.869300,113291.000000,1694167643.864292,0.000000,0.000000,0.000000,0.000000,0.000000,0.000000
1694167643.885699,113292.000000,1694167643.874681,0.000000,0.000000,0.000000,0.000000,0.000000,0.000000
1694167643.896107,113293.000000,1694167643.884922,0.000000,0.000000,0.000000,0.000000,0.000000,0.000000
1694167643.904962,113294.000000,1694167643.894131,0.000000,0.000000,0.000000,0.000000,0.000000,0.000000
1694167643.916094,113295.000000,1694167643.904285,0.000000,0.000000,0.000000,0.000000,0.000000,0.000000
1694167643.925215,113296.000000,1694167643.914493,0.000000,0.000000,0.000000,0.000000,0.000000,0.000000
1694167643.932687,113297.000000,1694167643.925447,0.000000,0.000000,0.000000,0.000000,0.000000,0.000000
1694167643.944887,113298.000000,1694167643.934433,0.000000,0.000000,0.000000,0.000000,0.000000,0.000000
1694167643.956662,113299.000000,1694167643.944303,0.000000,0.000000,0.000000,0.000000,0.000000,0.000000
1694167643.966251,113300.000000,1694167643.954497,0.000000,0.000000,0.000000,0.000000,0.000000,0.000000
1694167643.979967,113301.000000,1694167643.964303,0.000000,0.000000,0.000000,0.000000,0.000000,0.000000
1694167643.991770,113303.000000,1694167643.984509,0.000000,0.000000,0.000000,0.000000,0.000000,0.000000
1694167644.002297,113304.000000,1694167643.994281,0.000000,0.000000,0.000000,0.000000,0.000000,0.000000
1694167644.015495,113305.000000,1694167644.004494,0.000000,0.000000,0.000000,0.000000,0.000000,0.000000
1694167644.025887,113306.000000,1694167644.014491,0.000000,0.000000,0.000000,0.000000,0.000000,0.000000
1694167644.033538,113307.000000,1694167644.024492,0.000000,0.000000,0.000000,0.000000,0.000000,0.000000
1694167644.043347,113308.000000,1694167644.034276,0.000000,0.000000,0.000000,0.000000,0.000000,0.000000
1694167644.055165,113309.000000,1694167644.044297,0.000000,0.000000,0.000000,0.000000,0.000000,0.000000
1694167644.070690,113310.000000,1694167644.055911,0.000000,0.000000,0.000000,0.000000,0.000000,0.000000
1694167644.072994,113311.000000,1694167644.064497,0.000000,0.000000,0.000000,0.000000,0.000000,0.000000
1694167644.083926,113312.000000,1694167644.074301,0.000000,0.000000,0.000000,0.000000,0.000000,0.000000
1694167644.090560,113313.000000,1694167644.084748,0.000000,0.000000,0.000000,0.000000,0.000000,0.000000
1694167644.100567,113314.000000,1694167644.094322,0.000000,0.000000,0.000000,0.000000,0.000000,0.000000
1694167644.115164,113315.000000,1694167644.107148,0.000000,0.000000,0.000000,0.000000,0.000000,0.000000
1694167644.125312,113316.000000,1694167644.118910,0.000000,0.000000,0.000000,0.000000,0.000000,0.000000
1694167644.130933,113317.000000,1694167644.124509,0.000000,0.000000,0.000000,0.000000,0.000000,0.000000
1694167644.140400,113318.000000,1694167644.134222,0.000000,0.000000,0.000000,0.000000,0.000000,0.000000
1694167644.152823,113319.000000,1694167644.144289,0.000000,0.000000,0.000000,0.000000,0.000000,0.000000
1694167644.167089,113320.000000,1694167644.154356,0.000000,0.000000,0.000000,0.000000,0.000000,0.000000
1694167644.177309,113321.000000,1694167644.164395,0.000000,0.000000,0.000000,0.000000,0.000000,0.000000
1694167644.185221,113322.000000,1694167644.174246,0.000000,0.000000,0.000000,0.000000,0.000000,0.000000
1694167644.197498,113323.000000,1694167644.184290,0.000000,0.000000,0.000000,0.000000,0.000000,0.000000
1694167644.203534,113324.000000,1694167644.194485,0.000000,0.000000,0.000000,0.000000,0.000000,0.000000
1694167644.214986,113325.000000,1694167644.204575,0.000000,0.000000,0.000000,0.000000,0.000000,0.000000
1694167644.232735,113326.000000,1694167644.214841,0.000000,0.000000,0.000000,0.000000,0.000000,0.000000
1694167644.235548,113327.000000,1694167644.224293,0.000000,0.000000,0.000000,0.000000,0.000000,0.000000
1694167644.241714,113328.000000,1694167644.234302,0.000000,0.000000,0.000000,0.000000,0.000000,0.000000
1694167644.254368,113329.000000,1694167644.244309,0.000000,0.000000,0.000000,0.000000,0.000000,0.000000
1694167644.272276,113330.000000,1694167644.259018,0.000000,0.000000,0.000000,0.000000,0.000000,0.000000
1694167644.280153,113332.000000,1694167644.274442,0.000000,0.000000,0.000000,0.000000,0.000000,0.000000
1694167644.289171,113333.000000,1694167644.285121,0.000000,0.000000,0.000000,0.000000,0.000000,0.000000
1694167644.299165,113334.000000,1694167644.294188,0.000000,0.000000,0.000000,0.000000,0.000000,0.000000
1694167644.315001,113335.000000,1694167644.304309,0.000000,0.000000,0.000000,0.000000,0.000000,0.000000
1694167644.322684,113336.000000,1694167644.314351,0.000000,0.000000,0.000000,0.000000,0.000000,0.000000
1694167644.337290,113337.000000,1694167644.324266,0.000000,0.000000,0.000000,0.000000,0.000000,0.000000
