__time,/hsrb/joint_states/arm_flex_joint/effort,/hsrb/joint_states/arm_flex_joint/position,/hsrb/joint_states/arm_flex_joint/velocity,/hsrb/joint_states/arm_lift_joint/effort,/hsrb/joint_states/arm_lift_joint/position,/hsrb/joint_states/arm_lift_joint/velocity,/hsrb/joint_states/arm_roll_joint/effort,/hsrb/joint_states/arm_roll_joint/position,/hsrb/joint_states/arm_roll_joint/velocity,/hsrb/joint_states/base_l_drive_wheel_joint/effort,/hsrb/joint_states/base_l_drive_wheel_joint/position,/hsrb/joint_states/base_l_drive_wheel_joint/velocity,/hsrb/joint_states/base_r_drive_wheel_joint/effort,/hsrb/joint_states/base_r_drive_wheel_joint/position,/hsrb/joint_states/base_r_drive_wheel_joint/velocity,/hsrb/joint_states/base_roll_joint/effort,/hsrb/joint_states/base_roll_joint/position,/hsrb/joint_states/base_roll_joint/velocity,/hsrb/joint_states/hand_l_spring_proximal_joint/effort,/hsrb/joint_states/hand_l_spring_proximal_joint/position,/hsrb/joint_states/hand_l_spring_proximal_joint/velocity,/hsrb/joint_states/hand_motor_joint/effort,/hsrb/joint_states/hand_motor_joint/position,/hsrb/joint_states/hand_motor_joint/velocity,/hsrb/joint_states/hand_r_spring_proximal_joint/effort,/hsrb/joint_states/hand_r_spring_proximal_joint/position,/hsrb/joint_states/hand_r_spring_proximal_joint/velocity,/hsrb/joint_states/head_pan_joint/effort,/hsrb/joint_states/head_pan_joint/position,/hsrb/joint_states/head_pan_joint/velocity,/hsrb/joint_states/head_tilt_joint/effort,/hsrb/joint_states/head_tilt_joint/position,/hsrb/joint_states/head_tilt_joint/velocity,/hsrb/joint_states/header/seq,/hsrb/joint_states/header/stamp,/hsrb/joint_states/wrist_flex_joint/effort,/hsrb/joint_states/wrist_flex_joint/position,/hsrb/joint_states/wrist_flex_joint/velocity,/hsrb/joint_states/wrist_roll_joint/effort,/hsrb/joint_states/wrist_roll_joint/position,/hsrb/joint_states/wrist_roll_joint/velocity,/hsrb/pressure_sensor/data,/hsrb/wrist_wrench/compensated/header/seq,/hsrb/wrist_wrench/compensated/header/stamp,/hsrb/wrist_wrench/compensated/wrench/force/x,/hsrb/wrist_wrench/compensated/wrench/force/y,/hsrb/wrist_wrench/compensated/wrench/force/z,/hsrb/wrist_wrench/compensated/wrench/torque/x,/hsrb/wrist_wrench/compensated/wrench/torque/y,/hsrb/wrist_wrench/compensated/wrench/torque/z
1692014087.670384,,,,,,,,,,,,,,,,,,,,,,,,,,,,,,,,,,,,,,,,,,,49617.000000,1692014087.661139,0.000000,0.000000,0.000000,0.000000,0.000000,0.000000
1692014087.676906,,,,,,,,,,,,,,,,,,,,,,,,,,,,,,,,,,,,,,,,,,,49618.000000,1692014087.672110,0.000000,0.000000,0.000000,0.000000,0.000000,0.000000
1692014087.683665,0.808860,-0.029869,-0.000018,-99.830529,0.009999,0.000008,0.540960,0.000000,0.000046,0.051243,2.052506,-0.011777,0.005394,4.829723,0.000653,-0.938400,3.238134,-0.005183,-1.868000,-0.047181,-0.024000,0.022109,1.236181,0.002954,-1.620000,0.003819,0.007000,0.003680,-0.000015,-0.000138,-1.412857,0.000002,0.000038,25222.000000,1692014087.674053,0.909486,-1.569998,0.000048,-0.078857,0.000153,-0.000048,,,,,,,,,
1692014087.685911,,,,,,,,,,,,,,,,,,,,,,,,,,,,,,,,,,,,,,,,,,,49619.000000,1692014087.680910,0.000000,0.000000,0.000000,0.000000,0.000000,0.000000
1692014087.693783,0.663265,-0.029869,0.000133,-99.830529,0.009999,0.000008,0.507840,0.000000,0.000046,-0.099789,2.052604,0.010074,0.008091,4.829723,0.000653,-0.971520,3.238144,0.001581,-1.866000,-0.045182,-0.023000,0.024566,1.236181,0.002954,-1.616000,0.006819,0.010999,-0.031280,-0.000015,-0.000138,-1.334000,0.000002,0.000038,25223.000000,1692014087.684048,0.841143,-1.569998,0.000048,-0.073600,-0.000228,-0.000048,,,,,,,,,
1692014087.695207,,,,,,,,,,,,,,,,,,,,,,,,,,,,,,,,,,,,,,,,,,,49620.000000,1692014087.691185,0.000000,0.000000,0.000000,0.000000,0.000000,0.000000
1692014087.704993,,,,,,,,,,,,,,,,,,,,,,,,,,,,,,,,,,,,,,,,,,,49621.000000,1692014087.701548,0.000000,0.000000,0.000000,0.000000,0.000000,0.000000
1692014087.716937,,,,,,,,,,,,,,,,,,,,,,,,,,,,,,,,,,,,,,,,,,,49622.000000,1692014087.714788,0.000000,0.000000,0.000000,0.000000,0.000000,0.000000
1692014087.716951,,,,,,,,,,,,,,,,,,,,,,,,,,,,,,,,,,,,,,,,,,0.000000,,,,,,,,
1692014087.722128,1.892733,-0.029869,-0.000020,-99.830529,0.009999,0.000008,0.552000,0.000000,0.000046,0.080910,2.052466,-0.003543,0.008091,4.829723,0.000653,-1.015680,3.238155,0.007162,-1.853000,-0.035773,0.037999,0.022517,1.236772,0.005318,-1.618000,0.004228,0.023000,0.012880,-0.000015,-0.000138,-1.399714,0.000002,0.000038,25224.000000,1692014087.714028,0.825371,-1.569998,0.000048,-0.052571,0.000153,-0.000048,,,,,,,,,
1692014087.725720,,,,,,,,,,,,,,,,,,,,,,,,,,,,,,,,,,,,,,,,,,,49623.000000,1692014087.720870,0.000000,0.000000,0.000000,0.000000,0.000000,0.000000
1692014087.733124,1.714783,-0.030253,-0.000034,-99.830529,0.009999,0.000008,0.579600,0.000000,0.000046,-0.153729,2.052545,0.018229,0.005394,4.829723,0.000653,-1.070880,3.238144,-0.000733,-1.853000,-0.036181,0.037000,0.022109,1.236181,0.005318,-1.613000,0.006819,0.012000,0.029440,-0.000015,-0.000138,-1.340571,0.000002,0.000038,25225.000000,1692014087.724061,0.788571,-1.569998,0.000048,-0.084114,0.000153,-0.000048,,,,,,,,,
1692014087.734253,,,,,,,,,,,,,,,,,,,,,,,,,,,,,,,,,,,,,,,,,,,49624.000000,1692014087.730811,0.000000,0.000000,0.000000,0.000000,0.000000,0.000000
1692014087.746260,,,,,,,,,,,,,,,,,,,,,,,,,,,,,,,,,,,,,,,,,,,49625.000000,1692014087.740878,0.000000,0.000000,0.000000,0.000000,0.000000,0.000000
1692014087.752527,,,,,,,,,,,,,,,,,,,,,,,,,,,,,,,,,,,,,,,,,,,49626.000000,1692014087.750802,0.000000,0.000000,0.000000,0.000000,0.000000,0.000000
1692014087.773138,,,,,,,,,,,,,,,,,,,,,,,,,,,,,,,,,,,,,,,,,,,49627.000000,1692014087.770196,0.000000,0.000000,0.000000,0.000000,0.000000,0.000000
1692014087.775819,1.051518,-0.029869,-0.000018,-99.539478,0.009999,0.000008,0.524400,0.000000,0.000046,0.080910,2.052466,-0.007224,0.005394,4.829723,0.000653,-1.048800,3.238144,-0.000513,-1.855000,-0.038182,0.009999,0.022517,1.236181,0.002363,-1.606000,0.008819,0.041999,-0.012880,-0.000015,-0.000138,-1.386571,0.000002,0.000038,25226.000000,1692014087.754024,0.809600,-1.569998,0.000048,-0.010514,0.000153,-0.000048,,,,,,,,,
1692014087.782510,,,,,,,,,,,,,,,,,,,,,,,,,,,,,,,,,,,,,,,,,,,49628.000000,1692014087.772088,0.000000,0.000000,0.000000,0.000000,0.000000,0.000000
1692014087.784138,0.841215,-0.029869,-0.000018,-99.830529,0.009999,0.000008,0.623760,0.000000,0.000046,-0.161820,2.052446,-0.004433,0.008091,4.829723,0.000653,-1.203360,3.238155,0.004419,-1.853000,-0.038182,0.018999,0.024975,1.236181,0.002363,-1.608000,0.007818,0.025000,0.044160,-0.000015,-0.000138,-1.320857,0.000002,0.000038,25227.000000,1692014087.764035,0.762286,-1.569998,0.000048,-0.036800,-0.000228,-0.000048,,,,,,,,,
1692014087.786878,,,,,,,,,,,,,,,,,,,,,,,,,,,,,,,,,,,,,,,,,,,49629.000000,1692014087.780814,0.000000,0.000000,0.000000,0.000000,0.000000,0.000000
1692014087.799486,,,,,,,,,,,,,,,,,,,,,,,,,,,,,,,,,,,,,,,,,,,49630.000000,1692014087.790880,0.000000,0.000000,0.000000,0.000000,0.000000,0.000000
1692014087.803385,0.161772,-0.029869,0.000361,-100.412632,0.009999,0.000008,0.623760,0.000000,0.000046,-0.051243,2.052506,0.003859,0.008091,4.829723,0.000653,-1.026720,3.238144,-0.000272,-1.858000,-0.042181,0.004000,0.023746,1.236181,0.002363,-1.608000,0.006819,0.018999,0.029440,-0.000015,-0.000138,-1.228857,0.000002,0.000038,25228.000000,1692014087.794024,0.704457,-1.569998,0.000048,-0.042057,-0.000228,-0.000048,,,,,,,,,
1692014087.807245,,,,,,,,,,,,,,,,,,,,,,,,,,,,,,,,,,,,,,,,,,,49631.000000,1692014087.801908,0.000000,0.000000,0.000000,0.000000,0.000000,0.000000
1692014087.814917,1.472125,-0.030253,-0.000018,-100.121580,0.009999,0.000008,0.529920,0.000000,0.000046,0.075516,2.052506,-0.009876,0.008091,4.829723,0.000653,-1.269600,3.238144,-0.002021,-1.858000,-0.042181,-0.001000,0.025795,1.236181,0.002363,-1.610000,0.004819,0.014000,0.051520,-0.000015,-0.000138,-1.491714,0.000002,0.000038,25229.000000,1692014087.804034,0.783314,-1.569998,0.000048,-0.010514,0.000153,-0.000048,,,,,,,,,
1692014087.818406,,,,,,,,,,,,,,,,,,,,,,,,,,,,,,,,,,,,,,,,,,,49632.000000,1692014087.812693,0.000000,0.000000,0.000000,0.000000,0.000000,0.000000
1692014087.824931,,,,,,,,,,,,,,,,,,,,,,,,,,,,,,,,,,,,,,,,,,0.000000,,,,,,,,
1692014087.827717,,,,,,,,,,,,,,,,,,,,,,,,,,,,,,,,,,,,,,,,,,,49633.000000,1692014087.820814,0.000000,0.000000,0.000000,0.000000,0.000000,0.000000
1692014087.840067,,,,,,,,,,,,,,,,,,,,,,,,,,,,,,,,,,,,,,,,,,,49634.000000,1692014087.831154,0.000000,0.000000,0.000000,0.000000,0.000000,0.000000
1692014087.845508,0.501493,-0.029869,-0.000828,-99.830529,0.009999,0.000008,0.656880,0.000000,0.000046,-0.035061,2.052604,0.019397,0.008091,4.829723,0.000653,-0.905280,3.238134,-0.002241,-1.858000,-0.040182,0.008000,0.024154,1.236181,0.002363,-1.615000,0.002818,-0.006000,0.020240,-0.000015,-0.000138,-1.353714,0.000002,0.000038,25230.000000,1692014087.834044,0.767543,-1.569998,0.000048,0.010514,0.000153,-0.000048,,,,,,,,,
1692014087.852118,,,,,,,,,,,,,,,,,,,,,,,,,,,,,,,,,,,,,,,,,,,49635.000000,1692014087.840917,0.000000,0.000000,0.000000,0.000000,0.000000,0.000000
1692014087.856848,,,,,,,,,,,,,,,,,,,,,,,,,,,,,,,,,,,,,,,,,,,49636.000000,1692014087.851161,0.000000,0.000000,0.000000,0.000000,0.000000,0.000000
1692014087.860240,0.291190,-0.029869,-0.000018,-100.121580,0.009999,0.000008,0.502320,0.000000,0.000046,0.072819,2.052466,-0.001405,0.008091,4.829723,0.000653,-1.446240,3.238144,-0.002220,-1.860000,-0.041590,0.008000,0.023746,1.235590,0.002363,-1.620000,-0.000590,-0.006000,-0.001840,-0.000015,-0.000138,-1.524571,0.000002,0.000038,25231.000000,1692014087.854027,0.778057,-1.569998,0.000048,-0.052571,-0.000228,-0.000048,,,,,,,,,
1692014087.862917,,,,,,,,,,,,,,,,,,,,,,,,,,,,,,,,,,,,,,,,,,,49637.000000,1692014087.861275,0.000000,0.000000,0.000000,0.000000,0.000000,0.000000
1692014087.877172,,,,,,,,,,,,,,,,,,,,,,,,,,,,,,,,,,,,,,,,,,,49638.000000,1692014087.871050,0.000000,0.000000,0.000000,0.000000,0.000000,0.000000
1692014087.883893,2.491289,-0.029869,-0.000979,-100.121580,0.009999,0.000008,0.496800,0.000000,0.000046,0.026970,2.052506,0.002830,0.005394,4.829723,0.000653,-1.214400,3.238144,0.000324,-1.855000,-0.037591,0.008000,0.022929,1.235590,-0.000590,-1.618000,0.001409,-0.024000,0.036800,-0.000015,-0.000138,-1.366857,0.000002,0.000038,25232.000000,1692014087.874030,0.783314,-1.569998,0.000048,-0.147200,-0.000228,-0.000048,,,,,,,,,
1692014087.885287,,,,,,,,,,,,,,,,,,,,,,,,,,,,,,,,,,,,,,,,,,,49639.000000,1692014087.881083,0.000000,0.000000,0.000000,0.000000,0.000000,0.000000
1692014087.894052,0.388253,-0.030253,-0.001165,-100.412632,0.009999,0.000008,0.695520,0.000000,0.000046,0.075516,2.052506,-0.010213,0.008091,4.829723,0.000653,-1.015680,3.238134,0.001528,-1.850000,-0.034772,0.017000,0.023746,1.236772,-0.000590,-1.623000,-0.000773,-0.013000,0.003680,-0.000015,-0.000138,-1.406286,0.000002,0.000038,25233.000000,1692014087.884041,0.730743,-1.569998,0.000048,0.010514,-0.000228,-0.000048,,,,,,,,,
1692014087.894821,,,,,,,,,,,,,,,,,,,,,,,,,,,,,,,,,,,,,,,,,,,49640.000000,1692014087.890903,0.000000,0.000000,0.000000,0.000000,0.000000,0.000000
1692014087.904032,,,,,,,,,,,,,,,,,,,,,,,,,,,,,,,,,,,,,,,,,,,49641.000000,1692014087.901320,0.000000,0.000000,0.000000,0.000000,0.000000,0.000000
1692014087.912064,0.177949,-0.029869,-0.000436,-100.412632,0.009999,0.000008,0.634800,0.000000,0.000046,-0.137547,2.052624,0.014172,0.010788,4.829723,0.000653,-1.092960,3.238134,0.000848,-1.855000,-0.038773,0.029999,0.024566,1.236772,0.005318,-1.621000,0.001228,-0.012000,0.009200,-0.000015,-0.000138,-1.373429,0.000002,0.000038,25234.000000,1692014087.904041,0.772800,-1.569998,0.000048,-0.026286,-0.000228,-0.000048,,,,,,,,,
1692014087.918138,,,,,,,,,,,,,,,,,,,,,,,,,,,,,,,,,,,,,,,,,,,49642.000000,1692014087.910916,0.000000,0.000000,0.000000,0.000000,0.000000,0.000000
1692014087.926230,,,,,,,,,,,,,,,,,,,,,,,,,,,,,,,,,,,,,,,,,,,49643.000000,1692014087.920805,0.000000,0.000000,0.000000,0.000000,0.000000,0.000000
1692014087.934939,1.488303,-0.029869,-0.000882,-100.412632,0.009999,0.000008,0.601680,0.000000,0.000046,0.043152,2.052545,-0.005225,0.010788,4.829723,0.000653,-1.346880,3.238134,-0.001916,-1.853000,-0.038590,0.008999,0.024566,1.235590,0.002363,-1.621000,0.001409,-0.007000,0.001840,-0.000015,-0.000138,-1.399714,0.000002,0.000038,25235.000000,1692014087.924038,0.814857,-1.569998,0.000048,-0.031543,-0.000228,-0.000048,,,,,,,,,
1692014087.935734,,,,,,,,,,,,,,,,,,,,,,,,,,,,,,,,,,,,,,,,,,0.000000,,,,,,,,
1692014087.939760,,,,,,,,,,,,,,,,,,,,,,,,,,,,,,,,,,,,,,,,,,,49644.000000,1692014087.937996,0.000000,0.000000,0.000000,0.000000,0.000000,0.000000
1692014087.947792,,,,,,,,,,,,,,,,,,,,,,,,,,,,,,,,,,,,,,,,,,,49645.000000,1692014087.942326,0.000000,0.000000,0.000000,0.000000,0.000000,0.000000
1692014087.952590,2.329517,-0.029869,0.000670,-100.412632,0.009999,0.000008,0.579600,0.000000,0.000046,-0.056637,2.052604,0.022920,0.008091,4.829723,0.000653,-1.092960,3.238134,-0.000795,-1.850000,-0.035999,-0.001000,0.022109,1.234999,-0.002954,-1.616000,0.006001,-0.006000,0.000000,-0.000015,-0.000138,-1.307714,-0.000003,-0.000038,25236.000000,1692014087.944048,0.788571,-1.569998,0.000048,-0.126171,-0.000228,-0.000048,,,,,,,,,
1692014087.956779,,,,,,,,,,,,,,,,,,,,,,,,,,,,,,,,,,,,,,,,,,,49646.000000,1692014087.951031,0.000000,0.000000,0.000000,0.000000,0.000000,0.000000
1692014087.969334,,,,,,,,,,,,,,,,,,,,,,,,,,,,,,,,,,,,,,,,,,,49647.000000,1692014087.960884,0.000000,0.000000,0.000000,0.000000,0.000000,0.000000
1692014087.977693,,,,,,,,,,,,,,,,,,,,,,,,,,,,,,,,,,,,,,,,,,,49648.000000,1692014087.970835,0.000000,0.000000,0.000000,0.000000,0.000000,0.000000
1692014087.979386,0.776506,-0.029869,0.000109,-100.121580,0.009999,0.000008,0.518880,0.000000,0.000046,-0.072819,2.052446,-0.005561,0.008091,4.829723,0.000653,-1.015680,3.238144,0.000251,-1.850000,-0.037999,0.018999,0.024154,1.234999,-0.002954,-1.616000,0.005001,0.004000,0.022080,-0.000015,-0.000138,-1.399714,-0.000003,-0.000038,25237.000000,1692014087.964055,0.783314,-1.569998,0.000048,-0.052571,0.000153,-0.000048,,,,,,,,,
1692014087.988350,,,,,,,,,,,,,,,,,,,,,,,,,,,,,,,,,,,,,,,,,,,49649.000000,1692014087.982039,0.000000,0.000000,0.000000,0.000000,0.000000,0.000000
1692014087.995223,,,,,,,,,,,,,,,,,,,,,,,,,,,,,,,,,,,,,,,,,,,49650.000000,1692014087.990978,0.000000,0.000000,0.000000,0.000000,0.000000,0.000000
1692014088.005401,,,,,,,,,,,,,,,,,,,,,,,,,,,,,,,,,,,,,,,,,,,49651.000000,1692014088.000894,0.000000,0.000000,0.000000,0.000000,0.000000,0.000000
1692014088.005585,0.129418,-0.029869,-0.000426,-100.703683,0.009999,0.000008,0.513360,0.000000,0.000046,0.078213,2.052466,-0.011697,0.008091,4.829723,0.000653,-1.004640,3.238144,0.000094,-1.850000,-0.037999,0.008999,0.024975,1.234999,0.000000,-1.608000,0.010001,0.008999,0.031280,-0.000015,-0.000138,-1.432571,-0.000003,-0.000038,25238.000000,1692014087.994026,0.736000,-1.569998,0.000048,-0.052571,0.000153,-0.000048,,,,,,,,,
1692014088.019670,,,,,,,,,,,,,,,,,,,,,,,,,,,,,,,,,,,,,,,,,,,49652.000000,1692014088.011007,0.000000,0.000000,0.000000,0.000000,0.000000,0.000000
1692014088.023237,0.145595,-0.029869,-0.000575,-100.994734,0.009999,0.000008,0.634800,0.000000,0.000046,-0.040455,2.052565,0.000138,0.008091,4.829723,0.000653,-1.037760,3.238144,0.000094,-1.850000,-0.038590,0.013000,0.023746,1.235590,-0.002954,-1.613000,0.005410,0.027000,-0.029440,-0.000015,-0.000138,-1.399714,-0.000003,-0.000038,25239.000000,1692014088.014025,0.751771,-1.569998,0.000048,-0.063086,0.000153,-0.000048,,,,,,,,,
1692014088.027697,,,,,,,,,,,,,,,,,,,,,,,,,,,,,,,,,,,,,,,,,,,49653.000000,1692014088.020917,0.000000,0.000000,0.000000,0.000000,0.000000,0.000000
1692014088.037151,,,,,,,,,,,,,,,,,,,,,,,,,,,,,,,,,,,,,,,,,,,49654.000000,1692014088.031409,0.000000,0.000000,0.000000,0.000000,0.000000,0.000000
1692014088.041951,,,,,,,,,,,,,,,,,,,,,,,,,,,,,,,,,,,,,,,,,,0.000000,,,,,,,,
1692014088.046099,-0.032354,-0.029869,-0.000345,-100.412632,0.009999,0.000008,0.535440,0.000000,0.000046,-0.172608,2.052446,-0.003582,0.005394,4.829723,0.000653,-1.048800,3.238134,-0.003225,-1.853000,-0.040182,0.008000,0.023337,1.236181,0.000000,-1.615000,0.004819,-0.004000,0.051520,-0.000015,-0.000138,-1.366857,-0.000003,-0.000038,25240.000000,1692014088.034027,0.714971,-1.569998,0.000048,0.005257,-0.000228,-0.000048,,,,,,,,,
1692014088.046124,,,,,,,,,,,,,,,,,,,,,,,,,,,,,,,,,,,,,,,,,,,49655.000000,1692014088.041146,0.000000,0.000000,0.000000,0.000000,0.000000,0.000000
1692014088.054847,,,,,,,,,,,,,,,,,,,,,,,,,,,,,,,,,,,,,,,,,,,49656.000000,1692014088.050866,0.000000,0.000000,0.000000,0.000000,0.000000,0.000000
1692014088.067787,,,,,,,,,,,,,,,,,,,,,,,,,,,,,,,,,,,,,,,,,,,49657.000000,1692014088.061503,0.000000,0.000000,0.000000,0.000000,0.000000,0.000000
1692014088.067905,-0.032354,-0.029869,-0.000018,-100.703683,0.009999,0.000008,0.552000,0.000000,0.000046,0.018879,2.052545,-0.006274,0.005394,4.829723,0.000653,-1.059840,3.238144,0.000094,-1.853000,-0.038773,-0.002000,0.022517,1.236772,0.002363,-1.616000,0.003228,0.001000,0.007360,-0.000015,-0.000138,-1.242000,-0.000003,-0.000038,25241.000000,1692014088.054027,0.751771,-1.569998,0.000048,0.000000,-0.000228,-0.000048,,,,,,,,,
1692014088.076632,,,,,,,,,,,,,,,,,,,,,,,,,,,,,,,,,,,,,,,,,,,49658.000000,1692014088.073009,0.000000,0.000000,0.000000,0.000000,0.000000,0.000000
1692014088.087035,-0.517670,-0.029869,-0.000052,-100.703683,0.009999,0.000008,0.524400,0.000000,0.000046,0.086304,2.052466,-0.007699,0.008091,4.829723,0.000653,-1.015680,3.238134,-0.000513,-1.847000,-0.034364,0.013000,0.026612,1.237363,0.007090,-1.616000,0.003637,0.004999,0.007360,-0.000015,-0.000138,-1.274857,-0.000003,-0.000038,25242.000000,1692014088.074031,0.778057,-1.569998,0.000048,0.021029,-0.000228,-0.000048,,,,,,,,,
1692014088.089767,,,,,,,,,,,,,,,,,,,,,,,,,,,,,,,,,,,,,,,,,,,49659.000000,1692014088.081933,0.000000,0.000000,0.000000,0.000000,0.000000,0.000000
1692014088.096857,,,,,,,,,,,,,,,,,,,,,,,,,,,,,,,,,,,,,,,,,,,49660.000000,1692014088.090830,0.000000,0.000000,0.000000,0.000000,0.000000,0.000000
1692014088.104138,0.145595,-0.030253,-0.000018,-100.412632,0.009999,0.000008,0.607200,0.000000,0.000046,0.037758,2.052525,-0.008214,0.002697,4.829723,0.000653,-1.104000,3.238144,0.001361,-1.847000,-0.035363,0.026000,0.024975,1.237363,0.007090,-1.616000,0.004636,0.008999,0.011040,-0.000015,-0.000138,-1.465429,-0.000003,-0.000038,25243.000000,1692014088.094042,0.809600,-1.569998,0.000048,0.042057,-0.000228,-0.000048,,,,,,,,,
1692014088.105909,,,,,,,,,,,,,,,,,,,,,,,,,,,,,,,,,,,,,,,,,,,49661.000000,1692014088.100903,0.000000,0.000000,0.000000,0.000000,0.000000,0.000000
1692014088.112733,0.825037,-0.030253,-0.000018,-99.248427,0.009999,-0.000008,0.607200,0.000000,0.000046,0.083607,2.052466,-0.003206,0.008091,4.829723,0.000653,-1.081920,3.238134,-0.002628,-1.840000,-0.032363,0.028999,0.022929,1.237363,0.007090,-1.616000,0.002637,0.008999,-0.020240,-0.000015,-0.000138,-1.399714,-0.000003,-0.000038,25244.000000,1692014088.104038,0.746514,-1.569998,0.000048,-0.057829,0.000153,-0.000048,,,,,,,,,
1692014088.114999,,,,,,,,,,,,,,,,,,,,,,,,,,,,,,,,,,,,,,,,,,,49662.000000,1692014088.111152,0.000000,0.000000,0.000000,0.000000,0.000000,0.000000
1692014088.130037,,,,,,,,,,,,,,,,,,,,,,,,,,,,,,,,,,,,,,,,,,,49663.000000,1692014088.120904,0.000000,0.000000,0.000000,0.000000,0.000000,0.000000
1692014088.141284,,,,,,,,,,,,,,,,,,,,,,,,,,,,,,,,,,,,,,,,,,,49664.000000,1692014088.133502,0.000000,0.000000,0.000000,0.000000,0.000000,0.000000
1692014088.144547,-0.113240,-0.029869,-0.000438,-98.666325,0.009999,-0.000008,0.640320,0.000000,0.000046,0.078213,2.052466,-0.001385,0.008091,4.829723,0.000653,-1.424160,3.238144,0.003225,-1.843000,-0.035182,0.014999,0.024566,1.236181,0.001181,-1.616000,0.002818,-0.001000,0.025760,-0.000015,-0.000138,-1.347143,-0.000003,-0.000038,25245.000000,1692014088.134026,0.783314,-1.569998,0.000048,-0.042057,0.000153,-0.000048,,,,,,,,,
1692014088.145374,,,,,,,,,,,,,,,,,,,,,,,,,,,,,,,,,,,,,,,,,,,49665.000000,1692014088.140869,0.000000,0.000000,0.000000,0.000000,0.000000,0.000000
1692014088.147268,,,,,,,,,,,,,,,,,,,,,,,,,,,,,,,,,,,,,,,,,,0.000000,,,,,,,,
1692014088.155043,,,,,,,,,,,,,,,,,,,,,,,,,,,,,,,,,,,,,,,,,,,49666.000000,1692014088.151031,0.000000,0.000000,0.000000,0.000000,0.000000,0.000000
1692014088.163505,-0.129418,-0.029869,-0.000018,-98.375274,0.009999,-0.000008,0.552000,0.000000,0.000046,0.091698,2.052466,-0.008392,0.008091,4.829723,0.000653,-1.346880,3.238134,-0.004712,-1.845000,-0.036772,0.018999,0.021288,1.236772,0.003545,-1.618000,0.001228,-0.018999,0.040480,-0.000015,-0.000138,-1.307714,-0.000003,-0.000038,25246.000000,1692014088.154033,0.615086,-1.569998,0.000048,-0.115657,0.000153,-0.000048,,,,,,,,,
1692014088.168857,,,,,,,,,,,,,,,,,,,,,,,,,,,,,,,,,,,,,,,,,,,49667.000000,1692014088.161833,0.000000,0.000000,0.000000,0.000000,0.000000,0.000000
1692014088.177356,,,,,,,,,,,,,,,,,,,,,,,,,,,,,,,,,,,,,,,,,,,49668.000000,1692014088.171455,0.000000,0.000000,0.000000,0.000000,0.000000,0.000000
1692014088.184485,0.097063,-0.029869,-0.000018,-97.211069,0.009999,-0.000008,0.601680,0.000000,0.000046,0.072819,2.052466,-0.014092,0.008091,4.829723,0.000653,-1.070880,3.238144,0.001319,-1.853000,-0.042772,-0.010999,0.025795,1.236772,0.003545,-1.618000,0.002227,-0.028000,0.005520,-0.000015,-0.000138,-1.412857,-0.000003,-0.000038,25247.000000,1692014088.174026,0.799086,-1.569998,0.000048,-0.089371,0.000153,-0.000048,,,,,,,,,
1692014088.186869,,,,,,,,,,,,,,,,,,,,,,,,,,,,,,,,,,,,,,,,,,,49669.000000,1692014088.182738,0.000000,0.000000,0.000000,0.000000,0.000000,0.000000
1692014088.199533,,,,,,,,,,,,,,,,,,,,,,,,,,,,,,,,,,,,,,,,,,,49670.000000,1692014088.193559,0.000000,0.000000,0.000000,0.000000,0.000000,0.000000
1692014088.211088,,,,,,,,,,,,,,,,,,,,,,,,,,,,,,,,,,,,,,,,,,,49671.000000,1692014088.200934,0.000000,0.000000,0.000000,0.000000,0.000000,0.000000
1692014088.211111,-0.226481,-0.030253,-0.000187,-98.666325,0.009999,0.000008,0.607200,0.000000,0.000046,0.083607,2.052466,-0.004453,0.008091,4.829723,0.000653,-1.192320,3.238144,0.001413,-1.860000,-0.047954,-0.014999,0.024975,1.237954,0.008863,-1.621000,0.000046,-0.006000,-0.040480,-0.000015,-0.000138,-1.432571,-0.000003,-0.000038,25248.000000,1692014088.194028,0.714971,-1.569998,0.000048,0.021029,0.000153,-0.000048,,,,,,,,,
1692014088.217035,,,,,,,,,,,,,,,,,,,,,,,,,,,,,,,,,,,,,,,,,,,49672.000000,1692014088.211131,0.000000,0.000000,0.000000,0.000000,0.000000,0.000000
1692014088.225842,,,,,,,,,,,,,,,,,,,,,,,,,,,,,,,,,,,,,,,,,,,49673.000000,1692014088.221589,0.000000,0.000000,0.000000,0.000000,0.000000,0.000000
1692014088.225861,-0.566202,-0.029869,-0.000105,-98.375274,0.009999,0.000008,0.563040,0.000000,0.000046,0.064728,2.052486,-0.012153,0.008091,4.829723,0.000653,-1.280640,3.238144,0.002021,-1.858000,-0.044955,-0.032999,0.023337,1.237954,0.008863,-1.626000,-0.001955,-0.019999,0.034960,-0.000015,-0.000138,-1.274857,-0.000003,-0.000038,25249.000000,1692014088.214048,0.736000,-1.569998,0.000048,0.000000,0.000153,-0.000048,,,,,,,,,
1692014088.238623,,,,,,,,,,,,,,,,,,,,,,,,,,,,,,,,,,,,,,,,,,,49674.000000,1692014088.230793,0.000000,0.000000,0.000000,0.000000,0.000000,0.000000
1692014088.243196,0.630911,-0.030253,0.001631,-98.666325,0.009999,0.000008,0.524400,0.000000,0.000046,0.070122,2.052466,-0.007165,0.008091,4.829723,0.000653,-1.092960,3.238134,-0.000429,-1.860000,-0.043954,-0.020999,0.024975,1.237954,0.011227,-1.628000,-0.001955,-0.014999,0.016560,-0.000015,-0.000138,-1.432571,-0.000003,-0.000038,25250.000000,1692014088.234030,0.820114,-1.569998,0.000048,0.010514,0.000153,-0.000048,,,,,,,,,
1692014088.244980,,,,,,,,,,,,,,,,,,,,,,,,,,,,,,,,,,,,,,,,,,,49675.000000,1692014088.242383,0.000000,0.000000,0.000000,0.000000,0.000000,0.000000
1692014088.257572,,,,,,,,,,,,,,,,,,,,,,,,,,,,,,,,,,,,,,,,,,,49676.000000,1692014088.250815,0.000000,0.000000,0.000000,0.000000,0.000000,0.000000
1692014088.260099,,,,,,,,,,,,,,,,,,,,,,,,,,,,,,,,,,,,,,,,,,0.000000,,,,,,,,
1692014088.264570,-0.258835,-0.029869,-0.000050,-98.666325,0.009999,0.000008,0.540960,0.000000,0.000046,0.070122,2.052486,-0.014666,0.005394,4.829723,0.000653,-1.435200,3.238144,0.003570,-1.858000,-0.042363,-0.004999,0.024154,1.237363,0.005318,-1.628000,-0.001364,-0.014999,0.042320,-0.000015,-0.000138,-1.353714,-0.000003,-0.000038,25251.000000,1692014088.254029,0.714971,-1.569998,0.000048,-0.042057,0.000153,-0.000048,,,,,,,,,
1692014088.270923,,,,,,,,,,,,,,,,,,,,,,,,,,,,,,,,,,,,,,,,,,,49677.000000,1692014088.266541,0.000000,0.000000,0.000000,0.000000,0.000000,0.000000
1692014088.273561,0.000000,-0.030253,-0.000793,-98.666325,0.009999,0.000008,0.596160,0.000000,0.000046,-0.089001,2.052624,0.014726,0.010788,4.829723,0.000653,-0.872160,3.238134,0.001696,-1.858000,-0.041772,-0.004999,0.022109,1.236772,0.005318,-1.628000,-0.000773,-0.014999,0.044160,-0.000015,-0.000138,-1.314286,-0.000003,-0.000038,25252.000000,1692014088.264042,0.746514,-1.569998,0.000048,-0.073600,0.000153,-0.000048,,,,,,,,,
1692014088.277897,,,,,,,,,,,,,,,,,,,,,,,,,,,,,,,,,,,,,,,,,,,49678.000000,1692014088.271843,0.000000,0.000000,0.000000,0.000000,0.000000,0.000000
1692014088.284449,,,,,,,,,,,,,,,,,,,,,,,,,,,,,,,,,,,,,,,,,,,49679.000000,1692014088.280803,0.000000,0.000000,0.000000,0.000000,0.000000,0.000000
1692014088.294370,,,,,,,,,,,,,,,,,,,,,,,,,,,,,,,,,,,,,,,,,,,49680.000000,1692014088.291401,0.000000,0.000000,0.000000,0.000000,0.000000,0.000000
1692014088.304809,0.647088,-0.030253,0.000222,-98.666325,0.009999,0.000008,0.585120,0.000000,0.000046,0.018879,2.052525,-0.008867,0.008091,4.829723,0.000653,-1.269600,3.238134,-0.004586,-1.855000,-0.039181,-0.008999,0.024975,1.236181,0.002363,-1.628000,0.000818,-0.014999,0.051520,-0.000015,-0.000138,-1.320857,-0.000003,-0.000038,25253.000000,1692014088.294027,0.709714,-1.569998,0.000048,-0.026286,0.000153,-0.000048,,,,,,,,,
1692014088.305586,,,,,,,,,,,,,,,,,,,,,,,,,,,,,,,,,,,,,,,,,,,49681.000000,1692014088.300939,0.000000,0.000000,0.000000,0.000000,0.000000,0.000000
1692014088.311955,,,,,,,,,,,,,,,,,,,,,,,,,,,,,,,,,,,,,,,,,,,49682.000000,1692014088.310875,0.000000,0.000000,0.000000,0.000000,0.000000,0.000000
1692014088.322357,-0.016177,-0.030253,-0.000018,-98.666325,0.009999,0.000008,0.601680,0.000000,0.000046,-0.075516,2.052525,0.006729,0.008091,4.829723,0.000653,-1.170240,3.238134,-0.000691,-1.855000,-0.039409,-0.004000,0.024566,1.234409,-0.002954,-1.626000,0.001590,-0.009999,0.025760,-0.000015,-0.000138,-1.314286,-0.000003,-0.000038,25254.000000,1692014088.314029,0.515200,-1.569998,0.000048,-0.110400,0.000153,-0.000048,,,,,,,,,
1692014088.324182,,,,,,,,,,,,,,,,,,,,,,,,,,,,,,,,,,,,,,,,,,,49683.000000,1692014088.321383,0.000000,0.000000,0.000000,0.000000,0.000000,0.000000
1692014088.336678,,,,,,,,,,,,,,,,,,,,,,,,,,,,,,,,,,,,,,,,,,,49684.000000,1692014088.331856,0.000000,0.000000,0.000000,0.000000,0.000000,0.000000
1692014088.345940,-0.258835,-0.029869,-0.000609,-98.666325,0.009999,0.000008,0.491280,0.000000,0.000046,0.053940,2.052486,-0.001444,0.005394,4.829723,0.000653,-1.070880,3.238144,0.000094,-1.856000,-0.040819,0.001000,0.024566,1.233818,-0.008272,-1.626000,0.002181,-0.014000,0.031280,-0.000015,-0.000138,-1.320857,0.000002,0.000038,25255.000000,1692014088.334043,0.478400,-1.569998,0.000048,-0.120914,0.000153,-0.000048,,,,,,,,,
1692014088.346982,,,,,,,,,,,,,,,,,,,,,,,,,,,,,,,,,,,,,,,,,,,49685.000000,1692014088.341205,0.000000,0.000000,0.000000,0.000000,0.000000,0.000000
1692014088.355181,,,,,,,,,,,,,,,,,,,,,,,,,,,,,,,,,,,,,,,,,,,49686.000000,1692014088.350868,0.000000,0.000000,0.000000,0.000000,0.000000,0.000000
1692014088.362301,-0.177949,-0.029869,-0.000018,-98.957376,0.009999,0.000008,0.607200,0.000000,0.000046,0.008091,2.052446,-0.014468,0.008091,4.829723,0.000653,-1.335840,3.238144,0.002848,-1.860000,-0.042591,-0.014000,0.022517,1.235590,-0.004727,-1.628000,-0.000590,-0.014000,0.001840,-0.000015,-0.000138,-1.366857,0.000002,0.000038,25256.000000,1692014088.354027,0.683429,-1.570003,-0.000085,-0.063086,0.000153,-0.000048,,,,,,,,,
1692014088.366719,,,,,,,,,,,,,,,,,,,,,,,,,,,,,,,,,,,,,,,,,,,49687.000000,1692014088.361925,0.000000,0.000000,0.000000,0.000000,0.000000,0.000000
1692014088.372353,,,,,,,,,,,,,,,,,,,,,,,,,,,,,,,,,,,,,,,,,,0.000000,,,,,,,,
1692014088.380483,,,,,,,,,,,,,,,,,,,,,,,,,,,,,,,,,,,,,,,,,,,49688.000000,1692014088.370863,0.000000,0.000000,0.000000,0.000000,0.000000,0.000000
1692014088.380500,-0.226481,-0.029869,-0.000018,-98.666325,0.009999,0.000008,0.552000,0.000000,0.000046,0.056637,2.052506,-0.011341,0.005394,4.829723,0.000653,-1.280640,3.238134,-0.001696,-1.850000,-0.034181,-0.014000,0.022517,1.236181,-0.001772,-1.626000,0.001819,-0.017999,0.023920,-0.000015,-0.000138,-1.209143,0.000002,0.000038,25257.000000,1692014088.364036,0.714971,-1.570003,-0.000048,-0.026286,0.000153,-0.000048,,,,,,,,,
1692014088.386456,,,,,,,,,,,,,,,,,,,,,,,,,,,,,,,,,,,,,,,,,,,49689.000000,1692014088.380868,0.000000,0.000000,0.000000,0.000000,0.000000,0.000000
1692014088.398428,,,,,,,,,,,,,,,,,,,,,,,,,,,,,,,,,,,,,,,,,,,49690.000000,1692014088.391037,0.000000,0.000000,0.000000,0.000000,0.000000,0.000000
1692014088.405620,-0.177949,-0.029869,-0.000708,-98.957376,0.009999,0.000008,0.557520,0.000000,0.000046,0.072819,2.052486,-0.013301,0.008091,4.829723,0.000653,-1.291680,3.238144,0.003162,-1.850000,-0.038363,0.032999,0.021700,1.237363,0.003545,-1.623000,0.002637,0.007000,0.036800,-0.000015,-0.000138,-1.215714,0.000002,0.000038,25258.000000,1692014088.394029,0.720229,-1.570003,-0.000048,-0.089371,0.000153,-0.000048,,,,,,,,,
1692014088.405659,,,,,,,,,,,,,,,,,,,,,,,,,,,,,,,,,,,,,,,,,,,49691.000000,1692014088.401128,0.000000,0.000000,0.000000,0.000000,0.000000,0.000000
1692014088.417548,,,,,,,,,,,,,,,,,,,,,,,,,,,,,,,,,,,,,,,,,,,49692.000000,1692014088.413535,0.000000,0.000000,0.000000,0.000000,0.000000,0.000000
1692014088.422201,-0.808860,-0.029869,-0.000018,-98.666325,0.009999,0.000008,0.596160,0.000000,0.000046,-0.045849,2.052545,0.010985,0.005394,4.829723,0.000653,-1.104000,3.238144,0.000848,-1.855000,-0.041364,0.012000,0.024154,1.237363,0.005909,-1.626000,-0.000364,0.002000,0.049680,-0.000015,-0.000138,-1.235429,0.000002,0.000038,25259.000000,1692014088.414026,0.751771,-1.570003,-0.000048,-0.110400,0.000153,-0.000048,,,,,,,,,
1692014088.425563,,,,,,,,,,,,,,,,,,,,,,,,,,,,,,,,,,,,,,,,,,,49693.000000,1692014088.421161,0.000000,0.000000,0.000000,0.000000,0.000000,0.000000
1692014088.434909,,,,,,,,,,,,,,,,,,,,,,,,,,,,,,,,,,,,,,,,,,,49694.000000,1692014088.430928,0.000000,0.000000,0.000000,0.000000,0.000000,0.000000
1692014088.443416,-0.388253,-0.029869,-0.000078,-99.248427,0.009999,0.000008,0.502320,0.000000,0.000046,0.078213,2.052486,-0.001524,0.008091,4.829723,0.000653,-1.104000,3.238144,0.000094,-1.856000,-0.042181,-0.007000,0.025795,1.236181,0.002954,-1.625000,0.000818,-0.008000,-0.003680,-0.000015,-0.000138,-1.386571,0.000002,0.000038,25260.000000,1692014088.434040,0.683429,-1.570003,-0.000048,-0.120914,0.000153,-0.000048,,,,,,,,,
1692014088.445870,,,,,,,,,,,,,,,,,,,,,,,,,,,,,,,,,,,,,,,,,,,49695.000000,1692014088.441044,0.000000,0.000000,0.000000,0.000000,0.000000,0.000000
1692014088.453796,,,,,,,,,,,,,,,,,,,,,,,,,,,,,,,,,,,,,,,,,,,49696.000000,1692014088.450803,0.000000,0.000000,0.000000,0.000000,0.000000,0.000000
1692014088.466211,-0.663265,-0.029869,-0.000169,-99.248427,0.009999,0.000008,0.469200,0.000000,0.000046,0.091698,2.052466,-0.007660,0.008091,4.829723,0.000653,-0.949440,3.238144,0.000094,-1.855000,-0.040954,0.004000,0.024154,1.237954,0.000000,-1.631000,-0.002954,-0.003000,0.034960,-0.000015,-0.000138,-1.281429,0.000002,0.000038,25261.000000,1692014088.454027,0.841143,-1.570003,-0.000048,-0.063086,0.000153,-0.000048,,,,,,,,,
1692014088.466245,,,,,,,,,,,,,,,,,,,,,,,,,,,,,,,,,,,,,,,,,,,49697.000000,1692014088.461353,0.000000,0.000000,0.000000,0.000000,0.000000,0.000000
1692014088.475938,,,,,,,,,,,,,,,,,,,,,,,,,,,,,,,,,,,,,,,,,,,49698.000000,1692014088.470795,0.000000,0.000000,0.000000,0.000000,0.000000,0.000000
1692014088.477115,,,,,,,,,,,,,,,,,,,,,,,,,,,,,,,,,,,,,,,,,,0.000000,,,,,,,,
1692014088.482868,,,,,,,,,,,,,,,,,,,,,,,,,,,,,,,,,,,,,,,,,,,49699.000000,1692014088.480872,0.000000,0.000000,0.000000,0.000000,0.000000,0.000000
1692014088.482895,-0.614734,-0.029869,-0.000173,-98.666325,0.009999,0.000008,0.684480,0.000000,0.000046,0.056637,2.052506,-0.009401,0.008091,4.829723,0.000653,-1.092960,3.238134,-0.003581,-1.855000,-0.040363,0.004000,0.024975,1.237363,0.005909,-1.628000,-0.001364,-0.012000,0.040480,-0.000015,-0.000138,-1.498286,0.000002,0.000038,25262.000000,1692014088.474026,0.573029,-1.570003,-0.000048,-0.120914,0.000153,-0.000048,,,,,,,,,
1692014088.493793,,,,,,,,,,,,,,,,,,,,,,,,,,,,,,,,,,,,,,,,,,,49700.000000,1692014088.491163,0.000000,0.000000,0.000000,0.000000,0.000000,0.000000
1692014088.510879,,,,,,,,,,,,,,,,,,,,,,,,,,,,,,,,,,,,,,,,,,,49701.000000,1692014088.500928,0.000000,0.000000,0.000000,0.000000,0.000000,0.000000
1692014088.510967,-0.582379,-0.029869,-0.000474,-99.539478,0.009999,0.000008,0.618240,0.000000,0.000046,-0.107880,2.052604,0.011777,0.008091,4.829723,0.000653,-1.092960,3.238144,0.000764,-1.855000,-0.040363,0.004000,0.026612,1.237363,0.005909,-1.628000,-0.000364,-0.002000,0.012880,-0.000015,-0.000138,-1.366857,0.000002,0.000038,25263.000000,1692014088.494026,0.757029,-1.570003,-0.000048,-0.089371,0.000153,-0.000048,,,,,,,,,
1692014088.516583,,,,,,,,,,,,,,,,,,,,,,,,,,,,,,,,,,,,,,,,,,,49702.000000,1692014088.510874,0.000000,0.000000,0.000000,0.000000,0.000000,0.000000
1692014088.523998,0.048532,-0.030253,-0.000034,-99.248427,0.009999,0.000008,0.552000,0.000000,0.000046,-0.164517,2.052446,-0.003186,0.002697,4.829723,0.000653,-1.137120,3.238134,-0.001151,-1.858000,-0.042181,-0.010999,0.023746,1.236181,0.002954,-1.625000,0.001819,-0.001000,0.095680,-0.000015,-0.000138,-1.334000,0.000002,0.000038,25264.000000,1692014088.514025,0.846400,-1.570003,-0.000048,-0.078857,0.000153,-0.000048,,,,,,,,,
1692014088.524798,,,,,,,,,,,,,,,,,,,,,,,,,,,,,,,,,,,,,,,,,,,49703.000000,1692014088.520868,0.000000,0.000000,0.000000,0.000000,0.000000,0.000000
1692014088.534513,0.097063,-0.029869,-0.000018,-99.539478,0.009999,0.000008,0.579600,0.000000,0.000046,0.062031,2.052486,-0.012905,0.008091,4.829723,0.000653,-1.081920,3.238144,0.000094,-1.860000,-0.042181,-0.010999,0.022517,1.236181,0.000000,-1.628000,-0.000182,-0.001000,0.040480,0.000000,0.000138,-1.386571,0.000002,0.000038,25265.000000,1692014088.524043,0.793829,-1.570003,-0.000048,-0.068343,0.000153,-0.000048,,,,,,,,,
1692014088.534532,,,,,,,,,,,,,,,,,,,,,,,,,,,,,,,,,,,,,,,,,,,49704.000000,1692014088.531008,0.000000,0.000000,0.000000,0.000000,0.000000,0.000000
1692014088.549906,,,,,,,,,,,,,,,,,,,,,,,,,,,,,,,,,,,,,,,,,,,49705.000000,1692014088.540783,0.000000,0.000000,0.000000,0.000000,0.000000,0.000000
1692014088.558323,,,,,,,,,,,,,,,,,,,,,,,,,,,,,,,,,,,,,,,,,,,49706.000000,1692014088.550866,0.000000,0.000000,0.000000,0.000000,0.000000,0.000000
1692014088.560165,-0.064709,-0.030253,0.000103,-98.957376,0.009999,0.000008,0.618240,0.000000,0.000046,-0.091698,2.052466,0.002236,0.008091,4.829723,0.000653,-1.070880,3.238134,-0.000146,-1.861000,-0.043182,-0.019999,0.022517,1.236181,-0.000590,-1.626000,0.002818,-0.008999,0.014720,0.000000,0.000138,-1.380000,0.000002,0.000038,25266.000000,1692014088.554023,0.714971,-1.570003,-0.000048,-0.157714,0.000153,-0.000048,,,,,,,,,
1692014088.568691,,,,,,,,,,,,,,,,,,,,,,,,,,,,,,,,,,,,,,,,,,,49707.000000,1692014088.560871,0.000000,0.000000,0.000000,0.000000,0.000000,0.000000
1692014088.579414,,,,,,,,,,,,,,,,,,,,,,,,,,,,,,,,,,,,,,,,,,,49708.000000,1692014088.570900,0.000000,0.000000,0.000000,0.000000,0.000000,0.000000
1692014088.585191,-0.258835,-0.029869,-0.000280,-99.248427,0.009999,0.000008,0.524400,0.000000,0.000046,0.045849,2.052466,-0.004295,0.010788,4.829723,0.000653,-1.104000,3.238144,0.000094,-1.863000,-0.043410,-0.034000,0.022517,1.234409,-0.005909,-1.621000,0.005591,0.009999,-0.009200,0.000000,0.000138,-1.412857,0.000002,0.000038,25267.000000,1692014088.574025,0.730743,-1.570003,-0.000048,-0.105143,0.000153,-0.000048,,,,,,,,,
1692014088.587737,,,,,,,,,,,,,,,,,,,,,,,,,,,,,,,,,,,,,,,,,,0.000000,,,,,,,,
1692014088.591568,,,,,,,,,,,,,,,,,,,,,,,,,,,,,,,,,,,,,,,,,,,49709.000000,1692014088.586869,0.000000,0.000000,0.000000,0.000000,0.000000,0.000000
1692014088.612206,-0.291190,-0.029869,-0.000468,-99.539478,0.009999,0.000008,0.568560,0.000000,0.000046,-0.013485,2.052604,0.020109,0.010788,4.829723,0.000653,-1.468320,3.238134,-0.005633,-1.868000,-0.045999,-0.026000,0.024154,1.234999,-0.008272,-1.621000,0.005001,0.014000,0.053360,0.000000,0.000138,-1.353714,0.000002,0.000038,25268.000000,1692014088.594029,0.720229,-1.570003,-0.000048,-0.136686,0.000153,-0.000048,,,,,,,,,
1692014088.627377,-0.582379,-0.029869,-0.000468,-99.539478,0.009999,0.000008,0.552000,0.000000,0.000046,0.051243,2.052466,-0.001266,0.008091,4.829723,0.000653,-1.115040,3.238144,0.001665,-1.870000,-0.045999,-0.023000,0.027020,1.234999,-0.002363,-1.616000,0.007000,0.008999,0.009200,0.000000,0.000138,-1.399714,0.000002,0.000038,25269.000000,1692014088.614037,0.778057,-1.570003,-0.000048,-0.063086,0.000153,-0.000048,,,,,,,,,
1692014088.630218,,,,,,,,,,,,,,,,,,,,,,,,,,,,,,,,,,,,,,,,,,,49710.000000,1692014088.623029,0.000000,0.000000,0.000000,0.000000,0.000000,0.000000
1692014088.651471,-0.355898,-0.030253,-0.000018,-100.121580,0.009999,0.000008,0.540960,0.000000,0.000046,-0.026970,2.052604,0.021990,0.008091,4.829723,0.000653,-1.137120,3.238134,-0.005445,-1.865000,-0.040819,-0.025000,0.023746,1.233818,-0.010045,-1.615000,0.007182,0.013000,0.029440,0.000000,0.000138,-1.360286,0.000002,0.000038,25270.000000,1692014088.634031,0.741257,-1.570003,-0.000048,-0.184000,0.000153,-0.000048,,,,,,,,,
1692014088.660023,,,,,,,,,,,,,,,,,,,,,,,,,,,,,,,,,,,,,,,,,,,49711.000000,1692014088.654148,0.000000,0.000000,0.000000,0.000000,0.000000,0.000000
1692014088.661069,0.080886,-0.029869,-0.000018,-99.539478,0.009999,0.000008,0.513360,0.000000,0.000046,0.078213,2.052486,-0.009837,0.008091,4.829723,0.000653,-1.137120,3.238144,0.000094,-1.866000,-0.040819,-0.004000,0.026204,1.233818,-0.010045,-1.615000,0.007182,0.013000,0.044160,0.000000,0.000138,-1.327429,0.000002,0.000038,25271.000000,1692014088.644044,0.799086,-1.570003,-0.000048,-0.057829,0.000153,-0.000048,,,,,,,,,
1692014088.672332,,,,,,,,,,,,,,,,,,,,,,,,,,,,,,,,,,,,,,,,,,,49712.000000,1692014088.655583,0.000000,0.000000,0.000000,0.000000,0.000000,0.000000
1692014088.683636,,,,,,,,,,,,,,,,,,,,,,,,,,,,,,,,,,,,,,,,,,,49714.000000,1692014088.675411,0.000000,0.000000,0.000000,0.000000,0.000000,0.000000
1692014088.685582,-0.970632,-0.029869,-0.000018,-99.539478,0.009999,0.000008,0.579600,0.000000,0.000046,-0.026970,2.052624,0.022742,0.002697,4.829723,0.000653,-0.982560,3.238144,0.000094,-1.850000,-0.029591,0.006000,0.024566,1.235590,-0.007090,-1.615000,0.006409,0.016000,0.005520,0.000000,0.000138,-1.386571,0.000002,0.000038,25272.000000,1692014088.674091,0.793829,-1.570003,-0.000048,-0.068343,0.000153,-0.000048,,,,,,,,,
1692014088.693258,,,,,,,,,,,,,,,,,,,,,,,,,,,,,,,,,,,,,,,,,,,49715.000000,1692014088.688526,0.000000,0.000000,0.000000,0.000000,0.000000,0.000000
1692014088.694241,,,,,,,,,,,,,,,,,,,,,,,,,,,,,,,,,,,,,,,,,,0.000000,,,,,,,,
1692014088.709234,-0.145595,-0.029869,0.000446,-99.830529,0.009999,0.000008,0.552000,0.000000,0.000046,0.056637,2.052506,-0.012212,0.008091,4.829723,0.000653,-1.159200,3.238144,0.000094,-1.848000,-0.030590,0.052999,0.022517,1.235590,-0.003545,-1.616000,0.003409,0.016000,0.011040,0.000000,0.000138,-1.268286,0.000002,0.000038,25273.000000,1692014088.694032,0.793829,-1.570003,-0.000048,-0.094629,0.000153,-0.000048,,,,,,,,,
1692014088.709248,,,,,,,,,,,,,,,,,,,,,,,,,,,,,,,,,,,,,,,,,,,49716.000000,1692014088.696417,0.000000,0.000000,0.000000,0.000000,0.000000,0.000000
1692014088.717769,,,,,,,,,,,,,,,,,,,,,,,,,,,,,,,,,,,,,,,,,,,49717.000000,1692014088.709755,0.000000,0.000000,0.000000,0.000000,0.000000,0.000000
1692014088.722824,-0.841215,-0.030253,-0.000032,-99.539478,0.009999,0.000008,0.723120,0.000000,0.000046,0.083607,2.052466,-0.010609,0.008091,4.829723,0.000653,-1.115040,3.238134,-0.000565,-1.848000,-0.033590,0.034000,0.022929,1.235590,-0.000590,-1.616000,0.003409,0.001000,0.040480,0.000000,0.000138,-1.406286,0.000002,0.000038,25274.000000,1692014088.714032,0.783314,-1.570003,-0.000048,-0.126171,0.000153,-0.000048,,,,,,,,,
1692014088.728519,,,,,,,,,,,,,,,,,,,,,,,,,,,,,,,,,,,,,,,,,,,49718.000000,1692014088.717064,0.000000,0.000000,0.000000,0.000000,0.000000,0.000000
1692014088.736503,-0.097063,-0.030253,0.000458,-99.539478,0.009999,0.000008,0.645840,0.000000,0.000046,0.021576,2.052466,-0.001246,0.005394,4.829723,0.000653,-1.026720,3.238144,0.000764,-1.850000,-0.035590,0.032999,0.023746,1.235590,-0.000590,-1.620000,0.000409,0.001000,0.023920,0.000000,0.000138,-1.412857,0.000002,0.000038,25275.000000,1692014088.724035,0.825371,-1.570003,-0.000048,-0.105143,0.000153,-0.000048,,,,,,,,,
1692014088.739028,,,,,,,,,,,,,,,,,,,,,,,,,,,,,,,,,,,,,,,,,,,49719.000000,1692014088.733663,0.000000,0.000000,0.000000,0.000000,0.000000,0.000000
1692014088.742724,,,,,,,,,,,,,,,,,,,,,,,,,,,,,,,,,,,,,,,,,,,49720.000000,1692014088.736143,0.000000,0.000000,0.000000,0.000000,0.000000,0.000000
1692014088.753726,,,,,,,,,,,,,,,,,,,,,,,,,,,,,,,,,,,,,,,,,,,49721.000000,1692014088.745418,0.000000,0.000000,0.000000,0.000000,0.000000,0.000000
1692014088.759195,,,,,,,,,,,,,,,,,,,,,,,,,,,,,,,,,,,,,,,,,,,49722.000000,1692014088.755395,0.000000,0.000000,0.000000,0.000000,0.000000,0.000000
1692014088.768746,-0.275012,-0.029869,0.000018,-100.121580,0.009999,0.000008,0.546480,0.000000,0.000046,0.075516,2.052466,-0.006610,0.005394,4.829723,0.000653,-1.037760,3.238134,-0.000272,-1.840000,-0.030410,0.034000,0.025383,1.234409,-0.000590,-1.610000,0.007590,0.001000,0.005520,0.000000,0.000138,-1.360286,0.000002,0.000038,25276.000000,1692014088.754030,0.820114,-1.570003,-0.000048,-0.031543,0.000153,-0.000048,,,,,,,,,
1692014088.771831,,,,,,,,,,,,,,,,,,,,,,,,,,,,,,,,,,,,,,,,,,,49723.000000,1692014088.765427,0.000000,0.000000,0.000000,0.000000,0.000000,0.000000
1692014088.781501,-0.080886,-0.030253,0.000018,-100.121580,0.009999,0.000008,0.623760,0.000000,0.000046,-0.010788,2.052565,-0.001049,0.008091,4.829723,0.000653,-1.137120,3.238144,0.001623,-1.840000,-0.033410,0.026000,0.023337,1.234409,-0.005909,-1.610000,0.005591,0.004999,-0.009200,0.000000,0.000138,-1.419429,0.000002,0.000038,25277.000000,1692014088.774031,0.746514,-1.570003,-0.000048,-0.089371,0.000153,-0.000048,,,,,,,,,
1692014088.782938,,,,,,,,,,,,,,,,,,,,,,,,,,,,,,,,,,,,,,,,,,,49724.000000,1692014088.780903,0.000000,0.000000,0.000000,0.000000,0.000000,0.000000
1692014088.794725,,,,,,,,,,,,,,,,,,,,,,,,,,,,,,,,,,,,,,,,,,,49725.000000,1692014088.790235,0.000000,0.000000,0.000000,0.000000,0.000000,0.000000
1692014088.805099,,,,,,,,,,,,,,,,,,,,,,,,,,,,,,,,,,,,,,,,,,0.000000,,,,,,,,
1692014088.807132,,,,,,,,,,,,,,,,,,,,,,,,,,,,,,,,,,,,,,,,,,,49726.000000,1692014088.795556,0.000000,0.000000,0.000000,0.000000,0.000000,0.000000
1692014088.807141,0.501493,-0.030253,0.000169,-100.412632,0.009999,0.000008,0.496800,0.000000,0.000046,-0.172608,2.052446,-0.003404,0.005394,4.829723,0.000653,-1.214400,3.238134,-0.000973,-1.843000,-0.036590,0.009999,0.025383,1.235590,-0.005909,-1.613000,0.003409,-0.004999,0.009200,0.000000,0.000138,-1.406286,0.000002,0.000038,25278.000000,1692014088.794029,0.898971,-1.570003,-0.000048,-0.078857,0.000153,-0.000048,,,,,,,,,
1692014088.817651,,,,,,,,,,,,,,,,,,,,,,,,,,,,,,,,,,,,,,,,,,,49727.000000,1692014088.805280,0.000000,0.000000,0.000000,0.000000,0.000000,0.000000
1692014088.824256,0.226481,-0.030253,0.000254,-100.412632,0.009999,0.000008,0.579600,0.000000,0.000046,-0.083607,2.052604,0.009540,0.008091,4.829723,0.000653,-1.137120,3.238144,0.003487,-1.853000,-0.044999,0.004999,0.023746,1.234999,0.000000,-1.613000,0.004000,0.000000,0.001840,0.000000,0.000138,-1.504857,0.000002,0.000038,25279.000000,1692014088.814029,0.762286,-1.570003,-0.000048,-0.189257,0.000153,-0.000048,,,,,,,,,
1692014088.825013,,,,,,,,,,,,,,,,,,,,,,,,,,,,,,,,,,,,,,,,,,,49728.000000,1692014088.815951,0.000000,0.000000,0.000000,0.000000,0.000000,0.000000
1692014088.830824,,,,,,,,,,,,,,,,,,,,,,,,,,,,,,,,,,,,,,,,,,,49729.000000,1692014088.825721,0.000000,0.000000,0.000000,0.000000,0.000000,0.000000
1692014088.842573,,,,,,,,,,,,,,,,,,,,,,,,,,,,,,,,,,,,,,,,,,,49730.000000,1692014088.835413,0.000000,0.000000,0.000000,0.000000,0.000000,0.000000
1692014088.847313,1.261822,-0.030253,0.000311,-100.412632,0.009999,0.000008,0.568560,0.000000,0.000046,0.045849,2.052466,-0.008570,0.008091,4.829723,0.000653,-1.015680,3.238144,0.001277,-1.856000,-0.047000,-0.043000,0.026204,1.234999,0.000000,-1.610000,0.006001,0.000000,0.058880,0.000000,0.000138,-1.268286,-0.000003,-0.000038,25280.000000,1692014088.834031,0.820114,-1.570003,-0.000048,-0.220800,0.000153,-0.000048,,,,,,,,,
1692014088.852814,,,,,,,,,,,,,,,,,,,,,,,,,,,,,,,,,,,,,,,,,,,49731.000000,1692014088.845592,0.000000,0.000000,0.000000,0.000000,0.000000,0.000000
1692014088.859897,,,,,,,,,,,,,,,,,,,,,,,,,,,,,,,,,,,,,,,,,,,49732.000000,1692014088.855825,0.000000,0.000000,0.000000,0.000000,0.000000,0.000000
1692014088.861710,-0.145595,-0.029869,0.000551,-100.412632,0.009999,0.000008,0.469200,0.000000,0.000046,0.083607,2.052466,-0.002216,0.008091,4.829723,0.000653,-1.026720,3.238144,0.000136,-1.858000,-0.045773,-0.028999,0.022517,1.236772,0.002954,-1.613000,0.003228,0.004999,-0.007360,0.000000,0.000138,-1.478571,-0.000003,-0.000038,25281.000000,1692014088.854024,0.799086,-1.570003,-0.000048,-0.078857,0.000153,-0.000048,,,,,,,,,
1692014088.875935,0.032354,-0.029869,-0.000331,-100.412632,0.009999,0.000008,0.524400,0.000000,0.000046,-0.118668,2.052644,0.026245,0.008091,4.829723,0.000653,-1.081920,3.238144,0.005560,-1.855000,-0.044181,-0.023000,0.026612,1.236181,0.005318,-1.613000,0.002818,0.004999,0.034960,0.000000,0.000138,-1.439143,-0.000003,-0.000038,25282.000000,1692014088.864044,0.883200,-1.570003,-0.000048,-0.168229,0.000153,-0.000048,,,,,,,,,
1692014088.881411,,,,,,,,,,,,,,,,,,,,,,,,,,,,,,,,,,,,,,,,,,,49733.000000,1692014088.873740,0.000000,0.000000,0.000000,0.000000,0.000000,0.000000
1692014088.886510,,,,,,,,,,,,,,,,,,,,,,,,,,,,,,,,,,,,,,,,,,,49734.000000,1692014088.877180,0.000000,0.000000,0.000000,0.000000,0.000000,0.000000
1692014088.889577,,,,,,,,,,,,,,,,,,,,,,,,,,,,,,,,,,,,,,,,,,,49735.000000,1692014088.885352,0.000000,0.000000,0.000000,0.000000,0.000000,0.000000
1692014088.899397,,,,,,,,,,,,,,,,,,,,,,,,,,,,,,,,,,,,,,,,,,,49736.000000,1692014088.895738,0.000000,0.000000,0.000000,0.000000,0.000000,0.000000
1692014088.903040,0.355898,-0.029869,-0.001078,-100.121580,0.009999,0.000008,0.585120,0.000000,0.000046,0.005394,2.052545,-0.006135,0.008091,4.829723,0.000653,-1.092960,3.238134,-0.000356,-1.860000,-0.045182,-0.019999,0.022517,1.236181,0.002363,-1.613000,0.002818,-0.008999,0.018400,0.000000,0.000138,-1.314286,-0.000003,-0.000038,25283.000000,1692014088.894026,0.898971,-1.570003,-0.000048,-0.120914,0.000153,-0.000048,,,,,,,,,
1692014088.909965,,,,,,,,,,,,,,,,,,,,,,,,,,,,,,,,,,,,,,,,,,0.000000,,,,,,,,
1692014088.910404,,,,,,,,,,,,,,,,,,,,,,,,,,,,,,,,,,,,,,,,,,,49737.000000,1692014088.906198,0.000000,0.000000,0.000000,0.000000,0.000000,0.000000
1692014088.911044,-0.210304,-0.029869,-0.000018,-100.703683,0.009999,0.000008,0.568560,0.000000,0.000046,-0.026970,2.052624,0.022247,0.008091,4.829723,0.000653,-1.104000,3.238134,-0.001570,-1.860000,-0.045182,-0.018999,0.022929,1.236181,0.002363,-1.613000,0.002818,0.001000,0.055200,0.000000,0.000138,-1.412857,-0.000003,-0.000038,25284.000000,1692014088.904035,0.835886,-1.570003,-0.000048,-0.136686,0.000153,-0.000048,,,,,,,,,
1692014088.920805,,,,,,,,,,,,,,,,,,,,,,,,,,,,,,,,,,,,,,,,,,,49738.000000,1692014088.916089,0.000000,0.000000,0.000000,0.000000,0.000000,0.000000
1692014088.933677,,,,,,,,,,,,,,,,,,,,,,,,,,,,,,,,,,,,,,,,,,,49739.000000,1692014088.925389,0.000000,0.000000,0.000000,0.000000,0.000000,0.000000
1692014088.937950,2.151568,-0.030253,0.001074,-101.285785,0.009999,0.000008,0.579600,0.000000,0.000046,0.059334,2.052466,-0.004295,0.005394,4.829723,0.000653,-1.170240,3.238134,-0.000795,-1.861000,-0.045182,-0.014000,0.023746,1.236181,0.002363,-1.611000,0.003819,0.001000,0.022080,0.000000,0.000138,-1.498286,-0.000003,-0.000038,25285.000000,1692014088.924034,0.830629,-1.570003,-0.000048,-0.068343,0.000153,-0.000048,,,,,,,,,
1692014088.944182,,,,,,,,,,,,,,,,,,,,,,,,,,,,,,,,,,,,,,,,,,,49740.000000,1692014088.936144,0.000000,0.000000,0.000000,0.000000,0.000000,0.000000
1692014088.951602,,,,,,,,,,,,,,,,,,,,,,,,,,,,,,,,,,,,,,,,,,,49741.000000,1692014088.945381,0.000000,0.000000,0.000000,0.000000,0.000000,0.000000
1692014088.960912,,,,,,,,,,,,,,,,,,,,,,,,,,,,,,,,,,,,,,,,,,,49742.000000,1692014088.955354,0.000000,0.000000,0.000000,0.000000,0.000000,0.000000
1692014088.962374,0.452962,-0.029869,-0.000199,-100.703683,0.009999,0.000008,0.557520,0.000000,0.000046,-0.062031,2.052486,0.007184,0.002697,4.829723,0.000653,-1.048800,3.238144,0.000293,-1.863000,-0.045409,-0.026000,0.024154,1.234409,-0.006499,-1.605000,0.007590,0.004999,0.023920,0.000000,0.000138,-1.353714,-0.000003,-0.000038,25286.000000,1692014088.954030,0.856914,-1.570003,-0.000048,-0.152457,0.000153,-0.000048,,,,,,,,,
1692014088.975069,,,,,,,,,,,,,,,,,,,,,,,,,,,,,,,,,,,,,,,,,,,49743.000000,1692014088.969900,0.000000,0.000000,0.000000,0.000000,0.000000,0.000000
1692014088.984394,2.005973,-0.029869,0.001401,-100.703683,0.009999,0.000008,0.607200,0.000000,0.000046,0.021576,2.052545,-0.005878,0.005394,4.829723,0.000653,-1.059840,3.238144,0.000094,-1.866000,-0.045999,-0.024000,0.024566,1.234999,-0.006499,-1.601000,0.009000,0.037999,0.007360,0.000000,0.000138,-1.399714,-0.000003,-0.000038,25287.000000,1692014088.974041,0.856914,-1.570003,-0.000048,-0.173486,0.000153,-0.000048,,,,,,,,,
1692014088.986158,,,,,,,,,,,,,,,,,,,,,,,,,,,,,,,,,,,,,,,,,,,49744.000000,1692014088.982359,0.000000,0.000000,0.000000,0.000000,0.000000,0.000000
1692014088.990567,,,,,,,,,,,,,,,,,,,,,,,,,,,,,,,,,,,,,,,,,,,49745.000000,1692014088.985385,0.000000,0.000000,0.000000,0.000000,0.000000,0.000000
1692014088.999625,,,,,,,,,,,,,,,,,,,,,,,,,,,,,,,,,,,,,,,,,,,49746.000000,1692014088.996573,0.000000,0.000000,0.000000,0.000000,0.000000,0.000000
1692014089.002227,0.242658,-0.029869,-0.000018,-100.703683,0.009999,0.000008,0.552000,0.000000,0.000046,-0.107880,2.052486,0.005957,0.005394,4.829723,0.000653,-1.059840,3.238144,0.000094,-1.856000,-0.039999,0.017999,0.023746,1.234999,-0.003545,-1.601000,0.008001,0.020999,0.031280,0.000000,0.000138,-1.445714,-0.000003,-0.000038,25288.000000,1692014088.994044,0.820114,-1.570003,-0.000048,-0.099886,-0.000228,-0.000048,,,,,,,,,
1692014089.018309,,,,,,,,,,,,,,,,,,,,,,,,,,,,,,,,,,,,,,,,,,,49747.000000,1692014089.013648,0.000000,0.000000,0.000000,0.000000,0.000000,0.000000
1692014089.022166,0.016177,-0.029869,-0.000333,-101.285785,0.009999,0.000008,0.585120,0.000000,0.000046,0.045849,2.052466,-0.005858,0.008091,4.829723,0.000653,-1.380000,3.238144,0.002565,-1.861000,-0.044000,-0.007000,0.024154,1.234999,-0.003545,-1.601000,0.007000,0.014999,0.027600,0.000000,0.000138,-1.353714,-0.000003,-0.000038,25289.000000,1692014089.014029,0.956800,-1.570003,-0.000048,-0.105143,0.000153,-0.000048,,,,,,,,,
1692014089.029122,,,,,,,,,,,,,,,,,,,,,,,,,,,,,,,,,,,,,,,,,,,49748.000000,1692014089.015663,0.000000,0.000000,0.000000,0.000000,0.000000,0.000000
1692014089.029131,,,,,,,,,,,,,,,,,,,,,,,,,,,,,,,,,,,,,,,,,,0.000000,,,,,,,,
1692014089.036130,,,,,,,,,,,,,,,,,,,,,,,,,,,,,,,,,,,,,,,,,,,49749.000000,1692014089.025863,0.000000,0.000000,0.000000,0.000000,0.000000,0.000000
1692014089.044193,0.695620,-0.030253,0.001280,-101.285785,0.009999,0.000008,0.552000,0.000000,0.000046,0.080910,2.052466,-0.004829,0.008091,4.829723,0.000653,-1.247520,3.238134,-0.002827,-1.861000,-0.042819,-0.010999,0.024975,1.233818,-0.003545,-1.600000,0.008181,0.009999,0.011040,0.000000,0.000138,-1.353714,-0.000003,-0.000038,25290.000000,1692014089.034026,0.762286,-1.570003,-0.000048,0.047314,-0.000228,-0.000048,,,,,,,,,
1692014089.045051,,,,,,,,,,,,,,,,,,,,,,,,,,,,,,,,,,,,,,,,,,,49750.000000,1692014089.036383,0.000000,0.000000,0.000000,0.000000,0.000000,0.000000
1692014089.053456,0.905923,-0.030253,0.000107,-100.994734,0.009999,0.000008,0.601680,0.000000,0.000046,-0.102486,2.052486,0.006393,0.008091,4.829723,0.000653,-1.115040,3.238134,-0.002911,-1.856000,-0.038818,-0.010999,0.024975,1.233818,-0.008863,-1.600000,0.008181,0.009999,0.046000,0.000000,0.000138,-1.360286,-0.000003,-0.000038,25291.000000,1692014089.044039,0.809600,-1.570003,-0.000048,-0.084114,-0.000228,-0.000048,,,,,,,,,
1692014089.055907,,,,,,,,,,,,,,,,,,,,,,,,,,,,,,,,,,,,,,,,,,,49751.000000,1692014089.045347,0.000000,0.000000,0.000000,0.000000,0.000000,0.000000
1692014089.067538,,,,,,,,,,,,,,,,,,,,,,,,,,,,,,,,,,,,,,,,,,,49752.000000,1692014089.055412,0.000000,0.000000,0.000000,0.000000,0.000000,0.000000
1692014089.077555,,,,,,,,,,,,,,,,,,,,,,,,,,,,,,,,,,,,,,,,,,,49753.000000,1692014089.066785,0.000000,0.000000,0.000000,0.000000,0.000000,0.000000
1692014089.080384,1.407417,-0.029869,0.000038,-99.830529,0.009999,0.000157,0.485760,0.000000,0.000046,0.075516,2.052466,-0.003998,0.008091,4.829723,0.000653,-1.048800,3.238144,0.002021,-1.855000,-0.038590,0.032999,0.023337,1.235590,-0.002954,-1.608000,0.002410,-0.004999,0.051520,0.000000,0.000138,-1.314286,-0.000003,-0.000038,25292.000000,1692014089.074057,0.825371,-1.570003,-0.000048,-0.425829,0.000153,-0.000048,,,,,,,,,
1692014089.084369,,,,,,,,,,,,,,,,,,,,,,,,,,,,,,,,,,,,,,,,,,,49754.000000,1692014089.075488,0.000000,0.000000,0.000000,0.000000,0.000000,0.000000
1692014089.102255,,,,,,,,,,,,,,,,,,,,,,,,,,,,,,,,,,,,,,,,,,,49755.000000,1692014089.095384,0.000000,0.000000,0.000000,0.000000,0.000000,0.000000
1692014089.102657,1.455948,-0.030253,0.001363,-100.121580,0.009999,0.000008,0.563040,0.000000,0.000046,0.070122,2.052506,-0.011104,0.005394,4.829723,0.000653,-1.313760,3.238144,0.003057,-1.855000,-0.038590,0.020999,0.025795,1.235590,0.002363,-1.606000,0.003409,0.001000,0.042320,0.000000,0.000138,-1.419429,-0.000003,-0.000038,25293.000000,1692014089.094027,0.846400,-1.570003,-0.000048,-0.178743,0.000153,-0.000048,,,,,,,,,
1692014089.112964,,,,,,,,,,,,,,,,,,,,,,,,,,,,,,,,,,,,,,,,,,,49757.000000,1692014089.105969,0.000000,0.000000,0.000000,0.000000,0.000000,0.000000
1692014089.122635,,,,,,,,,,,,,,,,,,,,,,,,,,,,,,,,,,,,,,,,,,,49758.000000,1692014089.117655,0.000000,0.000000,0.000000,0.000000,0.000000,0.000000
1692014089.124380,0.517670,-0.029869,-0.001391,-100.121580,0.009999,0.000008,0.436080,0.000000,0.000046,-0.064728,2.052624,0.027473,0.008091,4.829723,0.000653,-1.280640,3.238134,-0.004743,-1.853000,-0.037591,0.034000,0.024975,1.235590,0.002363,-1.608000,0.002410,-0.004000,-0.007360,0.000000,0.000138,-1.544286,-0.000003,-0.000038,25294.000000,1692014089.114028,0.904229,-1.570003,-0.000048,-0.115657,0.000153,-0.000048,,,,,,,,,
1692014089.136457,,,,,,,,,,,,,,,,,,,,,,,,,,,,,,,,,,,,,,,,,,,49759.000000,1692014089.128396,0.000000,0.000000,0.000000,0.000000,0.000000,0.000000
1692014089.136478,,,,,,,,,,,,,,,,,,,,,,,,,,,,,,,,,,,,,,,,,,0.000000,,,,,,,,
1692014089.138166,-0.080886,-0.029869,0.000622,-100.121580,0.009999,0.000008,0.535440,0.000000,0.000046,-0.040455,2.052506,0.002573,0.008091,4.829723,0.000653,-1.192320,3.238134,-0.001308,-1.848000,-0.035999,0.017999,0.026612,1.234999,-0.000590,-1.608000,0.004000,-0.008000,0.025760,0.000000,0.000138,-1.288000,-0.000003,-0.000038,25295.000000,1692014089.124040,0.909486,-1.570003,-0.000048,-0.184000,0.000153,-0.000048,,,,,,,,,
1692014089.141279,,,,,,,,,,,,,,,,,,,,,,,,,,,,,,,,,,,,,,,,,,,49760.000000,1692014089.136529,0.000000,0.000000,0.000000,0.000000,0.000000,0.000000
1692014089.153195,,,,,,,,,,,,,,,,,,,,,,,,,,,,,,,,,,,,,,,,,,,49761.000000,1692014089.146792,0.000000,0.000000,0.000000,0.000000,0.000000,0.000000
1692014089.161631,,,,,,,,,,,,,,,,,,,,,,,,,,,,,,,,,,,,,,,,,,,49762.000000,1692014089.156344,0.000000,0.000000,0.000000,0.000000,0.000000,0.000000
1692014089.164594,0.792683,-0.030253,0.000884,-100.121580,0.009999,0.000008,0.579600,0.000000,0.000046,-0.029667,2.052506,0.002335,0.008091,4.829723,0.000653,-1.092960,3.238134,-0.004419,-1.853000,-0.039999,0.001000,0.026204,1.234999,-0.002954,-1.613000,0.003001,-0.016000,0.009200,0.000000,0.000138,-1.347143,-0.000003,-0.000038,25296.000000,1692014089.154034,0.898971,-1.570003,-0.000048,-0.057829,0.000153,-0.000306,,,,,,,,,
1692014089.182666,,,,,,,,,,,,,,,,,,,,,,,,,,,,,,,,,,,,,,,,,,,49763.000000,1692014089.165378,0.000000,0.000000,0.000000,0.000000,0.000000,0.000000
1692014089.185932,1.229467,-0.030253,0.000167,-99.830529,0.009999,0.000008,0.513360,0.000000,0.000046,0.083607,2.052466,-0.002454,0.008091,4.829723,0.000653,-1.070880,3.238134,-0.001277,-1.855000,-0.042181,0.001000,0.025383,1.236181,0.002954,-1.613000,0.001819,-0.006000,0.038640,0.000000,0.000138,-1.334000,-0.000003,-0.000038,25297.000000,1692014089.174029,0.898971,-1.570003,-0.000048,-0.005257,-0.000228,-0.000048,,,,,,,,,
1692014089.189800,,,,,,,,,,,,,,,,,,,,,,,,,,,,,,,,,,,,,,,,,,,49765.000000,1692014089.185391,0.000000,0.000000,0.000000,0.000000,0.000000,0.000000
1692014089.197227,0.727974,-0.030253,0.000351,-99.248427,0.009999,-0.000027,0.601680,0.000000,0.000046,-0.072819,2.052624,0.028640,0.008091,4.829723,0.000653,-1.081920,3.238144,0.000178,-1.858000,-0.043182,-0.004000,0.022517,1.236181,0.002954,-1.615000,0.001819,-0.006000,0.016560,0.000000,0.000138,-1.445714,-0.000003,-0.000038,25298.000000,1692014089.184041,0.835886,-1.570003,-0.000048,-0.057829,-0.000228,-0.000048,,,,,,,,,
1692014089.207449,,,,,,,,,,,,,,,,,,,,,,,,,,,,,,,,,,,,,,,,,,,49766.000000,1692014089.202171,0.000000,0.000000,0.000000,0.000000,0.000000,0.000000
1692014089.218987,,,,,,,,,,,,,,,,,,,,,,,,,,,,,,,,,,,,,,,,,,,49767.000000,1692014089.206684,0.000000,0.000000,0.000000,0.000000,0.000000,0.000000
1692014089.221390,,,,,,,,,,,,,,,,,,,,,,,,,,,,,,,,,,,,,,,,,,,49768.000000,1692014089.215405,0.000000,0.000000,0.000000,0.000000,0.000000,0.000000
1692014089.225949,1.051518,-0.030253,0.002152,-98.084223,0.009999,-0.000008,0.574080,0.000000,0.000046,0.083607,2.052466,-0.003345,0.005394,4.829723,0.000653,-1.059840,3.238134,-0.001413,-1.860000,-0.044181,-0.012000,0.024154,1.236181,0.002954,-1.615000,0.002818,-0.001000,0.020240,0.000000,0.000138,-1.281429,-0.000003,-0.000038,25299.000000,1692014089.214030,0.914743,-1.569998,0.000048,-0.015771,-0.000609,-0.000048,,,,,,,,,
1692014089.233812,,,,,,,,,,,,,,,,,,,,,,,,,,,,,,,,,,,,,,,,,,,49769.000000,1692014089.225764,0.000000,0.000000,0.000000,0.000000,0.000000,0.000000
1692014089.241078,,,,,,,,,,,,,,,,,,,,,,,,,,,,,,,,,,,,,,,,,,0.000000,,,,,,,,
1692014089.243494,,,,,,,,,,,,,,,,,,,,,,,,,,,,,,,,,,,,,,,,,,,49770.000000,1692014089.235379,0.000000,0.000000,0.000000,0.000000,0.000000,0.000000
1692014089.243503,0.711797,-0.030253,0.001225,-98.957376,0.009999,0.000008,0.524400,0.000000,0.000046,-0.013485,2.052446,-0.014844,0.005394,4.829723,0.000653,-1.104000,3.238134,-0.000387,-1.860000,-0.044181,-0.012000,0.025383,1.236181,0.000000,-1.610000,0.005818,0.008999,0.047840,0.000000,0.000138,-1.281429,-0.000003,-0.000038,25300.000000,1692014089.234028,0.898971,-1.569998,0.000048,0.010514,-0.000609,-0.000048,,,,,,,,,
1692014089.257430,,,,,,,,,,,,,,,,,,,,,,,,,,,,,,,,,,,,,,,,,,,49771.000000,1692014089.245540,0.000000,0.000000,0.000000,0.000000,0.000000,0.000000
1692014089.262743,,,,,,,,,,,,,,,,,,,,,,,,,,,,,,,,,,,,,,,,,,,49772.000000,1692014089.255301,0.000000,0.000000,0.000000,0.000000,0.000000,0.000000
1692014089.264122,1.536834,-0.030253,0.000824,-99.248427,0.009999,0.000008,0.607200,0.000000,0.000046,0.086304,2.052466,-0.002553,0.005394,4.829723,0.000653,-1.104000,3.238144,0.000094,-1.860000,-0.043773,-0.007000,0.019651,1.236772,0.004727,-1.613000,0.003228,0.003000,0.020240,0.000000,0.000138,-1.360286,-0.000003,-0.000038,25301.000000,1692014089.254027,0.788571,-1.569998,0.000048,-0.063086,-0.000228,-0.000048,,,,,,,,,
1692014089.273189,,,,,,,,,,,,,,,,,,,,,,,,,,,,,,,,,,,,,,,,,,,49773.000000,1692014089.268544,0.000000,0.000000,0.000000,0.000000,0.000000,0.000000
