__time,/hsrb/joint_states/arm_flex_joint/effort,/hsrb/joint_states/arm_flex_joint/position,/hsrb/joint_states/arm_flex_joint/velocity,/hsrb/joint_states/arm_lift_joint/effort,/hsrb/joint_states/arm_lift_joint/position,/hsrb/joint_states/arm_lift_joint/velocity,/hsrb/joint_states/arm_roll_joint/effort,/hsrb/joint_states/arm_roll_joint/position,/hsrb/joint_states/arm_roll_joint/velocity,/hsrb/joint_states/base_l_drive_wheel_joint/effort,/hsrb/joint_states/base_l_drive_wheel_joint/position,/hsrb/joint_states/base_l_drive_wheel_joint/velocity,/hsrb/joint_states/base_r_drive_wheel_joint/effort,/hsrb/joint_states/base_r_drive_wheel_joint/position,/hsrb/joint_states/base_r_drive_wheel_joint/velocity,/hsrb/joint_states/base_roll_joint/effort,/hsrb/joint_states/base_roll_joint/position,/hsrb/joint_states/base_roll_joint/velocity,/hsrb/joint_states/hand_l_spring_proximal_joint/effort,/hsrb/joint_states/hand_l_spring_proximal_joint/position,/hsrb/joint_states/hand_l_spring_proximal_joint/velocity,/hsrb/joint_states/hand_motor_joint/effort,/hsrb/joint_states/hand_motor_joint/position,/hsrb/joint_states/hand_motor_joint/velocity,/hsrb/joint_states/hand_r_spring_proximal_joint/effort,/hsrb/joint_states/hand_r_spring_proximal_joint/position,/hsrb/joint_states/hand_r_spring_proximal_joint/velocity,/hsrb/joint_states/head_pan_joint/effort,/hsrb/joint_states/head_pan_joint/position,/hsrb/joint_states/head_pan_joint/velocity,/hsrb/joint_states/head_tilt_joint/effort,/hsrb/joint_states/head_tilt_joint/position,/hsrb/joint_states/head_tilt_joint/velocity,/hsrb/joint_states/header/seq,/hsrb/joint_states/header/stamp,/hsrb/joint_states/wrist_flex_joint/effort,/hsrb/joint_states/wrist_flex_joint/position,/hsrb/joint_states/wrist_flex_joint/velocity,/hsrb/joint_states/wrist_roll_joint/effort,/hsrb/joint_states/wrist_roll_joint/position,/hsrb/joint_states/wrist_roll_joint/velocity,/hsrb/pressure_sensor/data,/hsrb/wrist_wrench/compensated/header/seq,/hsrb/wrist_wrench/compensated/header/stamp,/hsrb/wrist_wrench/compensated/wrench/force/x,/hsrb/wrist_wrench/compensated/wrench/force/y,/hsrb/wrist_wrench/compensated/wrench/force/z,/hsrb/wrist_wrench/compensated/wrench/torque/x,/hsrb/wrist_wrench/compensated/wrench/torque/y,/hsrb/wrist_wrench/compensated/wrench/torque/z
1692614319.384155,,,,,,,,,,,,,,,,,,,,,,,,,,,,,,,,,,,,,,,,,,0.000000,,,,,,,,
1692614319.491346,,,,,,,,,,,,,,,,,,,,,,,,,,,,,,,,,,,,,,,,,,0.000000,,,,,,,,
1692614319.601207,,,,,,,,,,,,,,,,,,,,,,,,,,,,,,,,,,,,,,,,,,0.000000,,,,,,,,
1692614319.714684,,,,,,,,,,,,,,,,,,,,,,,,,,,,,,,,,,,,,,,,,,0.000000,,,,,,,,
1692614319.822080,,,,,,,,,,,,,,,,,,,,,,,,,,,,,,,,,,,,,,,,,,0.000000,,,,,,,,
1692614319.935666,,,,,,,,,,,,,,,,,,,,,,,,,,,,,,,,,,,,,,,,,,0.000000,,,,,,,,
1692614320.039524,,,,,,,,,,,,,,,,,,,,,,,,,,,,,,,,,,,,,,,,,,0.000000,,,,,,,,
1692614320.158089,,,,,,,,,,,,,,,,,,,,,,,,,,,,,,,,,,,,,,,,,,0.000000,,,,,,,,
1692614320.263846,,,,,,,,,,,,,,,,,,,,,,,,,,,,,,,,,,,,,,,,,,0.000000,,,,,,,,
1692614320.374619,,,,,,,,,,,,,,,,,,,,,,,,,,,,,,,,,,,,,,,,,,0.000000,,,,,,,,
1692614320.471797,,,,,,,,,,,,,,,,,,,,,,,,,,,,,,,,,,,,,,,,,,0.000000,,,,,,,,
1692614320.578327,,,,,,,,,,,,,,,,,,,,,,,,,,,,,,,,,,,,,,,,,,0.000000,,,,,,,,
1692614320.687566,,,,,,,,,,,,,,,,,,,,,,,,,,,,,,,,,,,,,,,,,,0.000000,,,,,,,,
1692614320.798425,,,,,,,,,,,,,,,,,,,,,,,,,,,,,,,,,,,,,,,,,,0.000000,,,,,,,,
1692614320.911532,,,,,,,,,,,,,,,,,,,,,,,,,,,,,,,,,,,,,,,,,,0.000000,,,,,,,,
1692614321.017502,,,,,,,,,,,,,,,,,,,,,,,,,,,,,,,,,,,,,,,,,,0.000000,,,,,,,,
1692614321.126198,,,,,,,,,,,,,,,,,,,,,,,,,,,,,,,,,,,,,,,,,,0.000000,,,,,,,,
1692614321.239099,,,,,,,,,,,,,,,,,,,,,,,,,,,,,,,,,,,,,,,,,,0.000000,,,,,,,,
1692614321.340680,,,,,,,,,,,,,,,,,,,,,,,,,,,,,,,,,,,,,,,,,,0.000000,,,,,,,,
1692614321.452633,,,,,,,,,,,,,,,,,,,,,,,,,,,,,,,,,,,,,,,,,,0.000000,,,,,,,,
1692614321.555980,,,,,,,,,,,,,,,,,,,,,,,,,,,,,,,,,,,,,,,,,,0.000000,,,,,,,,
1692614321.664998,,,,,,,,,,,,,,,,,,,,,,,,,,,,,,,,,,,,,,,,,,0.000000,,,,,,,,
1692614321.774823,,,,,,,,,,,,,,,,,,,,,,,,,,,,,,,,,,,,,,,,,,0.000000,,,,,,,,
1692614321.885201,,,,,,,,,,,,,,,,,,,,,,,,,,,,,,,,,,,,,,,,,,0.000000,,,,,,,,
1692614321.990932,,,,,,,,,,,,,,,,,,,,,,,,,,,,,,,,,,,,,,,,,,0.000000,,,,,,,,
1692614322.096030,,,,,,,,,,,,,,,,,,,,,,,,,,,,,,,,,,,,,,,,,,0.000000,,,,,,,,
1692614322.210548,,,,,,,,,,,,,,,,,,,,,,,,,,,,,,,,,,,,,,,,,,0.000000,,,,,,,,
1692614322.314850,,,,,,,,,,,,,,,,,,,,,,,,,,,,,,,,,,,,,,,,,,0.000000,,,,,,,,
1692614322.423713,,,,,,,,,,,,,,,,,,,,,,,,,,,,,,,,,,,,,,,,,,0.000000,,,,,,,,
1692614322.533529,,,,,,,,,,,,,,,,,,,,,,,,,,,,,,,,,,,,,,,,,,0.000000,,,,,,,,
1692614322.641298,,,,,,,,,,,,,,,,,,,,,,,,,,,,,,,,,,,,,,,,,,0.000000,,,,,,,,
1692614322.748447,,,,,,,,,,,,,,,,,,,,,,,,,,,,,,,,,,,,,,,,,,0.000000,,,,,,,,
1692614322.853810,,,,,,,,,,,,,,,,,,,,,,,,,,,,,,,,,,,,,,,,,,0.000000,,,,,,,,
1692614322.963971,,,,,,,,,,,,,,,,,,,,,,,,,,,,,,,,,,,,,,,,,,0.000000,,,,,,,,
1692614323.075727,,,,,,,,,,,,,,,,,,,,,,,,,,,,,,,,,,,,,,,,,,0.000000,,,,,,,,
1692614323.180113,,,,,,,,,,,,,,,,,,,,,,,,,,,,,,,,,,,,,,,,,,0.000000,,,,,,,,
1692614323.290712,,,,,,,,,,,,,,,,,,,,,,,,,,,,,,,,,,,,,,,,,,0.000000,,,,,,,,
1692614323.400895,,,,,,,,,,,,,,,,,,,,,,,,,,,,,,,,,,,,,,,,,,0.000000,,,,,,,,
1692614323.512227,,,,,,,,,,,,,,,,,,,,,,,,,,,,,,,,,,,,,,,,,,0.000000,,,,,,,,
1692614323.612422,,,,,,,,,,,,,,,,,,,,,,,,,,,,,,,,,,,,,,,,,,0.000000,,,,,,,,
1692614323.724392,,,,,,,,,,,,,,,,,,,,,,,,,,,,,,,,,,,,,,,,,,0.000000,,,,,,,,
1692614323.832036,,,,,,,,,,,,,,,,,,,,,,,,,,,,,,,,,,,,,,,,,,0.000000,,,,,,,,
1692614323.948831,,,,,,,,,,,,,,,,,,,,,,,,,,,,,,,,,,,,,,,,,,0.000000,,,,,,,,
1692614324.053403,,,,,,,,,,,,,,,,,,,,,,,,,,,,,,,,,,,,,,,,,,0.000000,,,,,,,,
1692614324.155239,,,,,,,,,,,,,,,,,,,,,,,,,,,,,,,,,,,,,,,,,,0.000000,,,,,,,,
1692614324.270344,,,,,,,,,,,,,,,,,,,,,,,,,,,,,,,,,,,,,,,,,,0.000000,,,,,,,,
1692614324.381928,,,,,,,,,,,,,,,,,,,,,,,,,,,,,,,,,,,,,,,,,,0.000000,,,,,,,,
1692614324.481422,,,,,,,,,,,,,,,,,,,,,,,,,,,,,,,,,,,,,,,,,,0.000000,,,,,,,,
1692614324.592723,,,,,,,,,,,,,,,,,,,,,,,,,,,,,,,,,,,,,,,,,,0.000000,,,,,,,,
1692614324.698910,,,,,,,,,,,,,,,,,,,,,,,,,,,,,,,,,,,,,,,,,,0.000000,,,,,,,,
1692614324.813457,,,,,,,,,,,,,,,,,,,,,,,,,,,,,,,,,,,,,,,,,,0.000000,,,,,,,,
1692614324.913757,,,,,,,,,,,,,,,,,,,,,,,,,,,,,,,,,,,,,,,,,,0.000000,,,,,,,,
1692614325.026978,,,,,,,,,,,,,,,,,,,,,,,,,,,,,,,,,,,,,,,,,,0.000000,,,,,,,,
1692614325.133399,,,,,,,,,,,,,,,,,,,,,,,,,,,,,,,,,,,,,,,,,,0.000000,,,,,,,,
1692614325.243877,,,,,,,,,,,,,,,,,,,,,,,,,,,,,,,,,,,,,,,,,,0.000000,,,,,,,,
1692614325.348762,,,,,,,,,,,,,,,,,,,,,,,,,,,,,,,,,,,,,,,,,,0.000000,,,,,,,,
1692614325.460114,,,,,,,,,,,,,,,,,,,,,,,,,,,,,,,,,,,,,,,,,,0.000000,,,,,,,,
1692614325.574497,,,,,,,,,,,,,,,,,,,,,,,,,,,,,,,,,,,,,,,,,,0.000000,,,,,,,,
1692614325.675120,,,,,,,,,,,,,,,,,,,,,,,,,,,,,,,,,,,,,,,,,,0.000000,,,,,,,,
1692614325.787830,,,,,,,,,,,,,,,,,,,,,,,,,,,,,,,,,,,,,,,,,,0.000000,,,,,,,,
1692614325.897612,,,,,,,,,,,,,,,,,,,,,,,,,,,,,,,,,,,,,,,,,,0.000000,,,,,,,,
1692614326.001325,,,,,,,,,,,,,,,,,,,,,,,,,,,,,,,,,,,,,,,,,,0.000000,,,,,,,,
1692614326.113348,,,,,,,,,,,,,,,,,,,,,,,,,,,,,,,,,,,,,,,,,,0.000000,,,,,,,,
1692614326.223664,,,,,,,,,,,,,,,,,,,,,,,,,,,,,,,,,,,,,,,,,,0.000000,,,,,,,,
1692614326.336018,,,,,,,,,,,,,,,,,,,,,,,,,,,,,,,,,,,,,,,,,,0.000000,,,,,,,,
1692614326.437594,,,,,,,,,,,,,,,,,,,,,,,,,,,,,,,,,,,,,,,,,,0.000000,,,,,,,,
1692614326.544100,,,,,,,,,,,,,,,,,,,,,,,,,,,,,,,,,,,,,,,,,,0.000000,,,,,,,,
1692614326.653545,,,,,,,,,,,,,,,,,,,,,,,,,,,,,,,,,,,,,,,,,,0.000000,,,,,,,,
1692614326.766022,,,,,,,,,,,,,,,,,,,,,,,,,,,,,,,,,,,,,,,,,,0.000000,,,,,,,,
1692614326.867918,,,,,,,,,,,,,,,,,,,,,,,,,,,,,,,,,,,,,,,,,,0.000000,,,,,,,,
1692614326.974628,,,,,,,,,,,,,,,,,,,,,,,,,,,,,,,,,,,,,,,,,,0.000000,,,,,,,,
1692614327.082280,,,,,,,,,,,,,,,,,,,,,,,,,,,,,,,,,,,,,,,,,,0.000000,,,,,,,,
1692614327.191488,,,,,,,,,,,,,,,,,,,,,,,,,,,,,,,,,,,,,,,,,,0.000000,,,,,,,,
1692614327.303623,,,,,,,,,,,,,,,,,,,,,,,,,,,,,,,,,,,,,,,,,,0.000000,,,,,,,,
1692614327.411911,,,,,,,,,,,,,,,,,,,,,,,,,,,,,,,,,,,,,,,,,,0.000000,,,,,,,,
1692614327.523523,,,,,,,,,,,,,,,,,,,,,,,,,,,,,,,,,,,,,,,,,,0.000000,,,,,,,,
1692614327.627389,,,,,,,,,,,,,,,,,,,,,,,,,,,,,,,,,,,,,,,,,,0.000000,,,,,,,,
1692614327.747053,,,,,,,,,,,,,,,,,,,,,,,,,,,,,,,,,,,,,,,,,,0.000000,,,,,,,,
1692614327.842257,,,,,,,,,,,,,,,,,,,,,,,,,,,,,,,,,,,,,,,,,,0.000000,,,,,,,,
1692614327.948881,,,,,,,,,,,,,,,,,,,,,,,,,,,,,,,,,,,,,,,,,,0.000000,,,,,,,,
1692614328.064438,,,,,,,,,,,,,,,,,,,,,,,,,,,,,,,,,,,,,,,,,,0.000000,,,,,,,,
1692614328.168801,,,,,,,,,,,,,,,,,,,,,,,,,,,,,,,,,,,,,,,,,,0.000000,,,,,,,,
1692614328.279351,,,,,,,,,,,,,,,,,,,,,,,,,,,,,,,,,,,,,,,,,,0.000000,,,,,,,,
1692614328.384994,,,,,,,,,,,,,,,,,,,,,,,,,,,,,,,,,,,,,,,,,,0.000000,,,,,,,,
1692614328.494765,,,,,,,,,,,,,,,,,,,,,,,,,,,,,,,,,,,,,,,,,,0.000000,,,,,,,,
1692614328.600195,,,,,,,,,,,,,,,,,,,,,,,,,,,,,,,,,,,,,,,,,,0.000000,,,,,,,,
1692614328.715482,,,,,,,,,,,,,,,,,,,,,,,,,,,,,,,,,,,,,,,,,,0.000000,,,,,,,,
1692614328.819435,,,,,,,,,,,,,,,,,,,,,,,,,,,,,,,,,,,,,,,,,,0.000000,,,,,,,,
1692614328.929612,,,,,,,,,,,,,,,,,,,,,,,,,,,,,,,,,,,,,,,,,,0.000000,,,,,,,,
1692614329.035537,,,,,,,,,,,,,,,,,,,,,,,,,,,,,,,,,,,,,,,,,,0.000000,,,,,,,,
1692614329.145150,,,,,,,,,,,,,,,,,,,,,,,,,,,,,,,,,,,,,,,,,,0.000000,,,,,,,,
1692614329.263507,,,,,,,,,,,,,,,,,,,,,,,,,,,,,,,,,,,,,,,,,,0.000000,,,,,,,,
1692614329.367109,,,,,,,,,,,,,,,,,,,,,,,,,,,,,,,,,,,,,,,,,,0.000000,,,,,,,,
1692614329.477579,,,,,,,,,,,,,,,,,,,,,,,,,,,,,,,,,,,,,,,,,,0.000000,,,,,,,,
1692614329.578939,,,,,,,,,,,,,,,,,,,,,,,,,,,,,,,,,,,,,,,,,,0.000000,,,,,,,,
1692614329.686062,,,,,,,,,,,,,,,,,,,,,,,,,,,,,,,,,,,,,,,,,,0.000000,,,,,,,,
1692614329.795194,,,,,,,,,,,,,,,,,,,,,,,,,,,,,,,,,,,,,,,,,,0.000000,,,,,,,,
1692614329.904174,,,,,,,,,,,,,,,,,,,,,,,,,,,,,,,,,,,,,,,,,,0.000000,,,,,,,,
1692614330.008675,,,,,,,,,,,,,,,,,,,,,,,,,,,,,,,,,,,,,,,,,,0.000000,,,,,,,,
1692614330.117457,,,,,,,,,,,,,,,,,,,,,,,,,,,,,,,,,,,,,,,,,,0.000000,,,,,,,,
1692614330.226930,,,,,,,,,,,,,,,,,,,,,,,,,,,,,,,,,,,,,,,,,,0.000000,,,,,,,,
1692614330.337638,,,,,,,,,,,,,,,,,,,,,,,,,,,,,,,,,,,,,,,,,,0.000000,,,,,,,,
1692614330.445090,,,,,,,,,,,,,,,,,,,,,,,,,,,,,,,,,,,,,,,,,,0.000000,,,,,,,,
1692614330.553343,,,,,,,,,,,,,,,,,,,,,,,,,,,,,,,,,,,,,,,,,,0.000000,,,,,,,,
1692614330.676949,,,,,,,,,,,,,,,,,,,,,,,,,,,,,,,,,,,,,,,,,,0.000000,,,,,,,,
1692614330.774810,,,,,,,,,,,,,,,,,,,,,,,,,,,,,,,,,,,,,,,,,,0.000000,,,,,,,,
1692614330.881498,,,,,,,,,,,,,,,,,,,,,,,,,,,,,,,,,,,,,,,,,,0.000000,,,,,,,,
1692614330.986591,,,,,,,,,,,,,,,,,,,,,,,,,,,,,,,,,,,,,,,,,,0.000000,,,,,,,,
1692614331.096838,,,,,,,,,,,,,,,,,,,,,,,,,,,,,,,,,,,,,,,,,,0.000000,,,,,,,,
1692614331.205738,,,,,,,,,,,,,,,,,,,,,,,,,,,,,,,,,,,,,,,,,,0.000000,,,,,,,,
1692614331.311765,,,,,,,,,,,,,,,,,,,,,,,,,,,,,,,,,,,,,,,,,,0.000000,,,,,,,,
1692614331.420166,,,,,,,,,,,,,,,,,,,,,,,,,,,,,,,,,,,,,,,,,,0.000000,,,,,,,,
1692614331.526723,,,,,,,,,,,,,,,,,,,,,,,,,,,,,,,,,,,,,,,,,,0.000000,,,,,,,,
1692614331.634757,,,,,,,,,,,,,,,,,,,,,,,,,,,,,,,,,,,,,,,,,,0.000000,,,,,,,,
1692614331.749812,,,,,,,,,,,,,,,,,,,,,,,,,,,,,,,,,,,,,,,,,,0.000000,,,,,,,,
1692614331.852741,,,,,,,,,,,,,,,,,,,,,,,,,,,,,,,,,,,,,,,,,,0.000000,,,,,,,,
1692614331.963343,,,,,,,,,,,,,,,,,,,,,,,,,,,,,,,,,,,,,,,,,,0.000000,,,,,,,,
1692614332.075367,,,,,,,,,,,,,,,,,,,,,,,,,,,,,,,,,,,,,,,,,,0.000000,,,,,,,,
1692614332.179316,,,,,,,,,,,,,,,,,,,,,,,,,,,,,,,,,,,,,,,,,,0.000000,,,,,,,,
1692614332.290777,,,,,,,,,,,,,,,,,,,,,,,,,,,,,,,,,,,,,,,,,,0.000000,,,,,,,,
1692614332.395249,,,,,,,,,,,,,,,,,,,,,,,,,,,,,,,,,,,,,,,,,,0.000000,,,,,,,,
1692614332.505750,,,,,,,,,,,,,,,,,,,,,,,,,,,,,,,,,,,,,,,,,,0.000000,,,,,,,,
1692614332.625900,,,,,,,,,,,,,,,,,,,,,,,,,,,,,,,,,,,,,,,,,,0.000000,,,,,,,,
1692614332.727822,,,,,,,,,,,,,,,,,,,,,,,,,,,,,,,,,,,,,,,,,,0.000000,,,,,,,,
1692614332.831143,,,,,,,,,,,,,,,,,,,,,,,,,,,,,,,,,,,,,,,,,,0.000000,,,,,,,,
1692614332.939791,,,,,,,,,,,,,,,,,,,,,,,,,,,,,,,,,,,,,,,,,,0.000000,,,,,,,,
1692614333.054706,,,,,,,,,,,,,,,,,,,,,,,,,,,,,,,,,,,,,,,,,,0.000000,,,,,,,,
1692614333.167337,,,,,,,,,,,,,,,,,,,,,,,,,,,,,,,,,,,,,,,,,,0.000000,,,,,,,,
1692614333.270154,,,,,,,,,,,,,,,,,,,,,,,,,,,,,,,,,,,,,,,,,,0.000000,,,,,,,,
1692614333.373565,,,,,,,,,,,,,,,,,,,,,,,,,,,,,,,,,,,,,,,,,,0.000000,,,,,,,,
1692614333.481179,,,,,,,,,,,,,,,,,,,,,,,,,,,,,,,,,,,,,,,,,,0.000000,,,,,,,,
1692614333.589692,,,,,,,,,,,,,,,,,,,,,,,,,,,,,,,,,,,,,,,,,,0.000000,,,,,,,,
1692614333.696520,,,,,,,,,,,,,,,,,,,,,,,,,,,,,,,,,,,,,,,,,,0.000000,,,,,,,,
1692614333.806175,,,,,,,,,,,,,,,,,,,,,,,,,,,,,,,,,,,,,,,,,,0.000000,,,,,,,,
1692614333.915218,,,,,,,,,,,,,,,,,,,,,,,,,,,,,,,,,,,,,,,,,,0.000000,,,,,,,,
1692614334.023053,,,,,,,,,,,,,,,,,,,,,,,,,,,,,,,,,,,,,,,,,,0.000000,,,,,,,,
1692614334.133494,,,,,,,,,,,,,,,,,,,,,,,,,,,,,,,,,,,,,,,,,,0.000000,,,,,,,,
1692614334.241572,,,,,,,,,,,,,,,,,,,,,,,,,,,,,,,,,,,,,,,,,,0.000000,,,,,,,,
1692614334.346750,,,,,,,,,,,,,,,,,,,,,,,,,,,,,,,,,,,,,,,,,,0.000000,,,,,,,,
1692614334.459239,,,,,,,,,,,,,,,,,,,,,,,,,,,,,,,,,,,,,,,,,,0.000000,,,,,,,,
1692614334.566468,,,,,,,,,,,,,,,,,,,,,,,,,,,,,,,,,,,,,,,,,,0.000000,,,,,,,,
1692614334.675475,,,,,,,,,,,,,,,,,,,,,,,,,,,,,,,,,,,,,,,,,,0.000000,,,,,,,,
1692614334.787631,,,,,,,,,,,,,,,,,,,,,,,,,,,,,,,,,,,,,,,,,,0.000000,,,,,,,,
1692614334.891295,,,,,,,,,,,,,,,,,,,,,,,,,,,,,,,,,,,,,,,,,,0.000000,,,,,,,,
1692614335.000811,,,,,,,,,,,,,,,,,,,,,,,,,,,,,,,,,,,,,,,,,,0.000000,,,,,,,,
1692614337.048763,1.747138,-1.107107,-0.000034,65.486499,0.349224,-0.000454,0.049680,-0.074710,0.000046,0.000000,-0.802420,-0.000752,0.002697,2.067687,-0.000653,-0.132480,-0.193029,0.000094,-1.875000,-0.048228,-0.037000,0.030707,1.233227,0.000000,-1.639000,0.000772,0.008999,0.053360,-0.000015,-0.000138,-1.281429,-0.000003,-0.000038,5741.000000,1692614337.031123,0.983086,-0.464883,-0.000048,-0.310171,0.067265,-0.000048,,,,,,,,,
1692614337.081450,1.277999,-1.107107,-0.000018,64.613346,0.349225,0.000008,-0.011040,-0.074710,0.000046,-0.008091,-0.802420,-0.000653,-0.008091,2.067687,-0.000653,-0.066240,-0.193029,0.000094,-1.871000,-0.044637,-0.014999,0.031527,1.232636,0.000000,-1.631000,0.004363,0.013000,0.077280,-0.000015,-0.000138,-1.110571,-0.000003,-0.000038,5742.000000,1692614337.061124,0.951543,-0.464883,-0.000048,-0.252343,0.067265,-0.000048,,,,,,,,,
1692614337.090774,1.585366,-1.107107,-0.000020,64.322294,0.349224,-0.000238,-0.082800,-0.074710,0.000046,-0.008091,-0.802420,-0.000653,0.005394,2.067687,-0.000653,-0.099360,-0.193029,0.000094,-1.868000,-0.042636,-0.009999,0.031527,1.232636,-0.002363,-1.631000,0.004363,0.021999,0.060720,-0.000015,-0.000138,-1.294571,-0.000003,-0.000038,5743.000000,1692614337.071133,0.930514,-0.464883,-0.000048,-0.299657,0.067265,-0.000048,,,,,,,,,
1692614337.115509,3.235441,-1.107491,0.000028,64.031243,0.349225,0.000008,0.088320,-0.074710,0.000046,0.000000,-0.802420,-0.001009,0.000000,2.067687,-0.000653,-0.132480,-0.193029,0.000094,-1.858000,-0.036818,0.023000,0.030299,1.233818,0.006499,-1.631000,0.003181,0.014000,0.075440,-0.000015,-0.000138,-1.222286,-0.000003,-0.000038,5744.000000,1692614337.101112,1.040914,-0.464883,-0.000048,-0.315429,0.067265,-0.000048,,,,,,,,,
1692614337.138745,2.491289,-1.107107,-0.000181,63.449141,0.349225,0.000008,0.005520,-0.074710,0.000046,-0.021576,-0.802400,0.002909,-0.010788,2.067687,-0.000653,-0.077280,-0.193029,0.000094,-1.856000,-0.036818,0.029999,0.029070,1.233818,0.003545,-1.633000,0.002181,0.013000,0.090160,-0.000015,-0.000138,-1.274857,-0.000003,-0.000038,5745.000000,1692614337.121112,0.935771,-0.464878,0.001095,-0.257600,0.067265,-0.000048,,,,,,,,,
1692614337.155197,2.960428,-1.107107,-0.000018,63.158090,0.349225,0.000008,-0.171120,-0.074710,0.000046,-0.016182,-0.802420,-0.000653,-0.005394,2.067687,-0.000653,-0.077280,-0.193029,0.000094,-1.855000,-0.036410,0.017999,0.029887,1.234409,0.003545,-1.636000,-0.000410,0.008000,0.053360,-0.000015,-0.000138,-1.301143,-0.000003,-0.000038,5746.000000,1692614337.141114,1.035657,-0.464878,0.000048,-0.693943,0.067265,-0.000048,,,,,,,,,
1692614337.169627,,,,,,,,,,,,,,,,,,,,,,,,,,,,,,,,,,,,,,,,,,0.000000,,,,,,,,
1692614337.178316,2.539821,-1.107107,-0.001143,63.449141,0.349225,0.000009,-0.099360,-0.074710,0.000046,-0.040455,-0.802420,-0.001979,-0.002697,2.067687,-0.000653,-0.077280,-0.193029,0.000094,-1.861000,-0.041590,0.030999,0.029070,1.235590,0.017136,-1.636000,-0.001591,0.003000,0.104880,-0.000015,-0.000138,-1.373429,-0.000003,-0.000038,5747.000000,1692614337.161117,1.035657,-0.464878,0.000048,-0.283886,0.067265,-0.000048,,,,,,,,,
1692614337.188639,1.876556,-1.107107,-0.000018,63.740192,0.349225,0.000008,0.016560,-0.074710,0.000046,-0.016182,-0.802420,-0.000653,-0.013485,2.067687,-0.000653,-0.132480,-0.193040,-0.001036,-1.863000,-0.041590,0.009999,0.027841,1.235590,0.010636,-1.646000,-0.007590,0.003000,0.141680,-0.000015,-0.000138,-1.347143,-0.000003,-0.000038,5748.000000,1692614337.171120,0.993600,-0.464878,0.000048,-0.404800,0.067265,-0.000048,,,,,,,,,
1692614337.217196,2.944251,-1.107491,0.000799,63.449141,0.349224,-0.000008,-0.038640,-0.074710,0.000046,-0.018879,-0.802400,0.003364,-0.010788,2.067687,-0.000653,-0.077280,-0.193029,0.000094,-1.863000,-0.042000,0.009999,0.029070,1.234999,0.007681,-1.646000,-0.006999,-0.025000,0.073600,-0.000015,-0.000138,-1.268286,-0.000003,-0.000038,5749.000000,1692614337.201119,1.035657,-0.464878,0.000048,-0.289143,0.067265,-0.000048,,,,,,,,,
1692614337.237514,2.814833,-1.107107,-0.000078,63.740192,0.349225,0.000470,0.027600,-0.074710,0.000046,0.000000,-0.802420,-0.000890,-0.005394,2.067687,-0.000653,-0.088320,-0.193029,0.000094,-1.863000,-0.042000,0.004999,0.030707,1.234999,0.007681,-1.648000,-0.006000,-0.023000,0.040480,-0.000015,-0.000138,-1.320857,-0.000003,-0.000038,5750.000000,1692614337.221115,1.019886,-0.464878,0.000048,-0.268114,0.066884,-0.000048,,,,,,,,,
1692614337.256771,3.186909,-1.107107,-0.000018,64.031243,0.349224,-0.000216,-0.044160,-0.074710,0.000046,-0.002697,-0.802420,-0.001148,0.002697,2.067687,-0.000653,-0.099360,-0.193029,0.000094,-1.868000,-0.045409,-0.014999,0.030299,1.234409,0.007681,-1.648000,-0.004409,-0.026000,0.053360,-0.000015,-0.000138,-1.281429,-0.000003,-0.000038,5751.000000,1692614337.241117,0.935771,-0.464878,0.000048,-0.310171,0.067265,-0.000091,,,,,,,,,
1692614337.274594,,,,,,,,,,,,,,,,,,,,,,,,,,,,,,,,,,,,,,,,,,,10769.000000,1692614337.264302,-0.084416,0.267395,0.201035,0.000063,0.002790,0.006924
1692614337.280163,3.348681,-1.107107,-0.000030,64.322294,0.349224,-0.000039,-0.066240,-0.074710,0.000046,-0.010788,-0.802420,-0.000653,0.000000,2.067687,-0.000653,-0.143520,-0.193029,0.000188,-1.870000,-0.045999,-0.014999,0.031115,1.234999,0.007090,-1.648000,-0.004999,-0.009999,0.036800,-0.000015,-0.000138,-1.340571,-0.000003,-0.000038,5752.000000,1692614337.261117,0.972571,-0.464878,0.000048,-0.215543,0.066884,-0.000048,,,,,,,,,
1692614337.286037,,,,,,,,,,,,,,,,,,,,,,,,,,,,,,,,,,,,,,,,,,0.000000,,,,,,,,
1692614337.286053,,,,,,,,,,,,,,,,,,,,,,,,,,,,,,,,,,,,,,,,,,,10770.000000,1692614337.272198,-0.085874,0.271664,0.204286,0.000056,0.002846,0.006996
1692614337.293809,,,,,,,,,,,,,,,,,,,,,,,,,,,,,,,,,,,,,,,,,,,10771.000000,1692614337.284612,-0.088111,0.277810,0.208174,0.000046,0.002909,0.007099
1692614337.296532,3.672225,-1.107491,-0.000181,64.031243,0.349224,-0.000008,-0.022080,-0.074710,0.000046,-0.008091,-0.802420,-0.000831,-0.005394,2.067687,-0.000653,-0.088320,-0.193029,0.000094,-1.875000,-0.047999,-0.024000,0.030707,1.234999,0.007090,-1.646000,-0.003000,-0.014000,0.018400,-0.000015,-0.000138,-1.268286,-0.000003,-0.000038,5753.000000,1692614337.281119,1.046171,-0.464878,0.000048,-0.215543,0.067265,-0.000048,,,,,,,,,
1692614337.308368,,,,,,,,,,,,,,,,,,,,,,,,,,,,,,,,,,,,,,,,,,,10772.000000,1692614337.295039,-0.091477,0.285949,0.212485,0.000031,0.002976,0.007231
1692614337.314450,3.542807,-1.107107,0.000066,64.031243,0.349224,-0.000008,-0.088320,-0.074710,0.000046,-0.008091,-0.802400,0.003978,-0.002697,2.067687,-0.000653,-0.077280,-0.193029,0.000094,-1.875000,-0.046410,-0.017000,0.029478,1.234409,0.007090,-1.649000,-0.005410,-0.014000,0.044160,-0.000015,-0.000138,-1.242000,-0.000003,-0.000038,5754.000000,1692614337.301116,1.035657,-0.464878,0.000048,-0.362743,0.067265,-0.000048,,,,,,,,,
1692614337.321767,,,,,,,,,,,,,,,,,,,,,,,,,,,,,,,,,,,,,,,,,,,10773.000000,1692614337.307299,-0.095697,0.295256,0.216814,0.000012,0.003043,0.007376
1692614337.326370,,,,,,,,,,,,,,,,,,,,,,,,,,,,,,,,,,,,,,,,,,,10774.000000,1692614337.312952,-0.099800,0.304456,0.220382,-0.000006,0.003106,0.007509
1692614337.345400,3.866351,-1.107491,0.001090,65.195448,0.349224,-0.000008,0.005520,-0.074710,0.000046,-0.029667,-0.802420,-0.001662,-0.002697,2.067687,-0.000653,-0.187680,-0.193029,0.004680,-1.871000,-0.043636,-0.012000,0.032344,1.232636,0.004136,-1.648000,-0.003637,-0.014000,0.095680,-0.000015,-0.000138,-1.294571,-0.000003,-0.000038,5755.000000,1692614337.321120,0.993600,-0.464878,0.000048,-0.467886,0.067265,-0.000048,,,,,,,,,
1692614337.351748,,,,,,,,,,,,,,,,,,,,,,,,,,,,,,,,,,,,,,,,,,,10775.000000,1692614337.325216,-0.103345,0.313433,0.222737,-0.000021,0.003161,0.007624
1692614337.356414,4.076655,-1.107491,0.000018,65.486499,0.349224,-0.000008,-0.160080,-0.074710,0.000046,-0.005394,-0.802420,-0.000653,-0.013485,2.067687,-0.000653,-0.121440,-0.193029,0.000094,-1.868000,-0.041637,-0.012000,0.031527,1.232636,-0.004727,-1.648000,-0.003637,-0.014000,0.077280,-0.000015,-0.000138,-1.320857,-0.000003,-0.000038,5756.000000,1692614337.331126,1.009371,-0.464878,0.000048,-0.294400,0.067265,-0.000048,,,,,,,,,
1692614337.358119,,,,,,,,,,,,,,,,,,,,,,,,,,,,,,,,,,,,,,,,,,,10776.000000,1692614337.336245,-0.106471,0.322332,0.223832,-0.000033,0.003209,0.007721
1692614337.360606,,,,,,,,,,,,,,,,,,,,,,,,,,,,,,,,,,,,,,,,,,,10777.000000,1692614337.342192,-0.109530,0.330604,0.223934,-0.000041,0.003251,0.007802
1692614337.369039,,,,,,,,,,,,,,,,,,,,,,,,,,,,,,,,,,,,,,,,,,,10778.000000,1692614337.352200,-0.112790,0.337772,0.223353,-0.000042,0.003285,0.007868
1692614337.379849,,,,,,,,,,,,,,,,,,,,,,,,,,,,,,,,,,,,,,,,,,,10779.000000,1692614337.362612,-0.116223,0.343877,0.222157,-0.000038,0.003306,0.007919
1692614337.380039,4.092832,-1.107491,0.000040,64.322294,0.349224,-0.000008,-0.138000,-0.074710,0.000046,-0.008091,-0.802420,-0.000672,-0.005394,2.067687,-0.000653,-0.099360,-0.193029,0.000094,-1.868000,-0.041227,-0.002000,0.031527,1.233227,-0.001772,-1.646000,-0.001228,0.001000,0.071760,-0.000015,-0.000138,-1.366857,-0.000003,-0.000038,5757.000000,1692614337.361121,0.877943,-0.464878,0.000048,-0.289143,0.067265,-0.000048,,,,,,,,,
1692614337.385665,,,,,,,,,,,,,,,,,,,,,,,,,,,,,,,,,,,,,,,,,,0.000000,,,,,,,,
1692614337.388331,,,,,,,,,,,,,,,,,,,,,,,,,,,,,,,,,,,,,,,,,,,10780.000000,1692614337.374106,-0.119236,0.347756,0.219443,-0.000033,0.003304,0.007926
1692614337.396587,,,,,,,,,,,,,,,,,,,,,,,,,,,,,,,,,,,,,,,,,,,10781.000000,1692614337.382213,-0.121141,0.348315,0.214267,-0.000028,0.003273,0.007864
1692614337.397437,4.400199,-1.107491,-0.000139,64.031243,0.349225,0.000008,0.033120,-0.074710,0.000046,-0.008091,-0.802420,-0.001068,0.000000,2.067687,-0.000653,-0.110400,-0.193029,0.000094,-1.855000,-0.033227,0.046999,0.031527,1.233227,-0.001772,-1.643000,-0.000227,0.014999,0.022080,-0.000015,-0.000138,-1.274857,-0.000003,-0.000038,5758.000000,1692614337.381113,0.904229,-0.464878,0.000048,-0.378514,0.067265,-0.000048,,,,,,,,,
1692614337.406629,,,,,,,,,,,,,,,,,,,,,,,,,,,,,,,,,,,,,,,,,,,10782.000000,1692614337.392980,-0.122204,0.346607,0.207105,-0.000026,0.003217,0.007756
1692614337.415702,,,,,,,,,,,,,,,,,,,,,,,,,,,,,,,,,,,,,,,,,,,10783.000000,1692614337.402218,-0.123058,0.344366,0.199699,-0.000025,0.003154,0.007645
1692614337.417091,4.772275,-1.107491,0.001044,63.449141,0.349225,0.000008,-0.005520,-0.074710,0.000046,0.002697,-0.802420,-0.001227,-0.005394,2.067687,-0.000653,-0.088320,-0.193029,0.000094,-1.863000,-0.040819,0.032999,0.029887,1.233818,-0.001772,-1.644000,-0.000818,-0.004999,0.062560,-0.000015,-0.000138,-1.327429,-0.000003,-0.000038,5759.000000,1692614337.401124,0.883200,-0.464878,0.000048,-0.346971,0.067265,-0.003656,,,,,,,,,
1692614337.427766,,,,,,,,,,,,,,,,,,,,,,,,,,,,,,,,,,,,,,,,,,,10784.000000,1692614337.412196,-0.123625,0.342589,0.193653,-0.000024,0.003102,0.007556
1692614337.437345,,,,,,,,,,,,,,,,,,,,,,,,,,,,,,,,,,,,,,,,,,,10785.000000,1692614337.422703,-0.123470,0.340883,0.188821,-0.000021,0.003064,0.007484
1692614337.437884,2.167745,-1.107107,0.000787,63.449141,0.349225,0.000008,-0.121440,-0.074715,-0.000046,-0.010788,-0.802420,-0.000653,-0.008091,2.067687,-0.000653,-0.132480,-0.193029,0.000094,-1.865000,-0.042228,0.002000,0.029478,1.233227,0.001181,-1.641000,0.000772,0.014000,0.110400,-0.000015,-0.000138,-1.281429,-0.000003,-0.000038,5760.000000,1692614337.421113,0.972571,-0.464878,0.000048,-0.341714,0.067265,-0.000048,,,,,,,,,
1692614337.447062,,,,,,,,,,,,,,,,,,,,,,,,,,,,,,,,,,,,,,,,,,,10786.000000,1692614337.432336,-0.122458,0.337231,0.184091,-0.000015,0.003021,0.007395
1692614337.457818,,,,,,,,,,,,,,,,,,,,,,,,,,,,,,,,,,,,,,,,,,,10787.000000,1692614337.442091,-0.120577,0.329440,0.178433,-0.000002,0.002952,0.007253
1692614337.458115,3.817820,-1.107107,0.000028,63.740192,0.349224,-0.000008,-0.022080,-0.074715,-0.000046,-0.008091,-0.802420,-0.000653,-0.008091,2.067687,-0.000653,-0.165600,-0.193029,0.004754,-1.868000,-0.043818,-0.003000,0.029887,1.233818,0.001181,-1.643000,-0.000818,0.004000,0.095680,-0.000015,-0.000138,-1.268286,-0.000003,-0.000038,5761.000000,1692614337.441118,0.993600,-0.464878,0.000048,-0.205029,0.066884,-0.000048,,,,,,,,,
1692614337.465740,,,,,,,,,,,,,,,,,,,,,,,,,,,,,,,,,,,,,,,,,,,10788.000000,1692614337.452209,-0.118263,0.318827,0.172096,0.000012,0.002862,0.007075
1692614337.475873,,,,,,,,,,,,,,,,,,,,,,,,,,,,,,,,,,,,,,,,,,,10789.000000,1692614337.462221,-0.116121,0.307656,0.165949,0.000031,0.002770,0.006894
1692614337.476809,3.914883,-1.107107,0.000274,63.158090,0.349224,-0.000008,-0.060720,-0.074715,-0.000046,-0.051243,-0.802420,-0.001484,-0.002697,2.067687,-0.000653,-0.143520,-0.193029,0.000094,-1.863000,-0.041227,0.003000,0.030707,1.233227,-0.004727,-1.639000,-0.000227,0.008000,0.077280,-0.000015,-0.000138,-1.202571,-0.000003,-0.000038,5762.000000,1692614337.461115,0.946286,-0.464878,0.000048,-0.205029,0.066884,-0.000048,,,,,,,,,
1692614337.487065,,,,,,,,,,,,,,,,,,,,,,,,,,,,,,,,,,,,,,,,,,,10790.000000,1692614337.472224,-0.113922,0.295486,0.159542,0.000052,0.002665,0.006698
1692614337.495293,,,,,,,,,,,,,,,,,,,,,,,,,,,,,,,,,,,,,,,,,,0.000000,,,,,,,,
1692614337.496032,,,,,,,,,,,,,,,,,,,,,,,,,,,,,,,,,,,,,,,,,,,10791.000000,1692614337.484049,-0.111359,0.282611,0.152937,0.000069,0.002548,0.006487
1692614337.499755,3.931060,-1.107107,-0.000018,63.449141,0.349224,-0.000008,0.077280,-0.074715,-0.000046,-0.002697,-0.802420,-0.001167,0.002697,2.067687,-0.000653,-0.099360,-0.193029,0.000094,-1.863000,-0.041818,-0.006000,0.031936,1.233818,0.001181,-1.639000,-0.000818,0.003000,0.069920,-0.000015,-0.000138,-1.347143,-0.000003,-0.000038,5763.000000,1692614337.481118,1.014629,-0.464878,0.000048,-0.226057,0.066884,-0.000048,,,,,,,,,
1692614337.503428,,,,,,,,,,,,,,,,,,,,,,,,,,,,,,,,,,,,,,,,,,,10792.000000,1692614337.492335,-0.108639,0.270245,0.147217,0.000084,0.002436,0.006291
1692614337.511034,,,,,,,,,,,,,,,,,,,,,,,,,,,,,,,,,,,,,,,,,,,10793.000000,1692614337.502508,-0.106326,0.259196,0.142976,0.000102,0.002341,0.006125
1692614337.520911,4.028123,-1.107491,0.000767,63.740192,0.349224,-0.000008,-0.038640,-0.074715,-0.000046,-0.026970,-0.802400,0.003562,-0.008091,2.067687,-0.000653,-0.099360,-0.193029,0.000094,-1.863000,-0.041818,-0.001000,0.030299,1.233818,-0.001772,-1.639000,-0.001819,0.003000,0.189520,-0.000015,-0.000138,-1.176286,-0.000003,-0.000038,5764.000000,1692614337.501116,0.951543,-0.464878,0.000048,-0.231314,0.066884,-0.000048,,,,,,,,,
1692614337.522829,,,,,,,,,,,,,,,,,,,,,,,,,,,,,,,,,,,,,,,,,,,10794.000000,1692614337.512066,-0.104692,0.250211,0.140018,0.000123,0.002268,0.005999
1692614337.529225,4.286959,-1.107491,0.000884,64.031243,0.349224,-0.000008,-0.044160,-0.074715,-0.000046,-0.016182,-0.802420,-0.000653,-0.008091,2.067687,-0.000653,-0.088320,-0.193029,0.000094,-1.863000,-0.041227,-0.001000,0.029887,1.233227,0.001181,-1.639000,-0.001228,-0.002000,0.053360,-0.000015,-0.000138,-1.327429,-0.000003,-0.000038,5765.000000,1692614337.511125,0.946286,-0.464878,0.000048,-0.205029,0.066884,-0.000048,,,,,,,,,
1692614337.532246,,,,,,,,,,,,,,,,,,,,,,,,,,,,,,,,,,,,,,,,,,,10795.000000,1692614337.522171,-0.103234,0.242529,0.137054,0.000140,0.002203,0.005886
1692614337.548989,,,,,,,,,,,,,,,,,,,,,,,,,,,,,,,,,,,,,,,,,,,10796.000000,1692614337.532302,-0.101755,0.235321,0.133331,0.000151,0.002137,0.005764
1692614337.555669,,,,,,,,,,,,,,,,,,,,,,,,,,,,,,,,,,,,,,,,,,,10797.000000,1692614337.542207,-0.099777,0.227502,0.128573,0.000155,0.002063,0.005615
1692614337.555696,3.688402,-1.107107,-0.000018,64.031243,0.349224,-0.000008,0.011040,-0.074715,-0.000046,-0.008091,-0.802420,-0.000653,-0.008091,2.067687,-0.000653,-0.099360,-0.193029,0.000094,-1.860000,-0.040819,-0.001000,0.029478,1.233818,0.001181,-1.644000,-0.004819,-0.006000,0.139840,-0.000015,-0.000138,-1.301143,-0.000003,-0.000038,5766.000000,1692614337.541114,0.930514,-0.464878,0.000048,-0.257600,0.067265,-0.004891,,,,,,,,,
1692614337.562726,,,,,,,,,,,,,,,,,,,,,,,,,,,,,,,,,,,,,,,,,,,10798.000000,1692614337.553105,-0.096420,0.217031,0.122047,0.000155,0.001970,0.005400
1692614337.571019,3.526630,-1.107107,-0.000018,64.031243,0.349224,-0.000008,-0.121440,-0.074715,-0.000046,-0.005394,-0.802420,-0.000672,-0.008091,2.067687,-0.000653,-0.077280,-0.193029,0.000094,-1.860000,-0.040819,0.004000,0.029887,1.233818,0.001181,-1.641000,-0.002819,-0.014999,0.117760,-0.000015,-0.000138,-1.248571,-0.000003,-0.000038,5767.000000,1692614337.551120,0.983086,-0.464878,0.000048,-0.168229,0.066503,-0.000048,,,,,,,,,
1692614337.577838,,,,,,,,,,,,,,,,,,,,,,,,,,,,,,,,,,,,,,,,,,,10799.000000,1692614337.562390,-0.092582,0.205841,0.114980,0.000153,0.001872,0.005163
1692614337.583274,,,,,,,,,,,,,,,,,,,,,,,,,,,,,,,,,,,,,,,,,,,10800.000000,1692614337.572327,-0.089572,0.197020,0.108842,0.000149,0.001791,0.004966
1692614337.593943,,,,,,,,,,,,,,,,,,,,,,,,,,,,,,,,,,,,,,,,,,,10801.000000,1692614337.582081,-0.087026,0.189760,0.103198,0.000141,0.001721,0.004794
1692614337.600889,3.397213,-1.106723,-0.002694,64.322294,0.349224,-0.000008,-0.088320,-0.074715,-0.000046,-0.026970,-0.802420,-0.001524,-0.005394,2.067687,-0.000653,-0.077280,-0.193029,0.000094,-1.866000,-0.046227,-0.016000,0.031527,1.233227,0.000590,-1.636000,0.002772,0.009999,0.082800,-0.000015,-0.000138,-1.169714,-0.000003,-0.000038,5768.000000,1692614337.581115,0.841143,-0.464878,0.000048,-0.236571,0.066884,-0.000048,,,,,,,,,
1692614337.602005,,,,,,,,,,,,,,,,,,,,,,,,,,,,,,,,,,,,,,,,,,0.000000,,,,,,,,
1692614337.604163,,,,,,,,,,,,,,,,,,,,,,,,,,,,,,,,,,,,,,,,,,,10802.000000,1692614337.592627,-0.084124,0.182658,0.097683,0.000131,0.001656,0.004620
1692614337.615549,,,,,,,,,,,,,,,,,,,,,,,,,,,,,,,,,,,,,,,,,,,10803.000000,1692614337.602243,-0.081267,0.176819,0.093094,0.000123,0.001607,0.004472
1692614337.617651,2.750124,-1.107107,0.000018,65.195448,0.349224,-0.000008,0.099360,-0.074715,-0.000046,-0.010788,-0.802420,-0.001088,-0.005394,2.067687,-0.000653,-0.077280,-0.193029,0.000094,-1.871000,-0.047819,-0.008999,0.031115,1.233818,0.000590,-1.638000,0.001182,0.008999,0.029440,-0.000015,-0.000138,-1.228857,-0.000003,-0.000038,5769.000000,1692614337.601122,0.967314,-0.464878,0.000048,-0.162971,0.066884,-0.000048,,,,,,,,,
1692614337.624409,,,,,,,,,,,,,,,,,,,,,,,,,,,,,,,,,,,,,,,,,,,10804.000000,1692614337.614249,-0.078849,0.173185,0.089699,0.000114,0.001575,0.004369
1692614337.631682,3.300149,-1.107107,0.000359,64.322294,0.349224,-0.000008,-0.016560,-0.074715,-0.000046,0.002697,-0.802400,0.004097,-0.008091,2.067687,-0.000653,-0.066240,-0.193029,0.000094,-1.870000,-0.045819,-0.028000,0.027432,1.233818,0.000590,-1.639000,0.001182,0.013000,0.101200,-0.000015,-0.000138,-1.235429,-0.000003,-0.000038,5770.000000,1692614337.611120,1.004114,-0.464878,0.000048,-0.126171,0.066884,-0.000048,,,,,,,,,
1692614337.636269,,,,,,,,,,,,,,,,,,,,,,,,,,,,,,,,,,,,,,,,,,,10805.000000,1692614337.623378,-0.076548,0.171318,0.086980,0.000103,0.001552,0.004299
1692614337.650765,,,,,,,,,,,,,,,,,,,,,,,,,,,,,,,,,,,,,,,,,,,10806.000000,1692614337.638554,-0.074624,0.171438,0.085064,0.000091,0.001542,0.004271
1692614337.655549,2.313340,-1.107107,0.000490,64.904397,0.349224,-0.000008,0.082800,-0.074715,-0.000046,0.005394,-0.802420,-0.001801,-0.005394,2.067687,-0.000653,-0.066240,-0.193029,0.000094,-1.868000,-0.043455,-0.017000,0.035210,1.231454,-0.011227,-1.638000,0.001546,0.008000,0.158240,-0.000015,-0.000138,-1.327429,-0.000003,-0.000038,5771.000000,1692614337.641119,0.920000,-0.464878,0.000048,-0.247086,0.066884,-0.000048,,,,,,,,,
1692614337.661828,,,,,,,,,,,,,,,,,,,,,,,,,,,,,,,,,,,,,,,,,,,10807.000000,1692614337.642450,-0.072783,0.172335,0.083355,0.000079,0.001536,0.004258
1692614337.664694,,,,,,,,,,,,,,,,,,,,,,,,,,,,,,,,,,,,,,,,,,,10808.000000,1692614337.652304,-0.070362,0.172309,0.080843,0.000066,0.001525,0.004221
1692614337.673209,,,,,,,,,,,,,,,,,,,,,,,,,,,,,,,,,,,,,,,,,,,10809.000000,1692614337.662989,-0.068184,0.173138,0.078347,0.000051,0.001521,0.004198
1692614337.678329,3.186909,-1.107107,-0.000949,64.322294,0.349224,-0.000152,0.033120,-0.074715,-0.000046,-0.002697,-0.802420,-0.000811,-0.010788,2.067687,-0.000653,-0.066240,-0.193029,0.000094,-1.873000,-0.047046,-0.030999,0.029070,1.232045,-0.011227,-1.638000,0.000955,0.003000,0.034960,-0.000015,-0.000138,-1.288000,0.000002,0.000876,5772.000000,1692614337.661112,0.956800,-0.464878,0.000048,-0.189257,0.066884,-0.000048,,,,,,,,,
1692614337.681498,,,,,,,,,,,,,,,,,,,,,,,,,,,,,,,,,,,,,,,,,,,10810.000000,1692614337.672299,-0.067283,0.177144,0.077092,0.000035,0.001539,0.004241
1692614337.690958,,,,,,,,,,,,,,,,,,,,,,,,,,,,,,,,,,,,,,,,,,,10811.000000,1692614337.682297,-0.067546,0.183829,0.076819,0.000017,0.001575,0.004344
1692614337.698567,3.267795,-1.107107,-0.000018,64.031243,0.349224,-0.000008,0.038640,-0.074715,-0.000046,-0.018879,-0.802420,-0.001801,-0.002697,2.067687,-0.000653,-0.242880,-0.193040,-0.000104,-1.863000,-0.038227,-0.028999,0.030707,1.233227,-0.005318,-1.641000,-0.001228,0.003000,0.171120,-0.000015,-0.000138,-1.320857,0.000002,0.000038,5773.000000,1692614337.681115,0.935771,-0.464878,0.000048,-0.141943,0.066884,-0.000048,,,,,,,,,
1692614337.704304,,,,,,,,,,,,,,,,,,,,,,,,,,,,,,,,,,,,,,,,,,,10812.000000,1692614337.692295,-0.068149,0.191451,0.076921,0.000000,0.001620,0.004470
1692614337.711616,,,,,,,,,,,,,,,,,,,,,,,,,,,,,,,,,,,,,,,,,,0.000000,,,,,,,,
1692614337.715658,,,,,,,,,,,,,,,,,,,,,,,,,,,,,,,,,,,,,,,,,,,10813.000000,1692614337.702749,-0.068002,0.198169,0.076888,-0.000017,0.001666,0.004580
1692614337.722785,2.976605,-1.107107,-0.000018,64.322294,0.349224,-0.000119,0.093840,-0.074715,-0.000046,-0.008091,-0.802420,-0.000653,-0.002697,2.067687,-0.000653,-0.121440,-0.193029,0.000094,-1.860000,-0.037636,0.020999,0.030299,1.232636,-0.004727,-1.641000,-0.000637,-0.002000,0.110400,-0.000015,-0.000138,-1.294571,0.000002,0.000038,5774.000000,1692614337.701115,0.977829,-0.464878,0.000048,-0.226057,0.066503,-0.000048,,,,,,,,,
1692614337.725447,,,,,,,,,,,,,,,,,,,,,,,,,,,,,,,,,,,,,,,,,,,10814.000000,1692614337.712336,-0.067031,0.203870,0.076520,-0.000035,0.001711,0.004668
1692614337.733703,,,,,,,,,,,,,,,,,,,,,,,,,,,,,,,,,,,,,,,,,,,10815.000000,1692614337.722177,-0.066063,0.209510,0.076206,-0.000052,0.001757,0.004758
1692614337.734550,3.833997,-1.107491,0.001131,63.740192,0.349224,-0.000008,0.022080,-0.074715,-0.000046,-0.010788,-0.802420,-0.000653,0.002697,2.067687,-0.000653,-0.055200,-0.193029,0.000094,-1.866000,-0.043227,-0.004999,0.032344,1.233227,-0.001772,-1.638000,0.000772,0.008000,0.092000,-0.000015,-0.000138,-1.340571,0.000002,0.000038,5775.000000,1692614337.721112,0.930514,-0.464878,0.000048,-0.241829,0.066503,-0.000048,,,,,,,,,
1692614337.743480,,,,,,,,,,,,,,,,,,,,,,,,,,,,,,,,,,,,,,,,,,,10816.000000,1692614337.732185,-0.065442,0.214581,0.075849,-0.000064,0.001802,0.004843
1692614337.755909,,,,,,,,,,,,,,,,,,,,,,,,,,,,,,,,,,,,,,,,,,,10817.000000,1692614337.742430,-0.065583,0.219678,0.075320,-0.000073,0.001845,0.004930
1692614337.758547,3.461921,-1.107107,-0.000779,63.449141,0.349224,-0.000008,0.060720,-0.074715,-0.000046,-0.005394,-0.802420,-0.000653,-0.002697,2.067687,-0.000653,-0.077280,-0.193029,0.000094,-1.861000,-0.039818,0.004999,0.029070,1.233818,0.001181,-1.631000,0.004182,0.017000,0.036800,-0.000015,-0.000138,-1.314286,0.000002,0.000038,5776.000000,1692614337.741113,0.962057,-0.464878,0.000048,-0.273371,0.066503,-0.000048,,,,,,,,,
1692614337.766760,,,,,,,,,,,,,,,,,,,,,,,,,,,,,,,,,,,,,,,,,,,10818.000000,1692614337.752588,-0.066840,0.226337,0.075020,-0.000081,0.001895,0.005046
1692614337.773196,,,,,,,,,,,,,,,,,,,,,,,,,,,,,,,,,,,,,,,,,,,10819.000000,1692614337.762185,-0.068573,0.233511,0.074782,-0.000088,0.001946,0.005173
1692614337.774507,3.008960,-1.107107,-0.000018,64.613346,0.349224,-0.000008,0.093840,-0.074715,-0.000046,-0.008091,-0.802420,-0.000752,-0.005394,2.067687,-0.000653,-0.088320,-0.193029,0.000094,-1.860000,-0.038818,0.014000,0.029478,1.233818,0.001181,-1.629000,0.004182,0.019999,0.044160,-0.000015,-0.000138,-1.353714,0.000002,0.000038,5777.000000,1692614337.761111,0.977829,-0.464878,0.000048,-0.247086,0.066503,-0.000048,,,,,,,,,
1692614337.781700,,,,,,,,,,,,,,,,,,,,,,,,,,,,,,,,,,,,,,,,,,,10820.000000,1692614337.772543,-0.069863,0.238812,0.074161,-0.000090,0.001982,0.005267
1692614337.787860,2.280986,-1.107107,-0.000018,64.904397,0.349224,-0.000008,0.077280,-0.074715,-0.000046,-0.010788,-0.802420,-0.001326,-0.008091,2.067687,-0.000653,-0.209760,-0.193029,0.004712,-1.860000,-0.039818,0.017999,0.029887,1.233818,0.001181,-1.631000,0.002181,0.024000,0.134320,-0.000015,-0.000138,-1.380000,0.000002,0.000038,5778.000000,1692614337.771119,1.019886,-0.464878,0.000048,-0.115657,0.066884,-0.000048,,,,,,,,,
1692614337.791872,,,,,,,,,,,,,,,,,,,,,,,,,,,,,,,,,,,,,,,,,,,10821.000000,1692614337.782315,-0.070486,0.241918,0.073468,-0.000086,0.002004,0.005323
1692614337.802613,,,,,,,,,,,,,,,,,,,,,,,,,,,,,,,,,,,,,,,,,,,10822.000000,1692614337.792324,-0.070989,0.244308,0.072959,-0.000076,0.002021,0.005370
1692614337.811643,,,,,,,,,,,,,,,,,,,,,,,,,,,,,,,,,,,,,,,,,,,10823.000000,1692614337.802197,-0.071518,0.245726,0.072551,-0.000062,0.002031,0.005408
1692614337.818326,2.960428,-1.107107,-0.000290,64.613346,0.349224,-0.000008,0.027600,-0.074715,-0.000046,0.002697,-0.802420,-0.001246,-0.002697,2.067687,-0.000653,-0.110400,-0.193029,0.000094,-1.863000,-0.041818,0.008000,0.031936,1.233818,0.000590,-1.636000,-0.000818,0.003000,0.027600,-0.000015,-0.000138,-1.314286,0.000002,0.000038,5779.000000,1692614337.801119,1.009371,-0.464878,0.000048,-0.173486,0.066884,-0.000048,,,,,,,,,
1692614337.821506,,,,,,,,,,,,,,,,,,,,,,,,,,,,,,,,,,,,,,,,,,0.000000,,,,,,,,
1692614337.825739,,,,,,,,,,,,,,,,,,,,,,,,,,,,,,,,,,,,,,,,,,,10824.000000,1692614337.812427,-0.071496,0.245087,0.072628,-0.000043,0.002033,0.005418
1692614337.833719,,,,,,,,,,,,,,,,,,,,,,,,,,,,,,,,,,,,,,,,,,,10825.000000,1692614337.822177,-0.071348,0.244264,0.073515,-0.000021,0.002040,0.005426
1692614337.837192,2.264808,-1.107107,-0.000018,64.904397,0.349224,-0.000008,0.176640,-0.074710,0.001043,0.005394,-0.802420,-0.001187,-0.005394,2.067687,-0.000653,-0.077280,-0.193029,0.000094,-1.866000,-0.042819,-0.007000,0.032753,1.233818,0.000590,-1.639000,-0.001819,-0.006000,0.060720,-0.000015,-0.000138,-1.307714,0.000002,0.000038,5780.000000,1692614337.821115,1.009371,-0.464878,0.000048,-0.194514,0.066503,-0.000048,,,,,,,,,
1692614337.848261,,,,,,,,,,,,,,,,,,,,,,,,,,,,,,,,,,,,,,,,,,,10826.000000,1692614337.832175,-0.072388,0.246614,0.075339,-0.000005,0.002071,0.005490
1692614337.854611,,,,,,,,,,,,,,,,,,,,,,,,,,,,,,,,,,,,,,,,,,,10827.000000,1692614337.842223,-0.074623,0.251689,0.077884,0.000007,0.002119,0.005604
1692614337.854969,2.426580,-1.107107,-0.000018,64.904397,0.349224,-0.000008,0.044160,-0.074710,0.000046,-0.008091,-0.802420,-0.000712,-0.005394,2.067687,-0.000653,-0.088320,-0.193029,0.000094,-1.868000,-0.043818,-0.006000,0.031936,1.233818,0.000590,-1.639000,-0.001819,-0.006000,0.075440,-0.000015,-0.000138,-1.347143,0.000002,0.000038,5781.000000,1692614337.841115,0.988343,-0.464878,0.000048,-0.184000,0.066503,-0.000048,,,,,,,,,
1692614337.865753,,,,,,,,,,,,,,,,,,,,,,,,,,,,,,,,,,,,,,,,,,,10828.000000,1692614337.852293,-0.076902,0.255675,0.080090,0.000022,0.002154,0.005699
1692614337.872497,,,,,,,,,,,,,,,,,,,,,,,,,,,,,,,,,,,,,,,,,,,10829.000000,1692614337.862202,-0.078726,0.257070,0.081216,0.000037,0.002165,0.005745
1692614337.874692,1.941264,-1.107107,-0.001631,64.613346,0.349224,-0.000008,0.193200,-0.074710,0.000046,-0.008091,-0.802420,-0.000653,0.000000,2.067687,-0.000653,-0.099360,-0.193029,0.000094,-1.873000,-0.047409,-0.019999,0.030707,1.234409,0.000590,-1.643000,-0.003410,-0.006000,0.071760,-0.000015,-0.000138,-1.294571,-0.000003,-0.000038,5782.000000,1692614337.861117,0.962057,-0.464878,0.000048,-0.236571,0.066503,-0.000048,,,,,,,,,
1692614337.885394,,,,,,,,,,,,,,,,,,,,,,,,,,,,,,,,,,,,,,,,,,,10830.000000,1692614337.877443,-0.080366,0.256476,0.081099,0.000050,0.002156,0.005752
1692614337.891319,2.669238,-1.107107,-0.000018,64.322294,0.349225,0.000035,0.126960,-0.074710,0.000046,-0.035061,-0.802420,-0.001761,-0.005394,2.067687,-0.000653,-0.143520,-0.193029,0.005183,-1.878000,-0.049818,-0.018999,0.029070,1.233818,0.002954,-1.643000,-0.002819,-0.009999,0.084640,-0.000015,-0.000138,-1.327429,-0.000003,-0.000038,5783.000000,1692614337.871124,0.862171,-0.464878,0.000048,-0.220800,0.066503,-0.000048,,,,,,,,,
1692614337.896942,,,,,,,,,,,,,,,,,,,,,,,,,,,,,,,,,,,,,,,,,,,10831.000000,1692614337.882913,-0.082266,0.254086,0.079690,0.000061,0.002124,0.005723
1692614337.908808,,,,,,,,,,,,,,,,,,,,,,,,,,,,,,,,,,,,,,,,,,,10832.000000,1692614337.892714,-0.084668,0.251016,0.077824,0.000073,0.002082,0.005681
1692614337.908816,3.170732,-1.107107,-0.000208,64.031243,0.349225,0.000008,0.182160,-0.074710,0.000046,-0.005394,-0.802420,-0.000653,-0.008091,2.067687,-0.000653,-0.077280,-0.193029,0.000094,-1.891000,-0.056410,-0.065999,0.031115,1.234409,0.002363,-1.644000,-0.003410,-0.004999,0.046000,-0.000015,-0.000138,-1.228857,-0.000003,-0.000038,5784.000000,1692614337.891120,0.946286,-0.464878,0.000048,-0.247086,0.066884,-0.000048,,,,,,,,,
1692614337.915699,,,,,,,,,,,,,,,,,,,,,,,,,,,,,,,,,,,,,,,,,,,10833.000000,1692614337.903204,-0.087557,0.249304,0.076930,0.000085,0.002052,0.005672
1692614337.924658,1.375062,-1.106723,-0.002062,63.449141,0.349225,0.000008,0.115920,-0.074710,0.000046,-0.002697,-0.802420,-0.000950,-0.002697,2.067687,-0.000653,-0.110400,-0.193029,0.000094,-1.889000,-0.051410,-0.041000,0.031936,1.234409,0.002363,-1.643000,-0.002410,-0.004000,0.060720,-0.000015,-0.000138,-1.242000,-0.000003,-0.000038,5785.000000,1692614337.911119,0.867429,-0.464878,0.000048,-0.042057,0.066503,0.000048,,,,,,,,,
1692614337.924689,,,,,,,,,,,,,,,,,,,,,,,,,,,,,,,,,,,,,,,,,,0.000000,,,,,,,,
1692614337.932231,,,,,,,,,,,,,,,,,,,,,,,,,,,,,,,,,,,,,,,,,,,10834.000000,1692614337.916230,-0.091155,0.250248,0.077731,0.000100,0.002045,0.005721
1692614337.941298,,,,,,,,,,,,,,,,,,,,,,,,,,,,,,,,,,,,,,,,,,,10835.000000,1692614337.926608,-0.095688,0.253932,0.080076,0.000116,0.002058,0.005829
1692614337.947885,,,,,,,,,,,,,,,,,,,,,,,,,,,,,,,,,,,,,,,,,,,10836.000000,1692614337.932314,-0.100670,0.259023,0.083366,0.000133,0.002082,0.005967
1692614337.954608,2.103036,-1.107491,0.000904,64.613346,0.349224,-0.000008,0.022080,-0.074710,0.000046,-0.013485,-0.802420,-0.000930,-0.002697,2.067687,-0.000653,-0.176640,-0.193029,0.000094,-1.889000,-0.050636,-0.017999,0.029478,1.232636,0.004727,-1.633000,0.004363,0.014999,0.130640,-0.000015,-0.000138,-1.281429,-0.000003,-0.000038,5786.000000,1692614337.941115,0.904229,-0.464878,0.000048,-0.168229,0.066884,0.000048,,,,,,,,,
1692614337.959296,,,,,,,,,,,,,,,,,,,,,,,,,,,,,,,,,,,,,,,,,,,10837.000000,1692614337.942222,-0.105419,0.264105,0.086905,0.000151,0.002105,0.006106
1692614337.966244,,,,,,,,,,,,,,,,,,,,,,,,,,,,,,,,,,,,,,,,,,,10838.000000,1692614337.952345,-0.109721,0.268464,0.090332,0.000169,0.002128,0.006232
1692614337.979106,1.245645,-1.106723,-0.000022,64.904397,0.349224,-0.000008,0.082800,-0.074710,0.000046,-0.010788,-0.802400,0.003562,-0.005394,2.067687,-0.000653,-0.066240,-0.193029,0.000094,-1.889000,-0.049227,-0.020999,0.029478,1.233227,-0.001181,-1.633000,0.002772,0.014000,0.101200,-0.000015,-0.000138,-1.163143,-0.000003,-0.000038,5787.000000,1692614337.961116,0.977829,-0.464878,0.000048,-0.294400,0.066884,0.000048,,,,,,,,,
1692614337.979128,,,,,,,,,,,,,,,,,,,,,,,,,,,,,,,,,,,,,,,,,,,10839.000000,1692614337.964392,-0.114306,0.272756,0.094036,0.000186,0.002156,0.006358
1692614337.986686,,,,,,,,,,,,,,,,,,,,,,,,,,,,,,,,,,,,,,,,,,,10840.000000,1692614337.976213,-0.119542,0.278264,0.098692,0.000196,0.002199,0.006504
1692614337.996367,,,,,,,,,,,,,,,,,,,,,,,,,,,,,,,,,,,,,,,,,,,10841.000000,1692614337.982345,-0.124241,0.283770,0.103674,0.000199,0.002247,0.006644
1692614338.001293,2.653061,-1.107107,-0.000018,64.031243,0.349224,-0.000017,0.104880,-0.074710,0.000046,-0.005394,-0.802420,-0.000732,-0.005394,2.067687,-0.000653,-0.154560,-0.193040,-0.006712,-1.884000,-0.046637,-0.009999,0.031527,1.232636,-0.005909,-1.623000,0.007364,0.028000,0.088320,-0.000015,-0.000138,-1.196000,-0.000003,-0.000038,5788.000000,1692614337.981122,0.820114,-0.464878,0.000048,-0.289143,0.066884,0.002292,,,,,,,,,
1692614338.006952,,,,,,,,,,,,,,,,,,,,,,,,,,,,,,,,,,,,,,,,,,,10842.000000,1692614337.993140,-0.127999,0.287955,0.107996,0.000196,0.002286,0.006754
1692614338.022983,1.666252,-1.107107,-0.000018,64.904397,0.349224,-0.000008,0.149040,-0.074710,0.000046,-0.005394,-0.802420,-0.000692,-0.002697,2.067687,-0.000653,-0.231840,-0.193029,0.006712,-1.876000,-0.040409,-0.009999,0.032753,1.234409,-0.005909,-1.628000,0.003591,0.030999,0.066240,-0.000015,-0.000138,-1.301143,-0.000003,-0.000038,5789.000000,1692614337.991119,0.951543,-0.464878,0.000048,0.168229,0.066503,0.000048,,,,,,,,,
1692614338.023004,,,,,,,,,,,,,,,,,,,,,,,,,,,,,,,,,,,,,,,,,,,10843.000000,1692614338.002228,-0.131628,0.291767,0.111964,0.000191,0.002319,0.006857
1692614338.027037,,,,,,,,,,,,,,,,,,,,,,,,,,,,,,,,,,,,,,,,,,,10844.000000,1692614338.012207,-0.134883,0.294935,0.115696,0.000186,0.002348,0.006948
1692614338.032250,,,,,,,,,,,,,,,,,,,,,,,,,,,,,,,,,,,,,,,,,,,10845.000000,1692614338.022341,-0.136566,0.295649,0.118801,0.000181,0.002365,0.006989
1692614338.033777,,,,,,,,,,,,,,,,,,,,,,,,,,,,,,,,,,,,,,,,,,0.000000,,,,,,,,
1692614338.033780,3.397213,-1.107491,-0.000018,63.449141,0.349225,0.000142,0.005520,-0.074710,0.000046,-0.005394,-0.802420,-0.000653,-0.010788,2.067687,-0.000653,-0.121440,-0.193029,0.000094,-1.876000,-0.042409,0.032000,0.028661,1.234409,0.005318,-1.626000,0.002590,0.028000,0.049680,-0.000015,-0.000138,-1.360286,-0.000003,-0.000038,5790.000000,1692614338.021111,0.862171,-0.464878,0.000048,-0.257600,0.066884,0.000048,,,,,,,,,
1692614338.042566,,,,,,,,,,,,,,,,,,,,,,,,,,,,,,,,,,,,,,,,,,,10846.000000,1692614338.032197,-0.136533,0.293879,0.121460,0.000175,0.002369,0.006978
1692614338.045275,3.073668,-1.107491,0.000385,63.158090,0.349225,0.000008,0.110400,-0.074710,0.000046,0.000000,-0.802420,-0.000950,-0.005394,2.067687,-0.000653,-0.143520,-0.193029,0.000094,-1.876000,-0.043410,0.016000,0.031936,1.234409,0.002363,-1.620000,0.006591,0.012000,-0.007360,-0.000015,-0.000138,-1.222286,-0.000003,-0.000038,5791.000000,1692614338.031119,0.956800,-0.464878,0.000048,0.000000,0.066503,0.002120,,,,,,,,,
1692614338.055335,,,,,,,,,,,,,,,,,,,,,,,,,,,,,,,,,,,,,,,,,,,10847.000000,1692614338.042230,-0.135517,0.290694,0.123800,0.000168,0.002363,0.006932
1692614338.066044,,,,,,,,,,,,,,,,,,,,,,,,,,,,,,,,,,,,,,,,,,,10848.000000,1692614338.052568,-0.134257,0.287738,0.126089,0.000157,0.002358,0.006883
1692614338.080244,,,,,,,,,,,,,,,,,,,,,,,,,,,,,,,,,,,,,,,,,,,10849.000000,1692614338.062194,-0.133264,0.286599,0.128969,0.000141,0.002365,0.006865
1692614338.080296,3.526630,-1.107491,0.000139,63.740192,0.349225,0.000361,0.088320,-0.074710,0.000046,-0.010788,-0.802420,-0.001068,-0.010788,2.067687,-0.000653,-0.099360,-0.193029,0.000094,-1.876000,-0.044818,0.020999,0.028661,1.233818,-0.002954,-1.616000,0.006182,0.028000,0.036800,-0.000015,-0.000138,-1.288000,-0.000003,-0.000038,5792.000000,1692614338.061116,0.862171,-0.464878,0.000048,-0.231314,0.066884,0.000048,,,,,,,,,
1692614338.089277,,,,,,,,,,,,,,,,,,,,,,,,,,,,,,,,,,,,,,,,,,,10850.000000,1692614338.072197,-0.132231,0.285430,0.131504,0.000124,0.002369,0.006847
1692614338.100884,2.555998,-1.107107,-0.000028,63.449141,0.349224,-0.000008,-0.038640,-0.074710,0.000046,-0.008091,-0.802420,-0.000672,-0.002697,2.067687,-0.000653,-0.099360,-0.193029,0.000094,-1.876000,-0.045409,0.004999,0.028249,1.234409,0.002363,-1.618000,0.004590,0.025000,0.088320,-0.000015,-0.000138,-1.314286,-0.000003,-0.000038,5793.000000,1692614338.081119,0.988343,-0.464878,0.000048,-0.141943,0.066884,0.000048,,,,,,,,,
1692614338.100921,,,,,,,,,,,,,,,,,,,,,,,,,,,,,,,,,,,,,,,,,,,10851.000000,1692614338.082258,-0.131301,0.282455,0.132567,0.000107,0.002350,0.006794
1692614338.110270,,,,,,,,,,,,,,,,,,,,,,,,,,,,,,,,,,,,,,,,,,,10852.000000,1692614338.092369,-0.131094,0.279037,0.133048,0.000094,0.002323,0.006733
1692614338.118154,2.928074,-1.107107,-0.000018,63.158090,0.349224,-0.000008,0.077280,-0.074710,0.000046,-0.002697,-0.802420,-0.001068,0.000000,2.067687,-0.000653,-0.143520,-0.193040,-0.002628,-1.876000,-0.045228,-0.004999,0.030299,1.233227,0.002363,-1.620000,0.002772,0.008999,0.130640,-0.000015,-0.000138,-1.156571,-0.000003,-0.000038,5794.000000,1692614338.101119,0.835886,-0.464878,0.000048,-0.057829,0.066884,0.000048,,,,,,,,,
1692614338.121403,,,,,,,,,,,,,,,,,,,,,,,,,,,,,,,,,,,,,,,,,,,10853.000000,1692614338.102314,-0.131616,0.276002,0.133417,0.000089,0.002297,0.006681
1692614338.128123,,,,,,,,,,,,,,,,,,,,,,,,,,,,,,,,,,,,,,,,,,,10854.000000,1692614338.112184,-0.132874,0.273402,0.133242,0.000090,0.002267,0.006634
1692614338.138485,,,,,,,,,,,,,,,,,,,,,,,,,,,,,,,,,,,,,,,,,,,10855.000000,1692614338.122229,-0.135179,0.272066,0.132832,0.000094,0.002235,0.006609
1692614338.139722,2.976605,-1.107107,-0.000090,63.449141,0.349224,-0.000008,0.022080,-0.074710,0.000046,0.005394,-0.802420,-0.001088,-0.008091,2.067687,-0.000653,-0.099360,-0.193029,0.000094,-1.871000,-0.042228,0.009999,0.028661,1.233227,-0.003545,-1.618000,0.003772,-0.001000,0.136160,-0.000015,-0.000138,-1.294571,-0.000003,-0.000038,5795.000000,1692614338.121115,0.962057,-0.464878,0.000048,-0.010514,0.066884,0.000048,,,,,,,,,
1692614338.141515,,,,,,,,,,,,,,,,,,,,,,,,,,,,,,,,,,,,,,,,,,0.000000,,,,,,,,
1692614338.145566,,,,,,,,,,,,,,,,,,,,,,,,,,,,,,,,,,,,,,,,,,,10856.000000,1692614338.132711,-0.138984,0.273372,0.132961,0.000100,0.002211,0.006634
1692614338.154399,,,,,,,,,,,,,,,,,,,,,,,,,,,,,,,,,,,,,,,,,,,10857.000000,1692614338.144213,-0.144275,0.277606,0.134195,0.000108,0.002200,0.006718
1692614338.155294,2.814833,-1.107107,-0.000018,63.740192,0.349224,-0.000008,0.138000,-0.074710,0.000046,0.013485,-0.802420,-0.001642,0.000000,2.067687,-0.000653,-0.077280,-0.193029,0.000094,-1.873000,-0.043227,-0.004999,0.030299,1.233227,-0.003545,-1.628000,-0.002228,0.004000,0.161920,-0.000015,-0.000138,-1.307714,-0.000003,-0.000038,5796.000000,1692614338.141122,0.883200,-0.464878,0.000048,-0.162971,0.067265,0.000048,,,,,,,,,
1692614338.164670,,,,,,,,,,,,,,,,,,,,,,,,,,,,,,,,,,,,,,,,,,,10858.000000,1692614338.152216,-0.150051,0.283166,0.136526,0.000123,0.002202,0.006831
1692614338.174480,,,,,,,,,,,,,,,,,,,,,,,,,,,,,,,,,,,,,,,,,,,10859.000000,1692614338.162565,-0.154933,0.288165,0.139467,0.000144,0.002207,0.006935
1692614338.176076,2.944251,-1.107107,0.001248,64.322294,0.349224,-0.000008,0.022080,-0.074710,0.000046,-0.005394,-0.802420,-0.000712,-0.002697,2.067687,-0.000653,-0.099360,-0.193029,0.000094,-1.879000,-0.046227,-0.014999,0.030299,1.233227,-0.003545,-1.631000,-0.002228,-0.025000,0.009200,-0.000015,-0.000138,-1.360286,-0.000003,-0.000038,5797.000000,1692614338.161117,0.898971,-0.464878,0.000048,-0.089371,0.066884,0.000048,,,,,,,,,
1692614338.183283,,,,,,,,,,,,,,,,,,,,,,,,,,,,,,,,,,,,,,,,,,,10860.000000,1692614338.173714,-0.158279,0.292298,0.142799,0.000170,0.002213,0.007022
1692614338.186254,2.653061,-1.107107,-0.000018,64.322294,0.349224,-0.000008,0.110400,-0.074710,0.000046,-0.005394,-0.802420,-0.000732,-0.002697,2.067687,-0.000653,-0.077280,-0.193029,0.000094,-1.879000,-0.045819,-0.009999,0.031527,1.233818,-0.003545,-1.631000,-0.001819,-0.024000,0.055200,-0.000015,-0.000138,-1.281429,-0.000003,-0.000038,5798.000000,1692614338.171123,0.914743,-0.464878,0.000048,-0.157714,0.066884,0.000048,,,,,,,,,
1692614338.192742,,,,,,,,,,,,,,,,,,,,,,,,,,,,,,,,,,,,,,,,,,,10861.000000,1692614338.182814,-0.160201,0.295683,0.146390,0.000195,0.002221,0.007099
1692614338.202938,,,,,,,,,,,,,,,,,,,,,,,,,,,,,,,,,,,,,,,,,,,10862.000000,1692614338.192205,-0.161125,0.297632,0.149815,0.000219,0.002226,0.007158
1692614338.212240,,,,,,,,,,,,,,,,,,,,,,,,,,,,,,,,,,,,,,,,,,,10863.000000,1692614338.202238,-0.161678,0.297928,0.152745,0.000238,0.002224,0.007195
1692614338.214306,3.704579,-1.107491,0.000050,64.031243,0.349224,-0.000008,0.060720,-0.074710,0.000046,-0.010788,-0.802420,-0.000653,-0.005394,2.067687,-0.000653,-0.143520,-0.193029,0.000094,-1.881000,-0.046818,0.000000,0.029887,1.233818,-0.000590,-1.634000,-0.001819,-0.017999,0.033120,-0.000015,-0.000138,-1.281429,-0.000003,-0.000038,5799.000000,1692614338.201113,0.872686,-0.464878,0.000048,-0.189257,0.066884,0.000048,,,,,,,,,
1692614338.221794,,,,,,,,,,,,,,,,,,,,,,,,,,,,,,,,,,,,,,,,,,,10864.000000,1692614338.212204,-0.161493,0.296472,0.154658,0.000250,0.002210,0.007203
1692614338.234849,,,,,,,,,,,,,,,,,,,,,,,,,,,,,,,,,,,,,,,,,,,10865.000000,1692614338.222939,-0.160450,0.294119,0.155594,0.000255,0.002192,0.007191
1692614338.236142,2.620707,-1.107107,-0.000018,64.613346,0.349224,-0.000008,0.049680,-0.074710,0.000046,-0.002697,-0.802420,-0.000653,0.002697,2.067687,-0.000653,-0.121440,-0.193029,0.000094,-1.881000,-0.047000,0.001000,0.033573,1.234999,0.005318,-1.636000,-0.003000,-0.017999,0.057040,-0.000015,-0.000138,-1.320857,-0.000003,-0.000038,5800.000000,1692614338.221121,0.914743,-0.464878,0.000048,-0.126171,0.066884,0.001379,,,,,,,,,
1692614338.239891,,,,,,,,,,,,,,,,,,,,,,,,,,,,,,,,,,,,,,,,,,,10866.000000,1692614338.232325,-0.159671,0.292432,0.156807,0.000256,0.002185,0.007189
1692614338.252746,2.151568,-1.107107,-0.000018,64.322294,0.349224,-0.000008,-0.049680,-0.074710,0.000046,-0.016182,-0.802420,-0.000672,-0.005394,2.067687,-0.000653,-0.132480,-0.193029,0.000094,-1.883000,-0.047591,-0.004000,0.028661,1.235590,0.005318,-1.638000,-0.003591,-0.017999,0.038640,-0.000015,-0.000138,-1.327429,-0.000003,-0.000038,5801.000000,1692614338.231126,0.883200,-0.464878,0.000048,-0.084114,0.066884,0.000048,,,,,,,,,
1692614338.252767,,,,,,,,,,,,,,,,,,,,,,,,,,,,,,,,,,,,,,,,,,,10867.000000,1692614338.242314,-0.159877,0.292420,0.159555,0.000256,0.002198,0.007225
1692614338.256714,,,,,,,,,,,,,,,,,,,,,,,,,,,,,,,,,,,,,,,,,,0.000000,,,,,,,,
1692614338.266026,,,,,,,,,,,,,,,,,,,,,,,,,,,,,,,,,,,,,,,,,,,10868.000000,1692614338.252296,-0.161880,0.295218,0.163828,0.000255,0.002231,0.007319
1692614338.269796,3.769288,-1.107491,0.000708,64.904397,0.349224,-0.000008,0.160080,-0.074710,0.000046,-0.010788,-0.802420,-0.000653,-0.008091,2.067687,-0.000653,-0.110400,-0.193029,0.000094,-1.881000,-0.045999,0.006000,0.032344,1.234999,0.007681,-1.634000,-0.001000,-0.013000,0.022080,-0.000015,-0.000138,-1.274857,-0.000003,-0.000038,5802.000000,1692614338.251123,0.977829,-0.464878,0.000048,-0.299657,0.066884,0.008439,,,,,,,,,
1692614338.277638,,,,,,,,,,,,,,,,,,,,,,,,,,,,,,,,,,,,,,,,,,,10869.000000,1692614338.265859,-0.166641,0.301359,0.168687,0.000254,0.002275,0.007478
1692614338.283805,,,,,,,,,,,,,,,,,,,,,,,,,,,,,,,,,,,,,,,,,,,10870.000000,1692614338.272213,-0.174394,0.311221,0.174570,0.000255,0.002331,0.007708
1692614338.300234,,,,,,,,,,,,,,,,,,,,,,,,,,,,,,,,,,,,,,,,,,,10871.000000,1692614338.282212,-0.184680,0.325757,0.182633,0.000256,0.002410,0.008024
1692614338.301056,2.216277,-1.107107,-0.000018,65.486499,0.349224,-0.000008,0.160080,-0.074710,0.000046,-0.010788,-0.802400,0.003562,0.002697,2.067687,-0.000653,-0.077280,-0.193029,0.000094,-1.878000,-0.044999,0.001000,0.031527,1.234999,0.004136,-1.636000,-0.001999,-0.012000,0.103040,-0.000015,-0.000138,-1.353714,-0.000003,-0.000038,5803.000000,1692614338.281113,0.904229,-0.464878,0.000048,-0.052571,0.066884,0.000048,,,,,,,,,
1692614338.306115,,,,,,,,,,,,,,,,,,,,,,,,,,,,,,,,,,,,,,,,,,,10872.000000,1692614338.292306,-0.196263,0.344241,0.192330,0.000255,0.002510,0.008403
1692614338.316497,,,,,,,,,,,,,,,,,,,,,,,,,,,,,,,,,,,,,,,,,,,10873.000000,1692614338.302330,-0.208732,0.365089,0.202823,0.000253,0.002621,0.008809
1692614338.316918,3.381035,-1.107107,-0.000262,65.195448,0.349224,-0.000008,0.011040,-0.074710,0.000046,-0.008091,-0.802420,-0.000653,-0.008091,2.067687,-0.000653,-0.066240,-0.193029,0.000094,-1.876000,-0.044000,0.008999,0.033573,1.234999,0.004136,-1.631000,0.001000,-0.012000,0.046000,-0.000015,-0.000138,-1.274857,-0.000003,-0.000038,5804.000000,1692614338.301118,0.856914,-0.464878,0.000048,-0.147200,0.066884,0.000048,,,,,,,,,
1692614338.323123,,,,,,,,,,,,,,,,,,,,,,,,,,,,,,,,,,,,,,,,,,,10874.000000,1692614338.312162,-0.222989,0.388598,0.214188,0.000249,0.002739,0.009246
1692614338.331322,,,,,,,,,,,,,,,,,,,,,,,,,,,,,,,,,,,,,,,,,,,10875.000000,1692614338.322687,-0.237959,0.413143,0.225476,0.000241,0.002854,0.009685
1692614338.338607,3.882529,-1.107491,0.001652,65.486499,0.349224,-0.000008,0.011040,-0.074710,0.000046,-0.013485,-0.802420,-0.000653,-0.005394,2.067687,-0.000653,-0.099360,-0.193029,0.000094,-1.876000,-0.043410,0.008999,0.033165,1.234409,0.004136,-1.631000,0.000591,-0.002000,0.068080,-0.000015,-0.000138,-1.274857,-0.000003,-0.000038,5805.000000,1692614338.321118,0.888457,-0.464878,0.000048,-0.073600,0.066884,0.000048,,,,,,,,,
1692614338.344311,,,,,,,,,,,,,,,,,,,,,,,,,,,,,,,,,,,,,,,,,,,10876.000000,1692614338.332544,-0.251696,0.436102,0.235484,0.000232,0.002955,0.010082
1692614338.354349,,,,,,,,,,,,,,,,,,,,,,,,,,,,,,,,,,,,,,,,,,,10877.000000,1692614338.342223,-0.263936,0.457669,0.244576,0.000219,0.003042,0.010440
1692614338.356647,3.833997,-1.107491,0.000393,65.486499,0.349224,-0.000008,0.126960,-0.074710,0.000046,-0.010788,-0.802420,-0.000653,0.005394,2.067687,-0.000653,-0.099360,-0.193029,0.000094,-1.873000,-0.041410,0.017999,0.029070,1.234409,0.001181,-1.631000,0.000591,-0.006000,0.057040,-0.000015,-0.000138,-1.419429,-0.000003,-0.000038,5806.000000,1692614338.341115,0.846400,-0.464878,0.000048,-0.210286,0.066884,0.003495,,,,,,,,,
1692614338.359603,,,,,,,,,,,,,,,,,,,,,,,,,,,,,,,,,,,,,,,,,,0.000000,,,,,,,,
1692614338.360998,,,,,,,,,,,,,,,,,,,,,,,,,,,,,,,,,,,,,,,,,,,10878.000000,1692614338.352194,-0.274214,0.476807,0.252336,0.000201,0.003113,0.010738
1692614338.373794,,,,,,,,,,,,,,,,,,,,,,,,,,,,,,,,,,,,,,,,,,,10879.000000,1692614338.362581,-0.282128,0.492240,0.258462,0.000182,0.003168,0.010957
1692614338.376657,3.154555,-1.107107,-0.000034,65.195448,0.349224,-0.000008,0.071760,-0.074710,0.000046,-0.010788,-0.802420,-0.000653,0.000000,2.067687,-0.000653,-0.088320,-0.193029,0.000094,-1.865000,-0.036227,0.017999,0.029070,1.233227,0.001181,-1.631000,0.000772,-0.004999,0.036800,-0.000015,-0.000138,-1.163143,-0.000003,-0.000038,5807.000000,1692614338.361114,0.835886,-0.464878,0.000048,-0.084114,0.066884,0.000048,,,,,,,,,
1692614338.383130,,,,,,,,,,,,,,,,,,,,,,,,,,,,,,,,,,,,,,,,,,,10880.000000,1692614338.372429,-0.287718,0.504515,0.264401,0.000166,0.003221,0.011118
1692614338.389420,3.122200,-1.107107,-0.001541,65.486499,0.349224,-0.000008,0.044160,-0.074710,0.000046,-0.010788,-0.802420,-0.000653,-0.005394,2.067687,-0.000653,-0.088320,-0.193029,0.000094,-1.871000,-0.042228,0.037000,0.026612,1.233227,-0.004727,-1.631000,0.000772,-0.004999,0.060720,-0.000015,-0.000138,-1.176286,-0.000003,-0.000038,5808.000000,1692614338.371125,0.809600,-0.464878,0.000048,-0.189257,0.067265,0.000048,,,,,,,,,
