__time,/hsrb/wrist_wrench/compensated/header/seq,/hsrb/wrist_wrench/compensated/header/stamp,/hsrb/wrist_wrench/compensated/wrench/force/x,/hsrb/wrist_wrench/compensated/wrench/force/y,/hsrb/wrist_wrench/compensated/wrench/force/z,/hsrb/wrist_wrench/compensated/wrench/torque/x,/hsrb/wrist_wrench/compensated/wrench/torque/y,/hsrb/wrist_wrench/compensated/wrench/torque/z
1694167901.634693,138969.000000,1694167901.628552,0.000000,0.000000,0.000000,0.000000,0.000000,0.000000
1694167901.648942,138970.000000,1694167901.638888,0.000000,0.000000,0.000000,0.000000,0.000000,0.000000
1694167901.655895,138971.000000,1694167901.648589,0.000000,0.000000,0.000000,0.000000,0.000000,0.000000
1694167901.663805,138972.000000,1694167901.658458,0.000000,0.000000,0.000000,0.000000,0.000000,0.000000
1694167901.673030,138973.000000,1694167901.668503,0.000000,0.000000,0.000000,0.000000,0.000000,0.000000
1694167901.683474,138974.000000,1694167901.680300,0.000000,0.000000,0.000000,0.000000,0.000000,0.000000
1694167901.697519,138975.000000,1694167901.688439,0.000000,0.000000,0.000000,0.000000,0.000000,0.000000
1694167901.706731,138976.000000,1694167901.698489,0.000000,0.000000,0.000000,0.000000,0.000000,0.000000
1694167901.718155,138977.000000,1694167901.708511,0.000000,0.000000,0.000000,0.000000,0.000000,0.000000
1694167901.725217,138978.000000,1694167901.718509,0.000000,0.000000,0.000000,0.000000,0.000000,0.000000
1694167901.731201,138979.000000,1694167901.728508,0.000000,0.000000,0.000000,0.000000,0.000000,0.000000
1694167901.745876,138980.000000,1694167901.738962,0.000000,0.000000,0.000000,0.000000,0.000000,0.000000
1694167901.757821,138981.000000,1694167901.751156,0.000000,0.000000,0.000000,0.000000,0.000000,0.000000
1694167901.769303,138982.000000,1694167901.758516,0.000000,0.000000,0.000000,0.000000,0.000000,0.000000
1694167901.780577,138983.000000,1694167901.769052,0.000000,0.000000,0.000000,0.000000,0.000000,0.000000
1694167901.799557,138984.000000,1694167901.779884,0.000000,0.000000,0.000000,0.000000,0.000000,0.000000
1694167901.807385,138986.000000,1694167901.798519,0.000000,0.000000,0.000000,0.000000,0.000000,0.000000
1694167901.820311,138987.000000,1694167901.809347,0.000000,0.000000,0.000000,0.000000,0.000000,0.000000
1694167901.831656,138988.000000,1694167901.818594,0.000000,0.000000,0.000000,0.000000,0.000000,0.000000
1694167901.841587,138989.000000,1694167901.828514,0.000000,0.000000,0.000000,0.000000,0.000000,0.000000
1694167901.851618,138990.000000,1694167901.838588,0.000000,0.000000,0.000000,0.000000,0.000000,0.000000
1694167901.864461,138991.000000,1694167901.848673,0.000000,0.000000,0.000000,0.000000,0.000000,0.000000
1694167901.867536,138992.000000,1694167901.858462,0.000000,0.000000,0.000000,0.000000,0.000000,0.000000
1694167901.878329,138993.000000,1694167901.868544,0.000000,0.000000,0.000000,0.000000,0.000000,0.000000
1694167901.889098,138994.000000,1694167901.878907,0.000000,0.000000,0.000000,0.000000,0.000000,0.000000
1694167901.901423,138995.000000,1694167901.888535,0.000000,0.000000,0.000000,0.000000,0.000000,0.000000
1694167901.909245,138996.000000,1694167901.898458,0.000000,0.000000,0.000000,0.000000,0.000000,0.000000
1694167901.919585,138997.000000,1694167901.908512,0.000000,0.000000,0.000000,0.000000,0.000000,0.000000
1694167901.926229,138998.000000,1694167901.918682,0.000000,0.000000,0.000000,0.000000,0.000000,0.000000
1694167901.934835,138999.000000,1694167901.928430,0.000000,0.000000,0.000000,0.000000,0.000000,0.000000
1694167901.945080,139000.000000,1694167901.938462,0.000000,0.000000,0.000000,0.000000,0.000000,0.000000
1694167901.954055,139001.000000,1694167901.948844,0.000000,0.000000,0.000000,0.000000,0.000000,0.000000
1694167901.967213,139002.000000,1694167901.958683,0.000000,0.000000,0.000000,0.000000,0.000000,0.000000
1694167901.982251,139003.000000,1694167901.968499,0.000000,0.000000,0.000000,0.000000,0.000000,0.000000
1694167901.993876,139004.000000,1694167901.978455,0.000000,0.000000,0.000000,0.000000,0.000000,0.000000
1694167902.000610,139005.000000,1694167901.988683,0.000000,0.000000,0.000000,0.000000,0.000000,0.000000
1694167902.011942,139006.000000,1694167901.998424,0.000000,0.000000,0.000000,0.000000,0.000000,0.000000
1694167902.017704,139007.000000,1694167902.008503,0.000000,0.000000,0.000000,0.000000,0.000000,0.000000
1694167902.026031,139008.000000,1694167902.018453,0.000000,0.000000,0.000000,0.000000,0.000000,0.000000
1694167902.037398,139009.000000,1694167902.028533,0.000000,0.000000,0.000000,0.000000,0.000000,0.000000
1694167902.044526,139010.000000,1694167902.038518,0.000000,0.000000,0.000000,0.000000,0.000000,0.000000
1694167902.058605,139011.000000,1694167902.048881,0.000000,0.000000,0.000000,0.000000,0.000000,0.000000
1694167902.069557,139012.000000,1694167902.058658,0.000000,0.000000,0.000000,0.000000,0.000000,0.000000
1694167902.082254,139013.000000,1694167902.068446,0.000000,0.000000,0.000000,0.000000,0.000000,0.000000
1694167902.095684,139014.000000,1694167902.081977,0.000000,0.000000,0.000000,0.000000,0.000000,0.000000
1694167902.099267,139015.000000,1694167902.088496,0.000000,0.000000,0.000000,0.000000,0.000000,0.000000
1694167902.114429,139016.000000,1694167902.098518,0.000000,0.000000,0.000000,0.000000,0.000000,0.000000
1694167902.123554,139017.000000,1694167902.108567,0.000000,0.000000,0.000000,0.000000,0.000000,0.000000
1694167902.135575,139018.000000,1694167902.118535,0.000000,0.000000,0.000000,0.000000,0.000000,0.000000
1694167902.143060,139019.000000,1694167902.128710,0.000000,0.000000,0.000000,0.000000,0.000000,0.000000
1694167902.157781,139020.000000,1694167902.138396,0.000000,0.000000,0.000000,0.000000,0.000000,0.000000
1694167902.168710,139021.000000,1694167902.148565,0.000000,0.000000,0.000000,0.000000,0.000000,0.000000
1694167902.171695,139022.000000,1694167902.158897,0.000000,0.000000,0.000000,0.000000,0.000000,0.000000
1694167902.191707,139023.000000,1694167902.168642,0.000000,0.000000,0.000000,0.000000,0.000000,0.000000
1694167902.200568,139025.000000,1694167902.189659,0.000000,0.000000,0.000000,0.000000,0.000000,0.000000
1694167902.219464,139026.000000,1694167902.199167,0.000000,0.000000,0.000000,0.000000,0.000000,0.000000
1694167902.223165,139027.000000,1694167902.208426,0.000000,0.000000,0.000000,0.000000,0.000000,0.000000
1694167902.229931,139028.000000,1694167902.218560,0.000000,0.000000,0.000000,0.000000,0.000000,0.000000
1694167902.236102,139029.000000,1694167902.228522,0.000000,0.000000,0.000000,0.000000,0.000000,0.000000
1694167902.242278,139030.000000,1694167902.238535,0.000000,0.000000,0.000000,0.000000,0.000000,0.000000
1694167902.253325,139031.000000,1694167902.248783,0.000000,0.000000,0.000000,0.000000,0.000000,0.000000
1694167902.270125,139032.000000,1694167902.258435,0.000000,0.000000,0.000000,0.000000,0.000000,0.000000
1694167902.279776,139033.000000,1694167902.268921,0.000000,0.000000,0.000000,0.000000,0.000000,0.000000
1694167902.288801,139034.000000,1694167902.278431,0.000000,0.000000,0.000000,0.000000,0.000000,0.000000
1694167902.297727,139035.000000,1694167902.288505,0.000000,0.000000,0.000000,0.000000,0.000000,0.000000
1694167902.311193,139036.000000,1694167902.298490,0.000000,0.000000,0.000000,0.000000,0.000000,0.000000
1694167902.321682,139037.000000,1694167902.308627,0.000000,0.000000,0.000000,0.000000,0.000000,0.000000
1694167902.330312,139038.000000,1694167902.318665,0.000000,0.000000,0.000000,0.000000,0.000000,0.000000
1694167902.338364,139039.000000,1694167902.328501,0.000000,0.000000,0.000000,0.000000,0.000000,0.000000
1694167902.345930,139040.000000,1694167902.338597,0.000000,0.000000,0.000000,0.000000,0.000000,0.000000
1694167902.356316,139041.000000,1694167902.350147,0.000000,0.000000,0.000000,0.000000,0.000000,0.000000
1694167902.364261,139042.000000,1694167902.358510,0.000000,0.000000,0.000000,0.000000,0.000000,0.000000
1694167902.373110,139043.000000,1694167902.368775,0.000000,0.000000,0.000000,0.000000,0.000000,0.000000
1694167902.386824,139044.000000,1694167902.382930,0.000000,0.000000,0.000000,0.000000,0.000000,0.000000
1694167902.395486,139045.000000,1694167902.388502,0.003411,-0.000831,0.001704,-0.000038,0.000192,0.000047
1694167902.402092,139046.000000,1694167902.398642,0.008148,-0.002101,0.004165,-0.000092,0.000459,0.000112
1694167902.418276,139047.000000,1694167902.408653,0.012527,-0.003406,0.006536,-0.000140,0.000707,0.000172
1694167902.428502,139048.000000,1694167902.418529,0.016854,-0.004781,0.008933,-0.000188,0.000953,0.000231
1694167902.437283,139049.000000,1694167902.428536,0.020081,-0.005854,0.010740,-0.000224,0.001137,0.000274
1694167902.448647,139050.000000,1694167902.438673,0.022074,-0.006517,0.011863,-0.000246,0.001250,0.000300
1694167902.458278,139051.000000,1694167902.448515,0.023642,-0.006958,0.012738,-0.000264,0.001338,0.000319
1694167902.469042,139052.000000,1694167902.458492,0.025507,-0.007359,0.013767,-0.000285,0.001441,0.000342
1694167902.476933,139053.000000,1694167902.468549,0.028184,-0.007903,0.015272,-0.000315,0.001588,0.000376
1694167902.486209,139054.000000,1694167902.478613,0.032696,-0.008903,0.017861,-0.000363,0.001837,0.000435
1694167902.498433,139055.000000,1694167902.489825,0.039371,-0.010393,0.021808,-0.000436,0.002203,0.000522
1694167902.506875,139056.000000,1694167902.498479,0.046433,-0.011835,0.026235,-0.000512,0.002592,0.000616
1694167902.513244,139057.000000,1694167902.508698,0.053615,-0.013091,0.030989,-0.000591,0.002987,0.000713
1694167902.527241,139058.000000,1694167902.518850,0.062405,-0.014392,0.036919,-0.000686,0.003467,0.000831
1694167902.535326,139059.000000,1694167902.528513,0.072284,-0.015482,0.043859,-0.000792,0.004001,0.000963
1694167902.542599,139060.000000,1694167902.538467,0.082614,-0.016202,0.051515,-0.000903,0.004558,0.001098
1694167902.553354,139061.000000,1694167902.548629,0.093299,-0.016663,0.059764,-0.001020,0.005130,0.001236
1694167902.563934,139062.000000,1694167902.558509,0.102485,-0.016761,0.067126,-0.001125,0.005617,0.001350
1694167902.575582,139063.000000,1694167902.568556,0.108985,-0.016544,0.072569,-0.001203,0.005960,0.001427
1694167902.584579,139064.000000,1694167902.578683,0.114399,-0.016309,0.077327,-0.001268,0.006249,0.001491
1694167902.591296,139065.000000,1694167902.588424,0.121097,-0.016310,0.083150,-0.001344,0.006604,0.001571
1694167902.604434,139066.000000,1694167902.598539,0.129712,-0.016638,0.090429,-0.001436,0.007055,0.001673
1694167902.615976,139067.000000,1694167902.608536,0.138368,-0.017020,0.097846,-0.001527,0.007508,0.001775
1694167902.628857,139068.000000,1694167902.618523,0.144848,-0.017085,0.103663,-0.001599,0.007851,0.001849
1694167902.638960,139069.000000,1694167902.628499,0.148437,-0.016846,0.107080,-0.001643,0.008046,0.001888
1694167902.648229,139070.000000,1694167902.638492,0.149494,-0.016554,0.108421,-0.001662,0.008111,0.001895
1694167902.658010,139071.000000,1694167902.648714,0.148885,-0.016321,0.108569,-0.001666,0.008096,0.001884
1694167902.667911,139072.000000,1694167902.658692,0.146022,-0.015895,0.107068,-0.001647,0.007970,0.001851
1694167902.681782,139073.000000,1694167902.668494,0.138995,-0.014900,0.102231,-0.001588,0.007632,0.001770
1694167902.688733,139074.000000,1694167902.680436,0.128242,-0.013487,0.094444,-0.001492,0.007099,0.001646
1694167902.700460,139075.000000,1694167902.693135,0.115579,-0.012086,0.085462,-0.001371,0.006467,0.001501
1694167902.708110,139076.000000,1694167902.699148,0.102316,-0.010833,0.076228,-0.001234,0.005798,0.001349
1694167902.715060,139077.000000,1694167902.708515,0.088971,-0.009548,0.066738,-0.001090,0.005108,0.001193
1694167902.729614,139078.000000,1694167902.718802,0.075184,-0.008037,0.056568,-0.000937,0.004370,0.001025
1694167902.739942,139079.000000,1694167902.728448,0.061787,-0.006442,0.046503,-0.000785,0.003632,0.000855
1694167902.748527,139080.000000,1694167902.738479,0.049242,-0.004934,0.037115,-0.000638,0.002927,0.000691
1694167902.759195,139081.000000,1694167902.749528,0.036998,-0.003551,0.027998,-0.000489,0.002226,0.000527
1694167902.770680,139082.000000,1694167902.758527,0.025684,-0.002380,0.019526,-0.000346,0.001564,0.000371
1694167902.782965,139083.000000,1694167902.768520,0.015612,-0.001413,0.011930,-0.000214,0.000961,0.000229
1694167902.789437,139084.000000,1694167902.778497,0.006768,-0.000610,0.005206,-0.000094,0.000421,0.000101
1694167902.796094,139085.000000,1694167902.788747,0.000000,0.000000,0.000000,0.000000,0.000000,0.000000
1694167902.808098,139086.000000,1694167902.798433,0.000000,0.000000,0.000000,0.000000,0.000000,0.000000
1694167902.821299,139087.000000,1694167902.808535,0.000000,0.000000,0.000000,0.000000,0.000000,0.000000
1694167902.837374,139088.000000,1694167902.820075,0.000000,0.000000,0.000000,0.000000,0.000000,0.000000
1694167902.852920,139090.000000,1694167902.838541,0.000000,0.000000,0.000000,0.000000,0.000000,0.000000
1694167902.865877,139091.000000,1694167902.848537,0.000000,0.000000,0.000000,0.000000,0.000000,0.000000
1694167902.875082,139092.000000,1694167902.858591,0.000000,0.000000,0.000000,0.000000,0.000000,0.000000
1694167902.879220,139093.000000,1694167902.868421,0.000000,0.000000,0.000000,0.000000,0.000000,0.000000
1694167902.886149,139094.000000,1694167902.878507,0.000000,0.000000,0.000000,0.000000,0.000000,0.000000
1694167902.896657,139095.000000,1694167902.888840,0.000000,0.000000,0.000000,0.000000,0.000000,0.000000
1694167902.906704,139096.000000,1694167902.898479,0.000000,0.000000,0.000000,0.000000,0.000000,0.000000
1694167902.917360,139097.000000,1694167902.908486,0.000000,0.000000,0.000000,0.000000,0.000000,0.000000
1694167902.931424,139098.000000,1694167902.918507,0.000000,0.000000,0.000000,0.000000,0.000000,0.000000
1694167902.944348,139099.000000,1694167902.929015,0.000000,0.000000,0.000000,0.000000,0.000000,0.000000
1694167902.957908,139100.000000,1694167902.940845,0.000000,0.000000,0.000000,0.000000,0.000000,0.000000
1694167902.968510,139102.000000,1694167902.958761,0.000000,0.000000,0.000000,0.000000,0.000000,0.000000
1694167902.978088,139103.000000,1694167902.971036,0.000000,0.000000,0.000000,0.000000,0.000000,0.000000
1694167902.990892,139104.000000,1694167902.978496,0.000000,0.000000,0.000000,0.000000,0.000000,0.000000
1694167903.001762,139105.000000,1694167902.997107,0.000000,0.000000,0.000000,0.000000,0.000000,0.000000
1694167903.011348,139106.000000,1694167902.998617,0.000000,0.000000,0.000000,0.000000,0.000000,0.000000
1694167903.020132,139107.000000,1694167903.008621,0.000000,0.000000,0.000000,0.000000,0.000000,0.000000
1694167903.033700,139108.000000,1694167903.018932,0.000000,0.000000,0.000000,0.000000,0.000000,0.000000
1694167903.037481,139109.000000,1694167903.028750,0.000000,0.000000,0.000000,0.000000,0.000000,0.000000
1694167903.045619,139110.000000,1694167903.038500,0.000000,0.000000,0.000000,0.000000,0.000000,0.000000
1694167903.052346,139111.000000,1694167903.048507,0.000000,0.000000,0.000000,0.000000,0.000000,0.000000
1694167903.061705,139112.000000,1694167903.058440,0.000000,0.000000,0.000000,0.000000,0.000000,0.000000
1694167903.075878,139113.000000,1694167903.068655,0.000000,0.000000,0.000000,0.000000,0.000000,0.000000
1694167903.093482,139114.000000,1694167903.081310,0.000000,0.000000,0.000000,0.000000,0.000000,0.000000
1694167903.102559,139115.000000,1694167903.088506,0.000000,0.000000,0.000000,0.000000,0.000000,0.000000
1694167903.114849,139116.000000,1694167903.098661,0.000000,0.000000,0.000000,0.000000,0.000000,0.000000
1694167903.119099,139117.000000,1694167903.109353,0.000000,0.000000,0.000000,0.000000,0.000000,0.000000
1694167903.134483,139118.000000,1694167903.118973,0.000000,0.000000,0.000000,0.000000,0.000000,0.000000
1694167903.145992,139119.000000,1694167903.128628,0.000000,0.000000,0.000000,0.000000,0.000000,0.000000
1694167903.156681,139121.000000,1694167903.149821,0.000000,0.000000,0.000000,0.000000,0.000000,0.000000
1694167903.165201,139122.000000,1694167903.160005,0.000000,0.000000,0.000000,0.000000,0.000000,0.000000
1694167903.176580,139123.000000,1694167903.168668,0.000000,0.000000,0.000000,0.000000,0.000000,0.000000
1694167903.188417,139124.000000,1694167903.178424,0.000000,0.000000,0.000000,0.000000,0.000000,0.000000
1694167903.200213,139125.000000,1694167903.192293,0.000000,0.000000,0.000000,0.000000,0.000000,0.000000
1694167903.204561,139126.000000,1694167903.198493,0.000000,0.000000,0.000000,0.000000,0.000000,0.000000
1694167903.215084,139127.000000,1694167903.208841,0.000000,0.000000,0.000000,0.000000,0.000000,0.000000
1694167903.226963,139128.000000,1694167903.220751,0.000000,0.000000,0.000000,0.000000,0.000000,0.000000
1694167903.233921,139129.000000,1694167903.229935,0.000000,0.000000,0.000000,0.000000,0.000000,0.000000
1694167903.241892,139130.000000,1694167903.238684,0.000000,0.000000,0.000000,0.000000,0.000000,0.000000
1694167903.256017,139131.000000,1694167903.248527,0.000000,0.000000,0.000000,0.000000,0.000000,0.000000
1694167903.269288,139132.000000,1694167903.258442,0.000000,0.000000,0.000000,0.000000,0.000000,0.000000
1694167903.277306,139133.000000,1694167903.270286,0.000000,0.000000,0.000000,0.000000,0.000000,0.000000
1694167903.286077,139134.000000,1694167903.278631,0.000000,0.000000,0.000000,0.000000,0.000000,0.000000
1694167903.292989,139135.000000,1694167903.289324,0.000000,0.000000,0.000000,0.000000,0.000000,0.000000
1694167903.304489,139136.000000,1694167903.298521,0.000000,0.000000,0.000000,0.000000,0.000000,0.000000
1694167903.326448,139137.000000,1694167903.314331,0.000000,0.000000,0.000000,0.000000,0.000000,0.000000
1694167903.333711,139139.000000,1694167903.328619,0.000000,0.000000,0.000000,0.000000,0.000000,0.000000
1694167903.346189,139140.000000,1694167903.338473,0.000000,0.000000,0.000000,0.000000,0.000000,0.000000
1694167903.353620,139141.000000,1694167903.349383,0.000000,0.000000,0.000000,0.000000,0.000000,0.000000
1694167903.361922,139142.000000,1694167903.358486,0.000000,0.000000,0.000000,0.000000,0.000000,0.000000
1694167903.374888,139143.000000,1694167903.369191,0.000000,0.000000,0.000000,0.000000,0.000000,0.000000
1694167903.383717,139144.000000,1694167903.378632,0.000000,0.000000,0.000000,0.000000,0.000000,0.000000
1694167903.396216,139145.000000,1694167903.388420,0.000000,0.000000,0.000000,0.000000,0.000000,0.000000
1694167903.406096,139146.000000,1694167903.398612,0.000000,0.000000,0.000000,0.000000,0.000000,0.000000
1694167903.412509,139147.000000,1694167903.408499,0.000000,0.000000,0.000000,0.000000,0.000000,0.000000
1694167903.423213,139148.000000,1694167903.418489,0.000000,0.000000,0.000000,0.000000,0.000000,0.000000
1694167903.433906,139149.000000,1694167903.428637,0.000000,0.000000,0.000000,0.000000,0.000000,0.000000
1694167903.442605,139150.000000,1694167903.438644,0.000000,0.000000,0.000000,0.000000,0.000000,0.000000
1694167903.452427,139151.000000,1694167903.448657,0.000000,0.000000,0.000000,0.000000,0.000000,0.000000
1694167903.461890,139152.000000,1694167903.458373,0.000228,-0.000014,0.000193,-0.000003,0.000014,0.000004
1694167903.471850,139153.000000,1694167903.468615,0.002390,-0.000164,0.001998,-0.000032,0.000151,0.000040
1694167903.490319,139154.000000,1694167903.482059,0.003563,-0.000281,0.002940,-0.000047,0.000224,0.000059
1694167903.500688,139155.000000,1694167903.495331,0.005463,-0.000494,0.004454,-0.000071,0.000342,0.000088
1694167903.504238,139156.000000,1694167903.498680,0.008311,-0.000837,0.006704,-0.000107,0.000517,0.000133
1694167903.512639,139157.000000,1694167903.508577,0.011293,-0.001230,0.009019,-0.000142,0.000698,0.000179
1694167903.523446,139158.000000,1694167903.518903,0.013399,-0.001560,0.010593,-0.000166,0.000825,0.000211
1694167903.534036,139159.000000,1694167903.528706,0.013468,-0.001676,0.010496,-0.000165,0.000826,0.000211
1694167903.549585,139160.000000,1694167903.539538,0.011147,-0.001481,0.008522,-0.000135,0.000682,0.000174
1694167903.560690,139161.000000,1694167903.550806,0.007162,-0.001008,0.005369,-0.000086,0.000438,0.000112
1694167903.567875,139162.000000,1694167903.558504,0.000809,-0.000121,0.000596,-0.000010,0.000050,0.000013
1694167903.575346,139163.000000,1694167903.569637,0.000000,0.000000,0.000000,0.000000,0.000000,0.000000
1694167903.605799,139164.000000,1694167903.579000,0.000000,0.000000,0.000000,0.000000,0.000000,0.000000
1694167903.616653,139167.000000,1694167903.608605,0.000000,0.000000,0.000000,0.000000,0.000000,0.000000
1694167903.631020,139168.000000,1694167903.621007,0.000000,0.000000,0.000000,0.000000,0.000000,0.000000
1694167903.638430,139169.000000,1694167903.628917,0.000000,0.000000,0.000000,0.000000,0.000000,0.000000
1694167903.649569,139170.000000,1694167903.642462,0.000000,0.000000,0.000000,0.000000,0.000000,0.000000
1694167903.656353,139171.000000,1694167903.648871,0.000000,0.000000,0.000000,0.000000,0.000000,0.000000
1694167903.667083,139172.000000,1694167903.658767,0.000000,0.000000,0.000000,0.000000,0.000000,0.000000
1694167903.679234,139173.000000,1694167903.669048,0.000000,0.000000,0.000000,0.000000,0.000000,0.000000
1694167903.687632,139174.000000,1694167903.678938,0.000000,0.000000,0.000000,0.000000,0.000000,0.000000
1694167903.700641,139175.000000,1694167903.688673,0.000000,0.000000,0.000000,0.000000,0.000000,0.000000
1694167903.711972,139176.000000,1694167903.698434,0.000000,0.000000,0.000000,0.000000,0.000000,0.000000
1694167903.721625,139177.000000,1694167903.708551,0.000000,0.000000,0.000000,0.000000,0.000000,0.000000
1694167903.730869,139178.000000,1694167903.722671,0.000000,0.000000,0.000000,0.000000,0.000000,0.000000
1694167903.736140,139179.000000,1694167903.728904,0.000000,0.000000,0.000000,0.000000,0.000000,0.000000
1694167903.743976,139180.000000,1694167903.738473,0.000000,0.000000,0.000000,0.000000,0.000000,0.000000
1694167903.758269,139181.000000,1694167903.749376,0.000000,0.000000,0.000000,0.000000,0.000000,0.000000
1694167903.766061,139182.000000,1694167903.758663,0.000000,0.000000,0.000000,0.000000,0.000000,0.000000
1694167903.774763,139183.000000,1694167903.771020,0.000000,0.000000,0.000000,0.000000,0.000000,0.000000
1694167903.784455,139184.000000,1694167903.778533,0.000000,0.000000,0.000000,0.000000,0.000000,0.000000
1694167903.791634,139185.000000,1694167903.788504,0.000000,0.000000,0.000000,0.000000,0.000000,0.000000
1694167903.806049,139186.000000,1694167903.798538,0.000000,0.000000,0.000000,0.000000,0.000000,0.000000
1694167903.813949,139187.000000,1694167903.808491,0.000000,0.000000,0.000000,0.000000,0.000000,0.000000
1694167903.822988,139188.000000,1694167903.818509,0.000000,0.000000,0.000000,0.000000,0.000000,0.000000
1694167903.836350,139189.000000,1694167903.832502,0.000000,0.000000,0.000000,0.000000,0.000000,0.000000
1694167903.846263,139190.000000,1694167903.838565,0.000000,0.000000,0.000000,0.000000,0.000000,0.000000
1694167903.857632,139191.000000,1694167903.849674,0.000000,0.000000,0.000000,0.000000,0.000000,0.000000
1694167903.868515,139192.000000,1694167903.864062,0.000000,0.000000,0.000000,0.000000,0.000000,0.000000
1694167903.873621,139193.000000,1694167903.869001,0.000000,0.000000,0.000000,0.000000,0.000000,0.000000
1694167903.886522,139194.000000,1694167903.881703,0.000000,0.000000,0.000000,0.000000,0.000000,0.000000
1694167903.897081,139195.000000,1694167903.890499,0.007591,-0.000614,0.004995,-0.000087,0.000459,0.000134
1694167903.905978,139196.000000,1694167903.899107,0.014776,-0.001014,0.009705,-0.000170,0.000885,0.000258
1694167903.920402,139197.000000,1694167903.915166,0.021296,-0.001242,0.013962,-0.000245,0.001266,0.000367
1694167903.935770,139198.000000,1694167903.919517,0.027010,-0.001367,0.017671,-0.000310,0.001593,0.000459
1694167903.942652,139199.000000,1694167903.928613,0.031252,-0.001460,0.020405,-0.000358,0.001832,0.000525
1694167903.954769,139200.000000,1694167903.942759,0.034276,-0.001565,0.022349,-0.000391,0.002000,0.000569
1694167903.960725,139201.000000,1694167903.953174,0.038485,-0.001791,0.025071,-0.000436,0.002235,0.000631
1694167903.969831,139202.000000,1694167903.961014,0.044033,-0.002186,0.028656,-0.000493,0.002543,0.000712
1694167903.981448,139203.000000,1694167903.968651,0.048687,-0.002676,0.031616,-0.000538,0.002798,0.000778
1694167903.990302,139204.000000,1694167903.982542,0.052252,-0.003249,0.033787,-0.000569,0.002990,0.000827
1694167903.996626,139205.000000,1694167903.988616,0.054869,-0.003851,0.035231,-0.000590,0.003126,0.000861
1694167904.007329,139206.000000,1694167903.998478,0.055030,-0.004242,0.034916,-0.000586,0.003124,0.000856
1694167904.015163,139207.000000,1694167904.008621,0.053005,-0.004408,0.033082,-0.000561,0.002999,0.000817
1694167904.022062,139208.000000,1694167904.018595,0.050900,-0.004568,0.031224,-0.000533,0.002870,0.000777
1694167904.035927,139209.000000,1694167904.028777,0.049155,-0.004767,0.029662,-0.000509,0.002762,0.000744
1694167904.047252,139210.000000,1694167904.038844,0.047196,-0.004939,0.027981,-0.000483,0.002644,0.000708
1694167904.055521,139211.000000,1694167904.048391,0.045802,-0.005165,0.026580,-0.000462,0.002554,0.000681
1694167904.064675,139212.000000,1694167904.058447,0.045320,-0.005539,0.025680,-0.000450,0.002513,0.000666
1694167904.072546,139213.000000,1694167904.068478,0.044655,-0.005923,0.024694,-0.000436,0.002462,0.000649
1694167904.083875,139214.000000,1694167904.078531,0.042915,-0.006111,0.023208,-0.000414,0.002356,0.000619
1694167904.092085,139215.000000,1694167904.088649,0.039517,-0.005968,0.021001,-0.000377,0.002166,0.000566
1694167904.109715,139216.000000,1694167904.098900,0.035340,-0.005584,0.018508,-0.000335,0.001936,0.000504
1694167904.117534,139217.000000,1694167904.111593,0.032490,-0.005296,0.016787,-0.000306,0.001779,0.000461
1694167904.126222,139218.000000,1694167904.118420,0.030913,-0.005111,0.015773,-0.000288,0.001689,0.000436
1694167904.135212,139219.000000,1694167904.128781,0.029352,-0.004814,0.014785,-0.000272,0.001600,0.000412
1694167904.144456,139220.000000,1694167904.138443,0.028528,-0.004601,0.014201,-0.000263,0.001551,0.000397
1694167904.155881,139221.000000,1694167904.150585,0.029541,-0.004709,0.014558,-0.000271,0.001598,0.000407
1694167904.165104,139222.000000,1694167904.160014,0.031568,-0.004948,0.015442,-0.000288,0.001699,0.000429
1694167904.173896,139223.000000,1694167904.168491,0.033112,-0.005052,0.016167,-0.000303,0.001776,0.000445
1694167904.185922,139224.000000,1694167904.178610,0.034383,-0.005114,0.016860,-0.000315,0.001840,0.000457
1694167904.194404,139225.000000,1694167904.189551,0.036048,-0.005249,0.017824,-0.000330,0.001926,0.000474
1694167904.207277,139226.000000,1694167904.199533,0.037666,-0.005353,0.018828,-0.000345,0.002011,0.000490
1694167904.218632,139227.000000,1694167904.208744,0.039583,-0.005491,0.020057,-0.000362,0.002113,0.000511
1694167904.226986,139228.000000,1694167904.218459,0.041695,-0.005682,0.021462,-0.000382,0.002227,0.000536
1694167904.235168,139229.000000,1694167904.228638,0.043078,-0.005792,0.022591,-0.000394,0.002306,0.000552
1694167904.243876,139230.000000,1694167904.238531,0.044071,-0.005851,0.023662,-0.000404,0.002369,0.000563
1694167904.255445,139231.000000,1694167904.248918,0.044862,-0.005863,0.024742,-0.000412,0.002425,0.000574
1694167904.266951,139232.000000,1694167904.262404,0.045299,-0.005801,0.025660,-0.000419,0.002465,0.000583
1694167904.276123,139233.000000,1694167904.268525,0.045837,-0.005734,0.026622,-0.000426,0.002511,0.000593
1694167904.285628,139234.000000,1694167904.278750,0.046426,-0.005644,0.027595,-0.000434,0.002560,0.000604
1694167904.292785,139235.000000,1694167904.288520,0.047492,-0.005542,0.028837,-0.000447,0.002634,0.000621
1694167904.309120,139236.000000,1694167904.300517,0.049885,-0.005488,0.030924,-0.000472,0.002779,0.000655
1694167904.317110,139237.000000,1694167904.308522,0.052299,-0.005346,0.033121,-0.000499,0.002927,0.000691
1694167904.325595,139238.000000,1694167904.318623,0.053421,-0.005042,0.034480,-0.000512,0.003005,0.000712
1694167904.332745,139239.000000,1694167904.329167,0.054009,-0.004725,0.035390,-0.000520,0.003052,0.000727
1694167904.344593,139240.000000,1694167904.338892,0.055665,-0.004600,0.036985,-0.000538,0.003155,0.000757
1694167904.353691,139241.000000,1694167904.348654,0.058235,-0.004646,0.039240,-0.000565,0.003308,0.000800
1694167904.368728,139242.000000,1694167904.359607,0.059501,-0.004660,0.040682,-0.000580,0.003392,0.000828
1694167904.378444,139243.000000,1694167904.368479,0.058950,-0.004571,0.040864,-0.000579,0.003378,0.000833
1694167904.384578,139244.000000,1694167904.378491,0.058033,-0.004410,0.040636,-0.000575,0.003340,0.000833
1694167904.394529,139245.000000,1694167904.388538,0.057754,-0.004190,0.040762,-0.000576,0.003336,0.000841
1694167904.411098,139246.000000,1694167904.399047,0.059279,-0.003962,0.042221,-0.000595,0.003432,0.000875
1694167904.418281,139247.000000,1694167904.408915,0.062854,-0.003705,0.045239,-0.000635,0.003641,0.000938
1694167904.426916,139248.000000,1694167904.418650,0.067019,-0.003397,0.048771,-0.000685,0.003883,0.001012
1694167904.436604,139249.000000,1694167904.430562,0.071166,-0.003175,0.052232,-0.000736,0.004121,0.001086
1694167904.444591,139250.000000,1694167904.438497,0.075587,-0.003172,0.055592,-0.000789,0.004365,0.001162
1694167904.457225,139251.000000,1694167904.448472,0.080230,-0.003429,0.058851,-0.000842,0.004613,0.001241
1694167904.466321,139252.000000,1694167904.458502,0.085035,-0.003942,0.062205,-0.000895,0.004867,0.001321
1694167904.472835,139253.000000,1694167904.468510,0.090528,-0.004624,0.066161,-0.000953,0.005157,0.001413
1694167904.483520,139254.000000,1694167904.478479,0.096992,-0.005393,0.070953,-0.001020,0.005498,0.001522
1694167904.492400,139255.000000,1694167904.488819,0.104009,-0.006314,0.076143,-0.001092,0.005862,0.001636
1694167904.504169,139256.000000,1694167904.499015,0.110387,-0.007383,0.080702,-0.001156,0.006183,0.001737
1694167904.513351,139257.000000,1694167904.508510,0.115349,-0.008470,0.084154,-0.001207,0.006425,0.001816
1694167904.521624,139258.000000,1694167904.518488,0.120934,-0.009585,0.088097,-0.001265,0.006696,0.001904
1694167904.534380,139259.000000,1694167904.528505,0.129053,-0.010741,0.093826,-0.001347,0.007088,0.002027
1694167904.544911,139260.000000,1694167904.541529,0.137530,-0.011809,0.099707,-0.001432,0.007490,0.002155
1694167904.552271,139261.000000,1694167904.548527,0.143580,-0.012716,0.103860,-0.001492,0.007769,0.002249
1694167904.568068,139262.000000,1694167904.558849,0.146696,-0.013426,0.105993,-0.001524,0.007907,0.002304
1694167904.574539,139263.000000,1694167904.568407,0.147178,-0.013954,0.106230,-0.001530,0.007923,0.002320
1694167904.587749,139264.000000,1694167904.578432,0.146316,-0.014350,0.105364,-0.001522,0.007876,0.002315
1694167904.598362,139265.000000,1694167904.588504,0.145718,-0.014622,0.104541,-0.001518,0.007840,0.002310
1694167904.607115,139266.000000,1694167904.598540,0.146147,-0.014860,0.104339,-0.001523,0.007853,0.002315
1694167904.616000,139267.000000,1694167904.608541,0.147598,-0.015130,0.104757,-0.001536,0.007916,0.002330
1694167904.624976,139268.000000,1694167904.619626,0.149760,-0.015400,0.105839,-0.001554,0.008021,0.002354
1694167904.636311,139269.000000,1694167904.628651,0.152979,-0.015715,0.107955,-0.001580,0.008184,0.002395
1694167904.648632,139270.000000,1694167904.644884,0.157318,-0.016027,0.110900,-0.001613,0.008401,0.002449
1694167904.655425,139271.000000,1694167904.648466,0.162333,-0.016090,0.114193,-0.001653,0.008643,0.002507
1694167904.673004,139272.000000,1694167904.659114,0.167395,-0.015777,0.117460,-0.001695,0.008880,0.002558
1694167904.681998,139273.000000,1694167904.668508,0.170832,-0.015010,0.119674,-0.001723,0.009040,0.002584
1694167904.685789,139274.000000,1694167904.678478,0.171963,-0.013870,0.120321,-0.001731,0.009094,0.002582
1694167904.705963,139275.000000,1694167904.702651,0.171299,-0.012605,0.119596,-0.001724,0.009066,0.002557
1694167904.718761,139276.000000,1694167904.710515,0.167871,-0.011230,0.116577,-0.001694,0.008900,0.002494
1694167904.724136,139278.000000,1694167904.718497,0.151568,-0.008301,0.103288,-0.001546,0.008093,0.002236
1694167904.733754,139279.000000,1694167904.728586,0.140925,-0.006462,0.094932,-0.001449,0.007560,0.002073
1694167904.746408,139280.000000,1694167904.738488,0.130658,-0.004576,0.087006,-0.001356,0.007040,0.001915
1694167904.758271,139281.000000,1694167904.748644,0.121355,-0.002970,0.080044,-0.001270,0.006567,0.001772
1694167904.768062,139282.000000,1694167904.758468,0.111890,-0.001712,0.073459,-0.001180,0.006093,0.001631
1694167904.780195,139283.000000,1694167904.768628,0.100582,-0.000907,0.066273,-0.001071,0.005534,0.001473
1694167904.789423,139284.000000,1694167904.778490,0.087241,-0.000501,0.057979,-0.000940,0.004865,0.001291
1694167904.797604,139285.000000,1694167904.788518,0.072281,-0.000295,0.048320,-0.000787,0.004090,0.001084
1694167904.814673,139286.000000,1694167904.798925,0.056238,-0.000188,0.037692,-0.000620,0.003232,0.000855
1694167904.871798,139288.000000,1694167904.818481,0.026758,-0.000170,0.017888,-0.000302,0.001582,0.000417
1694167904.872395,139291.000000,1694167904.848604,0.000000,0.000000,0.000000,0.000000,0.000000,0.000000
1694167904.882773,139293.000000,1694167904.869537,0.000000,0.000000,0.000000,0.000000,0.000000,0.000000
1694167904.885165,139294.000000,1694167904.878853,0.000000,0.000000,0.000000,0.000000,0.000000,0.000000
1694167904.893119,139295.000000,1694167904.888522,0.000000,0.000000,0.000000,0.000000,0.000000,0.000000
1694167904.905542,139296.000000,1694167904.898469,0.000000,0.000000,0.000000,0.000000,0.000000,0.000000
1694167904.918533,139297.000000,1694167904.908610,0.000000,0.000000,0.000000,0.000000,0.000000,0.000000
1694167904.928740,139298.000000,1694167904.918489,0.000000,0.000000,0.000000,0.000000,0.000000,0.000000
1694167904.943660,139299.000000,1694167904.928544,0.000000,0.000000,0.000000,0.000000,0.000000,0.000000
1694167904.953929,139300.000000,1694167904.943271,0.000000,0.000000,0.000000,0.000000,0.000000,0.000000
1694167904.957974,139301.000000,1694167904.948479,0.000000,0.000000,0.000000,0.000000,0.000000,0.000000
1694167904.972747,139302.000000,1694167904.963145,0.000000,0.000000,0.000000,0.000000,0.000000,0.000000
1694167904.988441,139303.000000,1694167904.968528,0.000000,0.000000,0.000000,0.000000,0.000000,0.000000
1694167904.991313,139304.000000,1694167904.978511,0.000000,0.000000,0.000000,0.000000,0.000000,0.000000
1694167905.002120,139305.000000,1694167904.991737,0.000000,0.000000,0.000000,0.000000,0.000000,0.000000
1694167905.012764,139306.000000,1694167904.998545,0.000000,0.000000,0.000000,0.000000,0.000000,0.000000
1694167905.017962,139307.000000,1694167905.008656,0.000000,0.000000,0.000000,0.000000,0.000000,0.000000
1694167905.030663,139308.000000,1694167905.018415,0.000000,0.000000,0.000000,0.000000,0.000000,0.000000
1694167905.040011,139309.000000,1694167905.030573,0.000000,0.000000,0.000000,0.000000,0.000000,0.000000
1694167905.046770,139310.000000,1694167905.041647,0.000000,0.000000,0.000000,0.000000,0.000000,0.000000
1694167905.055632,139311.000000,1694167905.048799,0.000000,0.000000,0.000000,0.000000,0.000000,0.000000
1694167905.062098,139312.000000,1694167905.058436,0.000000,0.000000,0.000000,0.000000,0.000000,0.000000
1694167905.077580,139313.000000,1694167905.068473,0.000000,0.000000,0.000000,0.000000,0.000000,0.000000
1694167905.088422,139314.000000,1694167905.078646,0.000000,0.000000,0.000000,0.000000,0.000000,0.000000
1694167905.097535,139315.000000,1694167905.088403,0.000000,0.000000,0.000000,0.000000,0.000000,0.000000
1694167905.105148,139316.000000,1694167905.098445,0.000000,0.000000,0.000000,0.000000,0.000000,0.000000
1694167905.112439,139317.000000,1694167905.108853,0.000000,0.000000,0.000000,0.000000,0.000000,0.000000
1694167905.125100,139318.000000,1694167905.118510,0.000000,0.000000,0.000000,0.000000,0.000000,0.000000
1694167905.136753,139319.000000,1694167905.129562,0.000000,0.000000,0.000000,0.000000,0.000000,0.000000
1694167905.146052,139320.000000,1694167905.138466,0.000000,0.000000,0.000000,0.000000,0.000000,0.000000
1694167905.155950,139321.000000,1694167905.148836,0.000000,0.000000,0.000000,0.000000,0.000000,0.000000
1694167905.164688,139322.000000,1694167905.159653,0.000000,0.000000,0.000000,0.000000,0.000000,0.000000
1694167905.182806,139323.000000,1694167905.168468,0.003596,-0.000673,0.001371,-0.000036,0.000197,0.000054
1694167905.191467,139324.000000,1694167905.178431,0.007649,-0.001467,0.002935,-0.000077,0.000418,0.000113
1694167905.199381,139325.000000,1694167905.188507,0.010483,-0.002054,0.004080,-0.000106,0.000572,0.000155
1694167905.208914,139326.000000,1694167905.198600,0.011087,-0.002190,0.004401,-0.000112,0.000606,0.000164
1694167905.218213,139327.000000,1694167905.208472,0.008725,-0.001714,0.003540,-0.000089,0.000479,0.000129
1694167905.226827,139328.000000,1694167905.218592,0.003413,-0.000662,0.001416,-0.000035,0.000189,0.000051
1694167905.238546,139329.000000,1694167905.228797,0.000000,0.000000,0.000000,0.000000,0.000000,0.000000
1694167905.247574,139330.000000,1694167905.238477,0.000000,0.000000,0.000000,0.000000,0.000000,0.000000
1694167905.256994,139331.000000,1694167905.248469,0.000000,0.000000,0.000000,0.000000,0.000000,0.000000
1694167905.265147,139332.000000,1694167905.258553,0.000000,0.000000,0.000000,0.000000,0.000000,0.000000
1694167905.275683,139333.000000,1694167905.268564,0.000000,0.000000,0.000000,0.000000,0.000000,0.000000
1694167905.291759,139334.000000,1694167905.278485,0.000000,0.000000,0.000000,0.000000,0.000000,0.000000
1694167905.302487,139335.000000,1694167905.288715,0.000000,0.000000,0.000000,0.000000,0.000000,0.000000
1694167905.311507,139336.000000,1694167905.298732,0.000000,0.000000,0.000000,0.000000,0.000000,0.000000
1694167905.323976,139337.000000,1694167905.309145,0.000000,0.000000,0.000000,0.000000,0.000000,0.000000
1694167905.336799,139338.000000,1694167905.318509,0.000000,0.000000,0.000000,0.000000,0.000000,0.000000
1694167905.345285,139340.000000,1694167905.338560,0.000000,0.000000,0.000000,0.000000,0.000000,0.000000
1694167905.356999,139341.000000,1694167905.348493,0.000000,0.000000,0.000000,0.000000,0.000000,0.000000
1694167905.365308,139342.000000,1694167905.360149,0.000000,0.000000,0.000000,0.000000,0.000000,0.000000
1694167905.375057,139343.000000,1694167905.368635,0.000000,0.000000,0.000000,0.000000,0.000000,0.000000
1694167905.381508,139344.000000,1694167905.378634,0.000000,0.000000,0.000000,0.000000,0.000000,0.000000
1694167905.399678,139345.000000,1694167905.389729,0.000000,0.000000,0.000000,0.000000,0.000000,0.000000
1694167905.409305,139346.000000,1694167905.398641,0.000000,0.000000,0.000000,0.000000,0.000000,0.000000
1694167905.414991,139347.000000,1694167905.408519,0.000000,0.000000,0.000000,0.000000,0.000000,0.000000
1694167905.421777,139348.000000,1694167905.418453,0.000000,0.000000,0.000000,0.000000,0.000000,0.000000
1694167905.439176,139349.000000,1694167905.428696,0.000000,0.000000,0.000000,0.000000,0.000000,0.000000
1694167905.448456,139350.000000,1694167905.438502,0.000000,0.000000,0.000000,0.000000,0.000000,0.000000
1694167905.460996,139351.000000,1694167905.448509,0.000000,0.000000,0.000000,0.000000,0.000000,0.000000
1694167905.467656,139352.000000,1694167905.458678,0.000000,0.000000,0.000000,0.000000,0.000000,0.000000
1694167905.480130,139353.000000,1694167905.468512,0.000000,0.000000,0.000000,0.000000,0.000000,0.000000
1694167905.484534,139354.000000,1694167905.478473,0.000000,0.000000,0.000000,0.000000,0.000000,0.000000
1694167905.498518,139355.000000,1694167905.488473,0.000000,0.000000,0.000000,0.000000,0.000000,0.000000
1694167905.504551,139356.000000,1694167905.498546,0.000000,0.000000,0.000000,0.000000,0.000000,0.000000
1694167905.511225,139357.000000,1694167905.508617,0.000000,0.000000,0.000000,0.000000,0.000000,0.000000
1694167905.522077,139358.000000,1694167905.518479,0.000000,0.000000,0.000000,0.000000,0.000000,0.000000
1694167905.546019,139359.000000,1694167905.530833,0.000000,0.000000,0.000000,0.000000,0.000000,0.000000
1694167905.553916,139360.000000,1694167905.543316,0.000000,0.000000,0.000000,0.000000,0.000000,0.000000
1694167905.563596,139361.000000,1694167905.549492,0.000000,0.000000,0.000000,0.000000,0.000000,0.000000
1694167905.565645,139362.000000,1694167905.558476,0.000000,0.000000,0.000000,0.000000,0.000000,0.000000
1694167905.577022,139363.000000,1694167905.568722,0.000000,0.000000,0.000000,0.000000,0.000000,0.000000
1694167905.583817,139364.000000,1694167905.578490,0.000000,0.000000,0.000000,0.000000,0.000000,0.000000
1694167905.594507,139365.000000,1694167905.588480,0.001324,0.000111,0.000617,-0.000015,0.000073,0.000017
1694167905.606976,139366.000000,1694167905.598727,0.011496,0.000856,0.005313,-0.000131,0.000629,0.000145
1694167905.614227,139367.000000,1694167905.608479,0.022528,0.001475,0.010317,-0.000253,0.001217,0.000280
1694167905.622752,139368.000000,1694167905.618458,0.034791,0.002008,0.015774,-0.000385,0.001856,0.000424
1694167905.632413,139369.000000,1694167905.628527,0.046998,0.002438,0.021099,-0.000514,0.002476,0.000564
1694167905.643908,139370.000000,1694167905.638520,0.059394,0.002697,0.026329,-0.000642,0.003089,0.000701
1694167905.658824,139371.000000,1694167905.648603,0.071520,0.002636,0.031032,-0.000764,0.003670,0.000830
1694167905.670224,139372.000000,1694167905.658426,0.082424,0.002286,0.034687,-0.000871,0.004173,0.000941
1694167905.678145,139373.000000,1694167905.670618,0.093324,0.001792,0.037927,-0.000974,0.004664,0.001047
1694167905.686738,139374.000000,1694167905.678402,0.105101,0.001141,0.041267,-0.001082,0.005187,0.001159
1694167905.697387,139375.000000,1694167905.688476,0.116708,0.000329,0.044287,-0.001185,0.005696,0.001267
1694167905.706455,139376.000000,1694167905.700683,0.126638,-0.000539,0.046447,-0.001272,0.006122,0.001358
1694167905.713010,139377.000000,1694167905.708518,0.134215,-0.001502,0.047798,-0.001335,0.006442,0.001428
1694167905.723527,139378.000000,1694167905.718498,0.139458,-0.002619,0.048437,-0.001375,0.006659,0.001475
1694167905.732513,139379.000000,1694167905.728513,0.141801,-0.003647,0.048148,-0.001390,0.006753,0.001493
1694167905.742584,139380.000000,1694167905.738753,0.140466,-0.004152,0.046901,-0.001375,0.006692,0.001475
1694167905.756150,139381.000000,1694167905.748726,0.136177,-0.004097,0.045086,-0.001336,0.006507,0.001430
1694167905.762652,139382.000000,1694167905.758509,0.130545,-0.003923,0.043115,-0.001285,0.006266,0.001371
1694167905.775141,139383.000000,1694167905.769927,0.124489,-0.003855,0.041282,-0.001228,0.006009,0.001311
1694167905.783593,139384.000000,1694167905.778505,0.118000,-0.003857,0.039624,-0.001167,0.005734,0.001249
1694167905.800518,139385.000000,1694167905.788465,0.111361,-0.003907,0.038142,-0.001104,0.005454,0.001190
1694167905.809222,139386.000000,1694167905.798494,0.105721,-0.003924,0.037109,-0.001050,0.005217,0.001144
1694167905.817119,139387.000000,1694167905.808632,0.101785,-0.003949,0.036698,-0.001010,0.005057,0.001117
1694167905.824919,139388.000000,1694167905.818939,0.099292,-0.004001,0.036852,-0.000983,0.004965,0.001107
1694167905.831711,139389.000000,1694167905.829163,0.097252,-0.003891,0.037193,-0.000960,0.004896,0.001101
1694167905.844243,139390.000000,1694167905.839100,0.095369,-0.003590,0.037616,-0.000939,0.004836,0.001096
1694167905.854864,139391.000000,1694167905.848641,0.093936,-0.003263,0.038356,-0.000923,0.004799,0.001094
1694167905.864865,139392.000000,1694167905.858474,0.092374,-0.002945,0.039160,-0.000906,0.004759,0.001091
1694167905.877702,139393.000000,1694167905.868537,0.090911,-0.002587,0.039941,-0.000892,0.004722,0.001087
1694167905.894613,139394.000000,1694167905.878641,0.089973,-0.002255,0.040851,-0.000883,0.004707,0.001086
1694167905.908327,139395.000000,1694167905.888389,0.089585,-0.002056,0.042012,-0.000878,0.004720,0.001090
1694167905.914125,139397.000000,1694167905.908841,0.091334,-0.002373,0.045155,-0.000886,0.004865,0.001126
1694167905.921104,139398.000000,1694167905.918516,0.092179,-0.002583,0.046354,-0.000887,0.004928,0.001140
1694167905.931650,139399.000000,1694167905.928582,0.092505,-0.002590,0.047094,-0.000883,0.004961,0.001145
1694167905.942292,139400.000000,1694167905.939393,0.091469,-0.002457,0.046912,-0.000868,0.004920,0.001131
1694167905.956439,139401.000000,1694167905.948740,0.088615,-0.002268,0.045597,-0.000839,0.004782,0.001096
1694167905.963643,139402.000000,1694167905.958369,0.084938,-0.002084,0.043716,-0.000804,0.004598,0.001049
1694167905.975567,139403.000000,1694167905.968604,0.082488,-0.001948,0.042273,-0.000779,0.004472,0.001016
1694167905.984378,139404.000000,1694167905.978445,0.081800,-0.001880,0.041582,-0.000770,0.004432,0.001002
1694167905.994618,139405.000000,1694167905.988554,0.081573,-0.001845,0.041143,-0.000766,0.004416,0.000995
1694167906.005262,139406.000000,1694167905.998484,0.081507,-0.001745,0.040798,-0.000766,0.004406,0.000989
1694167906.017891,139407.000000,1694167906.008712,0.081402,-0.001474,0.040317,-0.000768,0.004392,0.000982
1694167906.028384,139408.000000,1694167906.018584,0.079300,-0.001091,0.038822,-0.000755,0.004275,0.000954
1694167906.037314,139409.000000,1694167906.028966,0.074187,-0.000824,0.036025,-0.000714,0.004007,0.000894
1694167906.053511,139410.000000,1694167906.041391,0.066456,-0.000667,0.032128,-0.000647,0.003605,0.000803
1694167906.058131,139411.000000,1694167906.048460,0.056466,-0.000387,0.027229,-0.000556,0.003083,0.000686
1694167906.061785,139412.000000,1694167906.058420,0.046120,0.000002,0.022250,-0.000460,0.002538,0.000565
1694167906.074681,139413.000000,1694167906.069617,0.037155,0.000308,0.018008,-0.000375,0.002060,0.000459
1694167906.085862,139414.000000,1694167906.078475,0.028721,0.000464,0.014011,-0.000294,0.001605,0.000358
1694167906.095094,139415.000000,1694167906.088609,0.019881,0.000483,0.009766,-0.000206,0.001120,0.000251
1694167906.106445,139416.000000,1694167906.098579,0.010725,0.000356,0.005305,-0.000113,0.000610,0.000137
1694167906.116013,139417.000000,1694167906.108505,0.001500,0.000063,0.000747,-0.000016,0.000086,0.000019
1694167906.124464,139418.000000,1694167906.119054,0.000000,0.000000,0.000000,0.000000,0.000000,0.000000
1694167906.135370,139419.000000,1694167906.129532,0.000000,0.000000,0.000000,0.000000,0.000000,0.000000
1694167906.148609,139420.000000,1694167906.138414,0.000000,0.000000,0.000000,0.000000,0.000000,0.000000
1694167906.157149,139421.000000,1694167906.148516,0.000000,0.000000,0.000000,0.000000,0.000000,0.000000
1694167906.167557,139422.000000,1694167906.158593,0.000000,0.000000,0.000000,0.000000,0.000000,0.000000
1694167906.176256,139423.000000,1694167906.168488,0.000000,0.000000,0.000000,0.000000,0.000000,0.000000
1694167906.187148,139424.000000,1694167906.178451,0.000000,0.000000,0.000000,0.000000,0.000000,0.000000
1694167906.198762,139425.000000,1694167906.188638,0.000000,0.000000,0.000000,0.000000,0.000000,0.000000
1694167906.207186,139426.000000,1694167906.199846,0.000000,0.000000,0.000000,0.000000,0.000000,0.000000
1694167906.216051,139427.000000,1694167906.209152,0.000000,0.000000,0.000000,0.000000,0.000000,0.000000
1694167906.227177,139428.000000,1694167906.218832,0.000000,0.000000,0.000000,0.000000,0.000000,0.000000
1694167906.233390,139429.000000,1694167906.228594,0.000000,0.000000,0.000000,0.000000,0.000000,0.000000
1694167906.242251,139430.000000,1694167906.238624,0.000000,0.000000,0.000000,0.000000,0.000000,0.000000
1694167906.254922,139431.000000,1694167906.248455,0.000000,0.000000,0.000000,0.000000,0.000000,0.000000
1694167906.262172,139432.000000,1694167906.258622,0.000000,0.000000,0.000000,0.000000,0.000000,0.000000
1694167906.274570,139433.000000,1694167906.268642,0.000000,0.000000,0.000000,0.000000,0.000000,0.000000
1694167906.282621,139434.000000,1694167906.278491,0.000000,0.000000,0.000000,0.000000,0.000000,0.000000
1694167906.293939,139435.000000,1694167906.288496,0.000000,0.000000,0.000000,0.000000,0.000000,0.000000
1694167906.305221,139436.000000,1694167906.298516,0.000000,0.000000,0.000000,0.000000,0.000000,0.000000
1694167906.317463,139437.000000,1694167906.308496,0.000000,0.000000,0.000000,0.000000,0.000000,0.000000
1694167906.327183,139438.000000,1694167906.318498,0.000000,0.000000,0.000000,0.000000,0.000000,0.000000
1694167906.335118,139439.000000,1694167906.328640,0.000000,0.000000,0.000000,0.000000,0.000000,0.000000
1694167906.347971,139440.000000,1694167906.338554,0.000000,0.000000,0.000000,0.000000,0.000000,0.000000
1694167906.359457,139441.000000,1694167906.353202,0.000000,0.000000,0.000000,0.000000,0.000000,0.000000
1694167906.369272,139442.000000,1694167906.359666,0.000000,0.000000,0.000000,0.000000,0.000000,0.000000
1694167906.378892,139443.000000,1694167906.369851,0.000000,0.000000,0.000000,0.000000,0.000000,0.000000
1694167906.387021,139444.000000,1694167906.378415,0.000000,0.000000,0.000000,0.000000,0.000000,0.000000
1694167906.396642,139445.000000,1694167906.389730,0.000000,0.000000,0.000000,0.000000,0.000000,0.000000
1694167906.407409,139446.000000,1694167906.398726,0.000000,0.000000,0.000000,0.000000,0.000000,0.000000
1694167906.416404,139447.000000,1694167906.410207,0.000000,0.000000,0.000000,0.000000,0.000000,0.000000
1694167906.421914,139448.000000,1694167906.418450,0.000000,0.000000,0.000000,0.000000,0.000000,0.000000
1694167906.431850,139449.000000,1694167906.428506,0.000000,0.000000,0.000000,0.000000,0.000000,0.000000
1694167906.454735,139450.000000,1694167906.441074,0.000000,0.000000,0.000000,0.000000,0.000000,0.000000
1694167906.463843,139451.000000,1694167906.448476,0.000000,0.000000,0.000000,0.000000,0.000000,0.000000
1694167906.467643,139452.000000,1694167906.458440,0.000000,0.000000,0.000000,0.000000,0.000000,0.000000
1694167906.479704,139453.000000,1694167906.469420,0.000000,0.000000,0.000000,0.000000,0.000000,0.000000
1694167906.486303,139454.000000,1694167906.478363,0.000000,0.000000,0.000000,0.000000,0.000000,0.000000
1694167906.494340,139455.000000,1694167906.488497,0.000000,0.000000,0.000000,0.000000,0.000000,0.000000
1694167906.507127,139456.000000,1694167906.498447,0.000000,0.000000,0.000000,0.000000,0.000000,0.000000
1694167906.517146,139457.000000,1694167906.508519,0.000000,0.000000,0.000000,0.000000,0.000000,0.000000
1694167906.525695,139458.000000,1694167906.518492,0.000000,0.000000,0.000000,0.000000,0.000000,0.000000
1694167906.534348,139459.000000,1694167906.529502,0.000000,0.000000,0.000000,0.000000,0.000000,0.000000
1694167906.542836,139460.000000,1694167906.538779,0.000000,0.000000,0.000000,0.000000,0.000000,0.000000
1694167906.552234,139461.000000,1694167906.548494,0.000000,0.000000,0.000000,0.000000,0.000000,0.000000
1694167906.567884,139462.000000,1694167906.558503,0.000000,0.000000,0.000000,0.000000,0.000000,0.000000
1694167906.574350,139463.000000,1694167906.568863,0.000000,0.000000,0.000000,0.000000,0.000000,0.000000
1694167906.583201,139464.000000,1694167906.578468,0.000000,0.000000,0.000000,0.000000,0.000000,0.000000
1694167906.595076,139465.000000,1694167906.588492,0.000000,0.000000,0.000000,0.000000,0.000000,0.000000
1694167906.606794,139466.000000,1694167906.598833,0.000000,0.000000,0.000000,0.000000,0.000000,0.000000
1694167906.621904,139467.000000,1694167906.608604,0.000000,0.000000,0.000000,0.000000,0.000000,0.000000
1694167906.630377,139468.000000,1694167906.618698,0.000000,0.000000,0.000000,0.000000,0.000000,0.000000
1694167906.635455,139469.000000,1694167906.629070,0.000000,0.000000,0.000000,0.000000,0.000000,0.000000
1694167906.646704,139470.000000,1694167906.639018,0.000000,0.000000,0.000000,0.000000,0.000000,0.000000
1694167906.661813,139471.000000,1694167906.648481,0.000000,0.000000,0.000000,0.000000,0.000000,0.000000
1694167906.672535,139472.000000,1694167906.658401,0.000000,0.000000,0.000000,0.000000,0.000000,0.000000
1694167906.680343,139473.000000,1694167906.674159,0.000000,0.000000,0.000000,0.000000,0.000000,0.000000
1694167906.690057,139474.000000,1694167906.678596,0.000000,0.000000,0.000000,0.000000,0.000000,0.000000
1694167906.696089,139475.000000,1694167906.688585,0.000000,0.000000,0.000000,0.000000,0.000000,0.000000
1694167906.707378,139476.000000,1694167906.698411,0.000000,0.000000,0.000000,0.000000,0.000000,0.000000
1694167906.714712,139477.000000,1694167906.708737,0.000000,0.000000,0.000000,0.000000,0.000000,0.000000
1694167906.725541,139478.000000,1694167906.718457,0.000000,0.000000,0.000000,0.000000,0.000000,0.000000
1694167906.734404,139479.000000,1694167906.728477,0.000000,0.000000,0.000000,0.000000,0.000000,0.000000
1694167906.745582,139480.000000,1694167906.738968,0.000000,0.000000,0.000000,0.000000,0.000000,0.000000
1694167906.755365,139481.000000,1694167906.748600,0.001322,0.000001,0.000497,-0.000015,0.000072,0.000015
1694167906.763516,139482.000000,1694167906.758500,0.003687,-0.000016,0.001363,-0.000041,0.000201,0.000042
1694167906.776735,139483.000000,1694167906.768477,0.004052,-0.000040,0.001481,-0.000045,0.000220,0.000046
1694167906.783258,139484.000000,1694167906.778677,0.003086,-0.000047,0.001121,-0.000034,0.000168,0.000035
1694167906.792953,139485.000000,1694167906.788475,0.001805,-0.000039,0.000654,-0.000020,0.000099,0.000021
1694167906.801263,139486.000000,1694167906.798509,0.002324,-0.000066,0.000844,-0.000026,0.000127,0.000027
1694167906.814413,139487.000000,1694167906.808474,0.005434,-0.000183,0.001995,-0.000059,0.000297,0.000062
1694167906.822879,139488.000000,1694167906.818542,0.009994,-0.000379,0.003736,-0.000109,0.000544,0.000114
1694167906.832110,139489.000000,1694167906.828574,0.014218,-0.000614,0.005429,-0.000154,0.000773,0.000163
1694167906.841153,139490.000000,1694167906.838495,0.018003,-0.000899,0.006999,-0.000194,0.000977,0.000207
1694167906.853513,139491.000000,1694167906.848720,0.023008,-0.001298,0.009070,-0.000246,0.001245,0.000264
1694167906.864613,139492.000000,1694167906.858385,0.029587,-0.001835,0.011796,-0.000314,0.001593,0.000338
1694167906.880289,139493.000000,1694167906.874287,0.037779,-0.002523,0.015253,-0.000398,0.002022,0.000430
1694167906.893308,139494.000000,1694167906.878470,0.047272,-0.003339,0.019413,-0.000492,0.002515,0.000536
1694167906.894058,139495.000000,1694167906.888893,0.056845,-0.004245,0.023791,-0.000586,0.003007,0.000643
1694167906.908368,139496.000000,1694167906.898401,0.066533,-0.005251,0.028347,-0.000679,0.003499,0.000750
1694167906.936326,139497.000000,1694167906.922373,0.076938,-0.006366,0.033277,-0.000778,0.004019,0.000864
1694167906.938203,139499.000000,1694167906.928464,0.099523,-0.009036,0.043674,-0.000982,0.005118,0.001112
1694167906.949016,139500.000000,1694167906.938972,0.108518,-0.010288,0.047377,-0.001059,0.005537,0.001210
1694167906.964327,139501.000000,1694167906.954516,0.114520,-0.011447,0.049442,-0.001109,0.005806,0.001274
1694167906.979254,139502.000000,1694167906.958509,0.117957,-0.012688,0.050396,-0.001135,0.005955,0.001312
1694167906.984199,139504.000000,1694167906.978454,0.119069,-0.015225,0.049987,-0.001134,0.005991,0.001327
1694167906.997707,139505.000000,1694167906.988641,0.117794,-0.016333,0.049153,-0.001119,0.005927,0.001316
1694167907.016116,139506.000000,1694167906.998446,0.115888,-0.017298,0.048433,-0.001100,0.005840,0.001298
1694167907.028693,139507.000000,1694167907.008623,0.114007,-0.018174,0.048021,-0.001080,0.005760,0.001284
1694167907.031620,139508.000000,1694167907.018414,0.111150,-0.018930,0.047232,-0.001051,0.005638,0.001259
1694167907.040367,139509.000000,1694167907.028484,0.105169,-0.019275,0.044994,-0.000995,0.005369,0.001199
1694167907.049032,139510.000000,1694167907.039636,0.097565,-0.019211,0.042000,-0.000924,0.005019,0.001119
1694167907.064027,139511.000000,1694167907.048817,0.091259,-0.019068,0.039493,-0.000862,0.004727,0.001050
1694167907.070463,139512.000000,1694167907.058566,0.086087,-0.018895,0.037300,-0.000810,0.004484,0.000990
1694167907.084340,139513.000000,1694167907.070981,0.080029,-0.018358,0.034538,-0.000750,0.004193,0.000918
1694167907.090496,139514.000000,1694167907.078489,0.071648,-0.017110,0.030629,-0.000671,0.003780,0.000820
1694167907.099300,139515.000000,1694167907.088448,0.062575,-0.015526,0.026354,-0.000586,0.003327,0.000714
1694167907.111374,139516.000000,1694167907.098464,0.055051,-0.014167,0.022799,-0.000515,0.002946,0.000626
1694167907.117235,139517.000000,1694167907.108486,0.049084,-0.013079,0.019956,-0.000457,0.002641,0.000556
1694167907.130111,139518.000000,1694167907.118447,0.044466,-0.012266,0.017728,-0.000413,0.002403,0.000502
1694167907.143616,139519.000000,1694167907.128718,0.040557,-0.011548,0.015970,-0.000376,0.002202,0.000458
1694167907.156880,139520.000000,1694167907.139425,0.037255,-0.010873,0.014652,-0.000345,0.002033,0.000422
1694167907.161518,139521.000000,1694167907.148783,0.035414,-0.010518,0.013998,-0.000327,0.001941,0.000404
1694167907.168189,139522.000000,1694167907.158449,0.034667,-0.010395,0.013782,-0.000319,0.001905,0.000399
1694167907.179397,139523.000000,1694167907.172451,0.035146,-0.010555,0.014056,-0.000322,0.001933,0.000407
1694167907.191331,139524.000000,1694167907.178398,0.038232,-0.011407,0.015366,-0.000347,0.002099,0.000444
1694167907.200354,139525.000000,1694167907.188458,0.044641,-0.013160,0.018001,-0.000401,0.002439,0.000517
1694167907.215284,139526.000000,1694167907.198628,0.052644,-0.015330,0.021293,-0.000466,0.002860,0.000609
1694167907.220577,139527.000000,1694167907.208372,0.059282,-0.017056,0.023994,-0.000519,0.003207,0.000686
1694167907.236178,139528.000000,1694167907.218443,0.063400,-0.017965,0.025532,-0.000551,0.003421,0.000734
1694167907.239366,139529.000000,1694167907.228737,0.065772,-0.018221,0.026208,-0.000570,0.003540,0.000761
1694167907.246698,139530.000000,1694167907.241422,0.067937,-0.018225,0.026720,-0.000587,0.003644,0.000785
1694167907.254938,139531.000000,1694167907.249019,0.070564,-0.018209,0.027412,-0.000609,0.003769,0.000812
1694167907.264278,139532.000000,1694167907.258543,0.073647,-0.018195,0.028359,-0.000634,0.003917,0.000845
1694167907.274391,139533.000000,1694167907.268667,0.077355,-0.018184,0.029620,-0.000665,0.004098,0.000883
1694167907.284790,139534.000000,1694167907.278501,0.080943,-0.017999,0.030799,-0.000696,0.004270,0.000919
1694167907.294300,139535.000000,1694167907.288465,0.083294,-0.017415,0.031386,-0.000718,0.004379,0.000940
1694167907.304195,139536.000000,1694167907.298672,0.084291,-0.016427,0.031270,-0.000729,0.004418,0.000945
1694167907.317063,139537.000000,1694167907.308496,0.085071,-0.015389,0.030885,-0.000738,0.004446,0.000946
1694167907.333253,139538.000000,1694167907.318489,0.086775,-0.014591,0.030780,-0.000754,0.004521,0.000958
1694167907.344949,139539.000000,1694167907.328496,0.088619,-0.013865,0.030754,-0.000771,0.004604,0.000971
1694167907.354108,139541.000000,1694167907.348504,0.088854,-0.011917,0.029545,-0.000779,0.004604,0.000962
1694167907.363270,139542.000000,1694167907.358474,0.088307,-0.010915,0.028764,-0.000779,0.004572,0.000950
1694167907.377739,139543.000000,1694167907.368619,0.088265,-0.010229,0.028282,-0.000782,0.004567,0.000943
1694167907.389113,139544.000000,1694167907.378814,0.089015,-0.009884,0.028270,-0.000791,0.004603,0.000945
1694167907.397451,139545.000000,1694167907.388569,0.090901,-0.009753,0.028844,-0.000810,0.004698,0.000959
1694167907.408052,139546.000000,1694167907.398502,0.091804,-0.009500,0.029244,-0.000821,0.004747,0.000965
1694167907.420260,139547.000000,1694167907.408581,0.091115,-0.009031,0.029154,-0.000819,0.004719,0.000955
1694167907.429443,139548.000000,1694167907.418422,0.090294,-0.008494,0.028972,-0.000816,0.004682,0.000943
1694167907.440802,139549.000000,1694167907.429018,0.088903,-0.007940,0.028606,-0.000806,0.004618,0.000927
1694167907.449811,139550.000000,1694167907.438710,0.087673,-0.007580,0.028419,-0.000797,0.004562,0.000913
1694167907.460618,139551.000000,1694167907.448454,0.087109,-0.007462,0.028537,-0.000793,0.004539,0.000905
1694167907.470178,139552.000000,1694167907.458433,0.085514,-0.007350,0.028255,-0.000781,0.004464,0.000887
1694167907.487865,139553.000000,1694167907.468881,0.082720,-0.007210,0.027514,-0.000759,0.004328,0.000856
1694167907.497371,139555.000000,1694167907.488485,0.075004,-0.007141,0.025247,-0.000693,0.003950,0.000772
