__time,/kms40_driver/wrench/header/seq,/kms40_driver/wrench/header/stamp,/kms40_driver/wrench/wrench/force/x,/kms40_driver/wrench/wrench/force/y,/kms40_driver/wrench/wrench/force/z,/kms40_driver/wrench/wrench/torque/x,/kms40_driver/wrench/wrench/torque/y,/kms40_driver/wrench/wrench/torque/z
1696856540.018603,317810.000000000,1696856540.017471313,0.012000000,-0.104000000,0.090000000,0.000000000,0.000000000,0.000000000
1696856540.020496,317811.000000000,1696856540.019428253,0.011000000,-0.103000000,0.092000000,0.000000000,0.000000000,0.000000000
1696856540.022588,317812.000000000,1696856540.021451950,0.011000000,-0.105000000,0.092000000,0.000000000,0.000000000,0.000000000
1696856540.024411,317813.000000000,1696856540.023387432,0.011000000,-0.106000000,0.094000000,0.000000000,0.000000000,0.000000000
1696856540.026431,317814.000000000,1696856540.025405407,0.011000000,-0.108000000,0.093000000,0.000000000,0.000000000,0.000000000
1696856540.028456,317815.000000000,1696856540.027403831,0.011000000,-0.110000000,0.094000000,0.000000000,0.000000000,0.000000000
1696856540.030496,317816.000000000,1696856540.029406548,0.010000000,-0.111000000,0.095000000,0.000000000,0.000000000,0.000000000
1696856540.032737,317817.000000000,1696856540.031434298,0.010000000,-0.110000000,0.095000000,0.000000000,0.000000000,0.000000000
1696856540.034416,317818.000000000,1696856540.033378839,0.010000000,-0.109000000,0.095000000,0.000000000,0.000000000,0.000000000
1696856540.036396,317819.000000000,1696856540.035369873,0.010000000,-0.106000000,0.097000000,0.000000000,0.000000000,0.000000000
1696856540.038461,317820.000000000,1696856540.037398815,0.009000000,-0.104000000,0.099000000,0.000000000,0.000000000,0.000000000
1696856540.040786,317821.000000000,1696856540.039389372,0.009000000,-0.102000000,0.099000000,0.000000000,0.000000000,0.000000000
1696856540.042598,317822.000000000,1696856540.041478395,0.008000000,-0.101000000,0.100000000,0.000000000,0.000000000,0.000000000
1696856540.044422,317823.000000000,1696856540.043369055,0.008000000,-0.102000000,0.099000000,0.000000000,0.000000000,0.000000000
1696856540.046964,317824.000000000,1696856540.045453787,0.008000000,-0.103000000,0.099000000,0.000000000,0.000000000,0.000000000
1696856540.048444,317825.000000000,1696856540.047389269,0.008000000,-0.105000000,0.099000000,0.000000000,0.000000000,0.000000000
1696856540.050447,317826.000000000,1696856540.049403667,0.008000000,-0.106000000,0.098000000,0.000000000,0.000000000,0.000000000
1696856540.052774,317827.000000000,1696856540.051371813,0.009000000,-0.107000000,0.097000000,0.000000000,0.000000000,0.000000000
1696856540.055226,317828.000000000,1696856540.053419590,0.009000000,-0.107000000,0.096000000,0.000000000,0.000000000,0.000000000
1696856540.056439,317829.000000000,1696856540.055380106,0.009000000,-0.106000000,0.097000000,0.000000000,0.000000000,0.000000000
1696856540.059161,317830.000000000,1696856540.057384491,0.009000000,-0.104000000,0.097000000,0.000000000,0.000000000,0.000000000
1696856540.060745,317831.000000000,1696856540.059359550,0.009000000,-0.101000000,0.097000000,0.000000000,0.000000000,0.000000000
1696856540.062596,317832.000000000,1696856540.061556578,0.008000000,-0.099000000,0.098000000,0.000000000,0.000000000,0.000000000
1696856540.064504,317833.000000000,1696856540.063424826,0.008000000,-0.098000000,0.096000000,0.000000000,0.000000000,0.000000000
1696856540.067287,317834.000000000,1696856540.065394878,0.009000000,-0.098000000,0.094000000,0.000000000,0.000000000,0.000000000
1696856540.069368,317835.000000000,1696856540.067536354,0.009000000,-0.098000000,0.093000000,0.000000000,0.000000000,0.000000000
1696856540.070517,317836.000000000,1696856540.069461584,0.009000000,-0.100000000,0.092000000,0.000000000,0.000000000,0.000000000
1696856540.072421,317837.000000000,1696856540.071371078,0.010000000,-0.102000000,0.092000000,0.000000000,0.000000000,0.000000000
1696856540.074427,317838.000000000,1696856540.073383570,0.010000000,-0.103000000,0.090000000,0.000000000,0.000000000,0.000000000
1696856540.076402,317839.000000000,1696856540.075378180,0.011000000,-0.104000000,0.088000000,0.000000000,0.000000000,0.000000000
1696856540.078408,317840.000000000,1696856540.077383995,0.012000000,-0.103000000,0.087000000,0.000000000,0.000000000,0.000000000
1696856540.080683,317841.000000000,1696856540.079401255,0.012000000,-0.101000000,0.087000000,0.000000000,0.000000000,0.000000000
1696856540.082570,317842.000000000,1696856540.081506729,0.012000000,-0.099000000,0.086000000,0.000000000,0.000000000,0.000000000
1696856540.084398,317843.000000000,1696856540.083377361,0.012000000,-0.097000000,0.087000000,0.000000000,0.000000000,0.000000000
1696856540.086891,317844.000000000,1696856540.085418701,0.012000000,-0.096000000,0.086000000,0.000000000,0.000000000,0.000000000
1696856540.088444,317845.000000000,1696856540.087392807,0.012000000,-0.095000000,0.085000000,0.000000000,0.000000000,0.000000000
1696856540.090501,317846.000000000,1696856540.089428425,0.013000000,-0.096000000,0.083000000,0.000000000,0.000000000,0.000000000
1696856540.092424,317847.000000000,1696856540.091407061,0.013000000,-0.098000000,0.082000000,0.000000000,0.000000000,0.000000000
1696856540.094534,317848.000000000,1696856540.093419313,0.014000000,-0.100000000,0.082000000,0.000000000,0.000000000,0.000000000
1696856540.096422,317849.000000000,1696856540.095413923,0.015000000,-0.102000000,0.080000000,0.000000000,0.000000000,0.000000000
1696856540.098403,317850.000000000,1696856540.097390652,0.015000000,-0.103000000,0.079000000,0.000000000,0.000000000,0.000000000
1696856540.100803,317851.000000000,1696856540.099359274,0.016000000,-0.103000000,0.078000000,0.000000000,0.000000000,0.000000000
1696856540.102463,317852.000000000,1696856540.101424217,0.016000000,-0.102000000,0.077000000,0.000000000,0.000000000,0.000000000
1696856540.104384,317853.000000000,1696856540.103354692,0.016000000,-0.100000000,0.078000000,0.000000000,0.000000000,0.000000000
1696856540.106443,317854.000000000,1696856540.105405092,0.016000000,-0.099000000,0.078000000,0.000000000,0.000000000,0.000000000
1696856540.108443,317855.000000000,1696856540.107406378,0.016000000,-0.097000000,0.078000000,0.000000000,0.000000000,0.000000000
1696856540.110559,317856.000000000,1696856540.109472036,0.016000000,-0.097000000,0.078000000,0.000000000,0.000000000,0.000000000
1696856540.112435,317857.000000000,1696856540.111377239,0.016000000,-0.098000000,0.077000000,0.000000000,0.000000000,0.000000000
1696856540.114488,317858.000000000,1696856540.113406897,0.017000000,-0.100000000,0.075000000,0.000000000,0.000000000,0.000000000
1696856540.116517,317859.000000000,1696856540.115438700,0.017000000,-0.102000000,0.076000000,0.000000000,0.000000000,0.000000000
1696856540.119148,317860.000000000,1696856540.117614746,0.018000000,-0.104000000,0.075000000,0.000000000,0.000000000,0.000000000
1696856540.120805,317861.000000000,1696856540.119375706,0.018000000,-0.106000000,0.074000000,0.000000000,0.000000000,0.000000000
1696856540.122425,317862.000000000,1696856540.121402740,0.018000000,-0.107000000,0.074000000,0.000000000,0.000000000,0.000000000
1696856540.124390,317863.000000000,1696856540.123364210,0.019000000,-0.107000000,0.074000000,0.000000000,0.000000000,0.000000000
1696856540.126462,317864.000000000,1696856540.125443697,0.018000000,-0.105000000,0.075000000,0.000000000,0.000000000,0.000000000
1696856540.128692,317865.000000000,1696856540.127418995,0.018000000,-0.104000000,0.075000000,0.000000000,0.000000000,0.000000000
1696856540.130417,317866.000000000,1696856540.129400492,0.018000000,-0.102000000,0.076000000,0.000000000,0.000000000,0.000000000
1696856540.132771,317867.000000000,1696856540.131355286,0.017000000,-0.101000000,0.075000000,0.000000000,0.000000000,0.000000000
1696856540.134377,317868.000000000,1696856540.133359909,0.017000000,-0.102000000,0.075000000,0.000000000,0.000000000,0.000000000
1696856540.136458,317869.000000000,1696856540.135394812,0.017000000,-0.103000000,0.075000000,0.000000000,0.000000000,0.000000000
1696856540.138687,317870.000000000,1696856540.137394190,0.017000000,-0.105000000,0.074000000,0.000000000,0.000000000,0.000000000
1696856540.140838,317871.000000000,1696856540.139388084,0.017000000,-0.107000000,0.074000000,0.000000000,0.000000000,0.000000000
1696856540.142764,317872.000000000,1696856540.141409636,0.017000000,-0.109000000,0.074000000,0.000000000,0.000000000,0.000000000
1696856540.144465,317873.000000000,1696856540.143412113,0.017000000,-0.110000000,0.073000000,0.000000000,0.000000000,0.000000000
1696856540.146685,317874.000000000,1696856540.145645142,0.017000000,-0.110000000,0.073000000,0.000000000,0.000000000,0.000000000
1696856540.148400,317875.000000000,1696856540.147386312,0.016000000,-0.109000000,0.073000000,0.000000000,0.000000000,0.000000000
1696856540.150491,317876.000000000,1696856540.149395466,0.016000000,-0.106000000,0.073000000,0.000000000,0.000000000,0.000000000
1696856540.152448,317877.000000000,1696856540.151416540,0.015000000,-0.104000000,0.073000000,0.000000000,0.000000000,0.000000000
1696856540.154984,317878.000000000,1696856540.153401136,0.015000000,-0.102000000,0.072000000,0.000000000,0.000000000,0.000000000
1696856540.156409,317879.000000000,1696856540.155372143,0.013000000,-0.101000000,0.072000000,0.000000000,0.000000000,0.000000000
1696856540.158456,317880.000000000,1696856540.157399178,0.013000000,-0.101000000,0.071000000,0.000000000,0.000000000,0.000000000
1696856540.161463,317881.000000000,1696856540.159377098,0.013000000,-0.102000000,0.069000000,0.000000000,0.000000000,0.000000000
1696856540.162413,317882.000000000,1696856540.161386728,0.012000000,-0.103000000,0.068000000,0.000000000,0.000000000,0.000000000
1696856540.164422,317883.000000000,1696856540.163379908,0.012000000,-0.104000000,0.066000000,0.000000000,0.000000000,0.000000000
1696856540.166436,317884.000000000,1696856540.165362358,0.012000000,-0.104000000,0.064000000,0.000000000,0.000000000,0.000000000
1696856540.168439,317885.000000000,1696856540.167395115,0.011000000,-0.103000000,0.062000000,0.000000000,0.000000000,0.000000000
1696856540.170432,317886.000000000,1696856540.169410706,0.010000000,-0.101000000,0.061000000,0.000000000,0.000000000,0.000000000
1696856540.172399,317887.000000000,1696856540.171383619,0.009000000,-0.098000000,0.060000000,0.000000000,0.000000000,0.000000000
1696856540.174520,317888.000000000,1696856540.173485041,0.008000000,-0.094000000,0.059000000,0.000000000,0.000000000,0.000000000
1696856540.176484,317889.000000000,1696856540.175401688,0.007000000,-0.091000000,0.058000000,0.000000000,0.000000000,0.001000000
1696856540.178434,317890.000000000,1696856540.177398682,0.006000000,-0.088000000,0.055000000,0.000000000,0.000000000,0.001000000
1696856540.181937,317891.000000000,1696856540.180092335,0.006000000,-0.087000000,0.051000000,0.000000000,0.000000000,0.001000000
1696856540.183097,317892.000000000,1696856540.181650877,0.005000000,-0.087000000,0.047000000,0.000000000,0.000000000,0.001000000
1696856540.184412,317893.000000000,1696856540.183389664,0.005000000,-0.087000000,0.045000000,0.000000000,0.000000000,0.001000000
1696856540.186527,317894.000000000,1696856540.185397148,0.004000000,-0.087000000,0.042000000,0.000000000,0.000000000,0.001000000
1696856540.188388,317895.000000000,1696856540.187365294,0.004000000,-0.087000000,0.039000000,0.000000000,0.000000000,0.001000000
1696856540.190803,317896.000000000,1696856540.189512253,0.004000000,-0.086000000,0.034000000,0.000000000,0.000000000,0.001000000
1696856540.192438,317897.000000000,1696856540.191401958,0.003000000,-0.084000000,0.031000000,0.000000000,0.000000000,0.001000000
1696856540.194470,317898.000000000,1696856540.193383694,0.002000000,-0.081000000,0.028000000,0.000000000,0.000000000,0.001000000
1696856540.196408,317899.000000000,1696856540.195398569,0.002000000,-0.077000000,0.026000000,0.000000000,0.000000000,0.001000000
1696856540.198931,317900.000000000,1696856540.197499990,0.001000000,-0.073000000,0.024000000,0.000000000,0.000000000,0.001000000
1696856540.201255,317901.000000000,1696856540.199396133,0.000000000,-0.071000000,0.020000000,0.000000000,0.000000000,0.001000000
1696856540.202455,317902.000000000,1696856540.201386690,0.000000000,-0.069000000,0.015000000,0.000000000,0.000000000,0.001000000
1696856540.204385,317903.000000000,1696856540.203361750,0.000000000,-0.069000000,0.011000000,0.000000000,0.000000000,0.002000000
1696856540.206501,317904.000000000,1696856540.205402851,0.000000000,-0.069000000,0.008000000,0.000000000,0.000000000,0.002000000
1696856540.208452,317905.000000000,1696856540.207397223,0.000000000,-0.070000000,0.004000000,0.000000000,0.000000000,0.002000000
1696856540.210427,317906.000000000,1696856540.209381104,0.001000000,-0.071000000,0.001000000,0.000000000,0.001000000,0.002000000
1696856540.212453,317907.000000000,1696856540.211386919,0.001000000,-0.071000000,-0.002000000,0.000000000,0.001000000,0.002000000
1696856540.214563,317908.000000000,1696856540.213389874,0.001000000,-0.071000000,-0.005000000,0.000000000,0.001000000,0.002000000
1696856540.216520,317909.000000000,1696856540.215425014,0.002000000,-0.070000000,-0.007000000,0.000000000,0.001000000,0.002000000
1696856540.218699,317910.000000000,1696856540.217454910,0.002000000,-0.067000000,-0.009000000,0.000000000,0.001000000,0.002000000
1696856540.220437,317911.000000000,1696856540.219417572,0.002000000,-0.065000000,-0.011000000,0.000000000,0.001000000,0.002000000
1696856540.222498,317912.000000000,1696856540.221440792,0.003000000,-0.063000000,-0.013000000,0.000000000,0.001000000,0.002000000
1696856540.224482,317913.000000000,1696856540.223444939,0.002000000,-0.063000000,-0.014000000,0.000000000,0.001000000,0.002000000
1696856540.226738,317914.000000000,1696856540.225416422,0.003000000,-0.063000000,-0.016000000,0.000000000,0.001000000,0.002000000
1696856540.228419,317915.000000000,1696856540.227406502,0.004000000,-0.065000000,-0.018000000,0.000000000,0.001000000,0.002000000
1696856540.230721,317916.000000000,1696856540.229450941,0.005000000,-0.068000000,-0.018000000,0.000000000,0.001000000,0.002000000
1696856540.232700,317917.000000000,1696856540.231412888,0.006000000,-0.070000000,-0.019000000,0.000000000,0.001000000,0.002000000
1696856540.234478,317918.000000000,1696856540.233446121,0.007000000,-0.072000000,-0.019000000,0.000000000,0.001000000,0.002000000
1696856540.236446,317919.000000000,1696856540.235400915,0.008000000,-0.074000000,-0.019000000,0.000000000,0.001000000,0.002000000
1696856540.238865,317920.000000000,1696856540.237467051,0.009000000,-0.074000000,-0.019000000,0.000000000,0.001000000,0.002000000
1696856540.241415,317921.000000000,1696856540.239454985,0.010000000,-0.073000000,-0.017000000,0.000000000,0.001000000,0.002000000
1696856540.242552,317922.000000000,1696856540.241472006,0.010000000,-0.072000000,-0.014000000,0.000000000,0.001000000,0.002000000
1696856540.244447,317923.000000000,1696856540.243402719,0.011000000,-0.071000000,-0.013000000,0.000000000,0.001000000,0.002000000
1696856540.246629,317924.000000000,1696856540.245424271,0.011000000,-0.071000000,-0.009000000,0.000000000,0.001000000,0.002000000
1696856540.248521,317925.000000000,1696856540.247416019,0.012000000,-0.072000000,-0.008000000,0.000000000,0.000000000,0.002000000
1696856540.250491,317926.000000000,1696856540.249426126,0.012000000,-0.075000000,-0.006000000,0.000000000,0.000000000,0.002000000
1696856540.252469,317927.000000000,1696856540.251408339,0.013000000,-0.078000000,-0.002000000,0.000000000,0.000000000,0.002000000
1696856540.254538,317928.000000000,1696856540.253404379,0.014000000,-0.081000000,0.000000000,0.000000000,0.001000000,0.002000000
1696856540.256481,317929.000000000,1696856540.255412817,0.014000000,-0.084000000,0.002000000,0.000000000,0.001000000,0.002000000
1696856540.258485,317930.000000000,1696856540.257392883,0.015000000,-0.086000000,0.006000000,0.000000000,0.001000000,0.002000000
1696856540.260479,317931.000000000,1696856540.259382248,0.015000000,-0.087000000,0.010000000,0.000000000,0.001000000,0.002000000
1696856540.263015,317932.000000000,1696856540.261537790,0.016000000,-0.087000000,0.014000000,0.000000000,0.001000000,0.002000000
1696856540.264467,317933.000000000,1696856540.263391733,0.015000000,-0.086000000,0.020000000,0.000000000,0.000000000,0.002000000
1696856540.266429,317934.000000000,1696856540.265383482,0.015000000,-0.085000000,0.025000000,0.000000000,0.000000000,0.001000000
1696856540.268576,317935.000000000,1696856540.267478466,0.014000000,-0.085000000,0.030000000,0.000000000,0.000000000,0.001000000
1696856540.271761,317936.000000000,1696856540.269461870,0.014000000,-0.086000000,0.033000000,0.000000000,0.000000000,0.001000000
1696856540.272550,317937.000000000,1696856540.271384716,0.014000000,-0.087000000,0.038000000,0.000000000,0.000000000,0.001000000
1696856540.274444,317938.000000000,1696856540.273417950,0.014000000,-0.089000000,0.041000000,0.000000000,0.000000000,0.001000000
1696856540.276547,317939.000000000,1696856540.275383472,0.014000000,-0.092000000,0.045000000,0.000000000,0.000000000,0.001000000
1696856540.278461,317940.000000000,1696856540.277378082,0.013000000,-0.095000000,0.049000000,0.000000000,0.000000000,0.001000000
1696856540.280923,317941.000000000,1696856540.279423475,0.013000000,-0.097000000,0.053000000,0.000000000,0.000000000,0.001000000
1696856540.282528,317942.000000000,1696856540.281394243,0.013000000,-0.098000000,0.058000000,0.000000000,0.000000000,0.001000000
1696856540.284479,317943.000000000,1696856540.283424616,0.012000000,-0.098000000,0.061000000,0.000000000,0.000000000,0.001000000
1696856540.287308,317944.000000000,1696856540.285423040,0.011000000,-0.097000000,0.065000000,0.000000000,0.000000000,0.000000000
1696856540.288461,317945.000000000,1696856540.287396193,0.010000000,-0.095000000,0.071000000,0.000000000,0.000000000,0.000000000
1696856540.290545,317946.000000000,1696856540.289394140,0.010000000,-0.094000000,0.074000000,0.000000000,0.000000000,0.000000000
1696856540.292721,317947.000000000,1696856540.291486263,0.009000000,-0.094000000,0.077000000,0.000000000,0.000000000,0.000000000
1696856540.294503,317948.000000000,1696856540.293430567,0.008000000,-0.094000000,0.079000000,0.000000000,0.000000000,0.000000000
1696856540.296439,317949.000000000,1696856540.295393705,0.008000000,-0.096000000,0.082000000,0.000000000,0.000000000,0.000000000
1696856540.298521,317950.000000000,1696856540.297388554,0.007000000,-0.099000000,0.084000000,0.000000000,0.000000000,0.000000000
1696856540.302502,317951.000000000,1696856540.299386024,0.007000000,-0.101000000,0.086000000,0.000000000,0.000000000,0.000000000
1696856540.303052,317952.000000000,1696856540.301381588,0.007000000,-0.103000000,0.086000000,0.000000000,0.000000000,0.000000000
1696856540.304415,317953.000000000,1696856540.303382635,0.007000000,-0.104000000,0.088000000,0.000000000,0.000000000,0.000000000
1696856540.306481,317954.000000000,1696856540.305413961,0.007000000,-0.105000000,0.089000000,0.000000000,0.000000000,0.000000000
1696856540.308456,317955.000000000,1696856540.307386160,0.006000000,-0.103000000,0.092000000,0.000000000,0.000000000,0.000000000
1696856540.310471,317956.000000000,1696856540.309359074,0.005000000,-0.101000000,0.095000000,0.000000000,0.000000000,0.000000000
1696856540.312435,317957.000000000,1696856540.311382771,0.005000000,-0.100000000,0.097000000,0.000000000,0.000000000,0.000000000
1696856540.314478,317958.000000000,1696856540.313413143,0.005000000,-0.099000000,0.097000000,0.000000000,0.000000000,0.000000000
1696856540.316411,317959.000000000,1696856540.315389156,0.005000000,-0.099000000,0.097000000,0.000000000,0.000000000,0.000000000
1696856540.318605,317960.000000000,1696856540.317524672,0.005000000,-0.101000000,0.097000000,0.000000000,0.000000000,0.000000000
1696856540.320617,317961.000000000,1696856540.319454670,0.005000000,-0.102000000,0.097000000,0.000000000,0.000000000,0.000000000
1696856540.322424,317962.000000000,1696856540.321386814,0.006000000,-0.105000000,0.097000000,0.000000000,0.000000000,0.000000000
1696856540.324404,317963.000000000,1696856540.323386908,0.006000000,-0.107000000,0.097000000,0.000000000,0.000000000,0.000000000
1696856540.326437,317964.000000000,1696856540.325421572,0.007000000,-0.108000000,0.097000000,0.000000000,0.000000000,0.000000000
1696856540.328464,317965.000000000,1696856540.327436686,0.007000000,-0.109000000,0.097000000,0.000000000,0.000000000,0.000000000
1696856540.330432,317966.000000000,1696856540.329390287,0.007000000,-0.108000000,0.098000000,0.000000000,0.000000000,0.000000000
1696856540.332868,317967.000000000,1696856540.331455231,0.007000000,-0.106000000,0.100000000,0.000000000,0.000000000,0.000000000
1696856540.334669,317968.000000000,1696856540.333384514,0.007000000,-0.104000000,0.101000000,0.000000000,0.000000000,0.000000000
1696856540.336428,317969.000000000,1696856540.335392475,0.007000000,-0.103000000,0.101000000,0.000000000,0.000000000,0.000000000
1696856540.338455,317970.000000000,1696856540.337393045,0.007000000,-0.102000000,0.101000000,0.000000000,0.000000000,0.000000000
1696856540.340813,317971.000000000,1696856540.339392662,0.007000000,-0.103000000,0.101000000,0.000000000,0.000000000,0.000000000
1696856540.342848,317972.000000000,1696856540.341501236,0.008000000,-0.104000000,0.101000000,0.000000000,0.000000000,0.000000000
1696856540.344424,317973.000000000,1696856540.343386889,0.008000000,-0.106000000,0.102000000,0.000000000,0.000000000,0.000000000
1696856540.346651,317974.000000000,1696856540.345427752,0.009000000,-0.108000000,0.102000000,0.000000000,0.000000000,0.000000000
1696856540.348415,317975.000000000,1696856540.347360849,0.009000000,-0.109000000,0.103000000,0.000000000,0.000000000,0.000000000
1696856540.350546,317976.000000000,1696856540.349468470,0.009000000,-0.110000000,0.103000000,0.000000000,0.000000000,0.000000000
1696856540.352465,317977.000000000,1696856540.351384401,0.009000000,-0.109000000,0.104000000,0.000000000,0.000000000,0.000000000
1696856540.354501,317978.000000000,1696856540.353397131,0.009000000,-0.107000000,0.105000000,0.000000000,0.000000000,0.000000000
1696856540.356450,317979.000000000,1696856540.355375290,0.009000000,-0.105000000,0.107000000,0.000000000,0.000000000,0.000000000
1696856540.358472,317980.000000000,1696856540.357382298,0.009000000,-0.102000000,0.109000000,0.000000000,0.000000000,0.000000000
1696856540.360463,317981.000000000,1696856540.359388113,0.008000000,-0.101000000,0.109000000,0.000000000,0.000000000,0.000000000
1696856540.362529,317982.000000000,1696856540.361400843,0.008000000,-0.100000000,0.110000000,0.000000000,0.000000000,0.000000000
1696856540.364501,317983.000000000,1696856540.363379002,0.008000000,-0.102000000,0.109000000,0.000000000,0.000000000,0.000000000
1696856540.366672,317984.000000000,1696856540.365397930,0.008000000,-0.103000000,0.111000000,0.000000000,0.000000000,0.000000000
1696856540.368552,317985.000000000,1696856540.367473602,0.008000000,-0.104000000,0.112000000,0.000000000,0.000000000,0.000000000
1696856540.370436,317986.000000000,1696856540.369402170,0.008000000,-0.106000000,0.112000000,0.000000000,0.000000000,0.000000000
1696856540.372452,317987.000000000,1696856540.371424675,0.007000000,-0.106000000,0.112000000,0.000000000,0.000000000,0.000000000
1696856540.374422,317988.000000000,1696856540.373401403,0.007000000,-0.105000000,0.113000000,0.000000000,0.000000000,0.000000000
1696856540.376466,317989.000000000,1696856540.375417233,0.007000000,-0.104000000,0.114000000,0.000000000,0.000000000,0.000000000
1696856540.378458,317990.000000000,1696856540.377417564,0.005000000,-0.101000000,0.117000000,0.000000000,0.000000000,0.000000000
1696856540.380528,317991.000000000,1696856540.379408598,0.005000000,-0.099000000,0.118000000,0.000000000,0.000000000,0.000000000
1696856540.382540,317992.000000000,1696856540.381510496,0.004000000,-0.096000000,0.118000000,0.000000000,0.000000000,0.000000000
1696856540.384450,317993.000000000,1696856540.383404732,0.003000000,-0.096000000,0.119000000,0.000000000,0.000000000,0.000000000
1696856540.386484,317994.000000000,1696856540.385417461,0.002000000,-0.096000000,0.119000000,0.000000000,0.000000000,0.000000000
1696856540.388391,317995.000000000,1696856540.387382030,0.002000000,-0.097000000,0.118000000,0.000000000,0.000000000,0.000000000
1696856540.390865,317996.000000000,1696856540.389458179,0.002000000,-0.098000000,0.119000000,0.000000000,0.000000000,0.000000000
1696856540.392447,317997.000000000,1696856540.391401291,0.001000000,-0.100000000,0.118000000,0.000000000,0.000000000,0.000000000
1696856540.394464,317998.000000000,1696856540.393439054,0.001000000,-0.101000000,0.118000000,0.000000000,0.000000000,0.000000000
1696856540.396396,317999.000000000,1696856540.395390511,0.000000000,-0.101000000,0.117000000,0.000000000,0.000000000,0.000000000
1696856540.398497,318000.000000000,1696856540.397432804,0.000000000,-0.099000000,0.116000000,0.000000000,0.000000000,0.000000000
1696856540.401510,318001.000000000,1696856540.399397850,0.000000000,-0.097000000,0.117000000,0.000000000,0.000000000,0.000000000
1696856540.402546,318002.000000000,1696856540.401394606,0.000000000,-0.094000000,0.117000000,0.000000000,0.000000000,0.000000000
1696856540.404522,318003.000000000,1696856540.403398514,-0.001000000,-0.092000000,0.117000000,0.000000000,0.000000000,0.000000000
1696856540.406622,318004.000000000,1696856540.405508757,-0.002000000,-0.091000000,0.116000000,0.000000000,0.000000000,0.000000000
1696856540.408559,318005.000000000,1696856540.407434702,-0.003000000,-0.091000000,0.114000000,0.000000000,0.000000000,0.000000000
1696856540.410475,318006.000000000,1696856540.409423590,-0.003000000,-0.092000000,0.113000000,0.000000000,0.000000000,0.000000000
1696856540.412488,318007.000000000,1696856540.411417246,-0.003000000,-0.094000000,0.111000000,0.000000000,0.000000000,0.000000000
1696856540.414512,318008.000000000,1696856540.413424969,-0.003000000,-0.095000000,0.110000000,0.000000000,0.000000000,0.000000000
1696856540.416492,318009.000000000,1696856540.415464878,-0.003000000,-0.097000000,0.109000000,0.000000000,0.000000000,0.000000000
1696856540.418502,318010.000000000,1696856540.417422533,-0.003000000,-0.097000000,0.107000000,0.000000000,0.000000000,0.000000000
1696856540.421157,318011.000000000,1696856540.419486523,-0.003000000,-0.096000000,0.105000000,0.000000000,0.000000000,0.000000000
1696856540.422502,318012.000000000,1696856540.421466827,-0.003000000,-0.095000000,0.105000000,0.000000000,0.000000000,0.000000000
1696856540.424467,318013.000000000,1696856540.423443317,-0.004000000,-0.092000000,0.105000000,0.000000000,0.000000000,0.000000000
1696856540.426444,318014.000000000,1696856540.425425291,-0.004000000,-0.090000000,0.104000000,0.000000000,0.000000000,0.000000000
1696856540.428481,318015.000000000,1696856540.427444220,-0.004000000,-0.088000000,0.103000000,0.000000000,0.000000000,0.000000000
1696856540.430583,318016.000000000,1696856540.429456949,-0.005000000,-0.088000000,0.102000000,0.000000000,0.000000000,0.000000000
1696856540.432688,318017.000000000,1696856540.431429386,-0.005000000,-0.089000000,0.100000000,0.000000000,0.000000000,0.000000000
1696856540.434515,318018.000000000,1696856540.433452368,-0.004000000,-0.090000000,0.099000000,0.000000000,0.000000000,0.000000000
1696856540.437026,318019.000000000,1696856540.435684681,-0.004000000,-0.093000000,0.097000000,0.000000000,0.000000000,0.000000000
1696856540.438627,318020.000000000,1696856540.437535048,-0.004000000,-0.094000000,0.095000000,0.000000000,0.000000000,0.000000000
1696856540.440797,318021.000000000,1696856540.439427853,-0.003000000,-0.095000000,0.092000000,0.000000000,0.000000000,0.000000000
1696856540.442558,318022.000000000,1696856540.441468716,-0.003000000,-0.095000000,0.090000000,0.000000000,0.000000000,0.000000000
1696856540.444455,318023.000000000,1696856540.443406343,-0.002000000,-0.093000000,0.088000000,0.000000000,0.000000000,0.000000000
1696856540.446918,318024.000000000,1696856540.445523262,-0.002000000,-0.091000000,0.088000000,0.000000000,0.000000000,0.000000000
1696856540.448469,318025.000000000,1696856540.447408199,-0.002000000,-0.088000000,0.087000000,0.000000000,0.000000000,0.000000000
1696856540.450613,318026.000000000,1696856540.449562073,-0.002000000,-0.086000000,0.086000000,0.000000000,0.000000000,0.000000000
1696856540.452665,318027.000000000,1696856540.451631546,-0.002000000,-0.086000000,0.083000000,0.000000000,0.000000000,0.000000000
1696856540.454991,318028.000000000,1696856540.453485250,-0.002000000,-0.086000000,0.081000000,0.000000000,0.000000000,0.000000000
1696856540.456468,318029.000000000,1696856540.455440998,-0.001000000,-0.087000000,0.078000000,0.000000000,0.000000000,0.000000000
1696856540.458466,318030.000000000,1696856540.457413912,-0.001000000,-0.088000000,0.075000000,0.000000000,0.000000000,0.000000000
1696856540.460517,318031.000000000,1696856540.459442139,0.000000000,-0.090000000,0.073000000,0.000000000,0.000000000,0.000000000
1696856540.462573,318032.000000000,1696856540.461494446,0.000000000,-0.090000000,0.068000000,0.000000000,0.000000000,0.000000000
1696856540.464408,318033.000000000,1696856540.463392735,0.000000000,-0.090000000,0.065000000,0.000000000,0.000000000,0.000000000
1696856540.467511,318034.000000000,1696856540.465408802,0.000000000,-0.088000000,0.062000000,0.000000000,0.000000000,0.000000000
1696856540.468739,318035.000000000,1696856540.467397213,0.001000000,-0.086000000,0.059000000,0.000000000,0.000000000,0.000000000
1696856540.470504,318036.000000000,1696856540.469467163,0.001000000,-0.083000000,0.056000000,0.000000000,0.000000000,0.001000000
1696856540.472410,318037.000000000,1696856540.471381664,0.000000000,-0.080000000,0.053000000,0.000000000,0.000000000,0.001000000
1696856540.474468,318038.000000000,1696856540.473387241,0.000000000,-0.078000000,0.049000000,0.000000000,0.000000000,0.001000000
1696856540.476437,318039.000000000,1696856540.475396395,0.001000000,-0.077000000,0.043000000,0.000000000,0.000000000,0.001000000
1696856540.478501,318040.000000000,1696856540.477418900,0.001000000,-0.077000000,0.039000000,0.000000000,0.000000000,0.001000000
1696856540.480851,318041.000000000,1696856540.479430914,0.001000000,-0.078000000,0.033000000,0.000000000,0.000000000,0.001000000
1696856540.483691,318042.000000000,1696856540.482115746,0.001000000,-0.079000000,0.030000000,0.000000000,0.000000000,0.001000000
1696856540.484432,318043.000000000,1696856540.483379364,0.002000000,-0.080000000,0.022000000,0.000000000,0.001000000,0.001000000
1696856540.486514,318044.000000000,1696856540.485454559,0.002000000,-0.079000000,0.017000000,0.000000000,0.001000000,0.001000000
1696856540.488435,318045.000000000,1696856540.487384319,0.002000000,-0.078000000,0.012000000,0.000000000,0.001000000,0.002000000
1696856540.490446,318046.000000000,1696856540.489407539,0.002000000,-0.076000000,0.007000000,0.000000000,0.001000000,0.002000000
1696856540.492482,318047.000000000,1696856540.491395950,0.002000000,-0.072000000,0.003000000,0.000000000,0.001000000,0.002000000
1696856540.494848,318048.000000000,1696856540.493452311,0.001000000,-0.069000000,0.000000000,0.000000000,0.001000000,0.002000000
1696856540.496485,318049.000000000,1696856540.495450258,0.001000000,-0.067000000,-0.005000000,0.000000000,0.001000000,0.002000000
1696856540.498440,318050.000000000,1696856540.497412920,0.001000000,-0.065000000,-0.011000000,0.000000000,0.001000000,0.002000000
1696856540.500988,318051.000000000,1696856540.499428034,0.000000000,-0.065000000,-0.016000000,0.000000000,0.001000000,0.002000000
1696856540.502570,318052.000000000,1696856540.501460075,0.000000000,-0.066000000,-0.023000000,0.000000000,0.001000000,0.002000000
1696856540.504494,318053.000000000,1696856540.503440619,0.000000000,-0.067000000,-0.026000000,0.000000000,0.001000000,0.003000000
1696856540.506456,318054.000000000,1696856540.505415678,0.000000000,-0.068000000,-0.031000000,0.000000000,0.001000000,0.003000000
1696856540.508423,318055.000000000,1696856540.507397175,0.001000000,-0.069000000,-0.036000000,0.000000000,0.001000000,0.003000000
1696856540.510530,318056.000000000,1696856540.509496212,0.000000000,-0.069000000,-0.040000000,0.000000000,0.001000000,0.003000000
1696856540.512448,318057.000000000,1696856540.511421204,0.000000000,-0.067000000,-0.044000000,0.000000000,0.001000000,0.003000000
1696856540.514648,318058.000000000,1696856540.513455153,0.000000000,-0.065000000,-0.045000000,0.000000000,0.001000000,0.003000000
1696856540.516486,318059.000000000,1696856540.515467405,0.000000000,-0.063000000,-0.047000000,0.000000000,0.001000000,0.003000000
1696856540.518477,318060.000000000,1696856540.517438650,0.000000000,-0.061000000,-0.049000000,0.000000000,0.001000000,0.003000000
1696856540.520591,318061.000000000,1696856540.519424915,0.000000000,-0.060000000,-0.051000000,0.000000000,0.001000000,0.003000000
1696856540.522690,318062.000000000,1696856540.521614075,-0.001000000,-0.061000000,-0.053000000,0.000000000,0.001000000,0.003000000
1696856540.524435,318063.000000000,1696856540.523398399,0.000000000,-0.062000000,-0.055000000,0.000000000,0.001000000,0.003000000
1696856540.526909,318064.000000000,1696856540.525470972,-0.001000000,-0.065000000,-0.055000000,0.000000000,0.001000000,0.003000000
1696856540.528499,318065.000000000,1696856540.527447462,0.000000000,-0.067000000,-0.055000000,0.000000000,0.001000000,0.003000000
1696856540.530477,318066.000000000,1696856540.529409170,0.000000000,-0.070000000,-0.054000000,0.000000000,0.001000000,0.003000000
1696856540.532634,318067.000000000,1696856540.531406403,0.000000000,-0.071000000,-0.055000000,0.000000000,0.001000000,0.003000000
1696856540.534958,318068.000000000,1696856540.533461094,0.000000000,-0.072000000,-0.053000000,0.000000000,0.001000000,0.003000000
1696856540.536543,318069.000000000,1696856540.535460949,0.000000000,-0.071000000,-0.050000000,0.000000000,0.001000000,0.003000000
1696856540.538609,318070.000000000,1696856540.537420034,0.000000000,-0.070000000,-0.048000000,0.000000000,0.001000000,0.003000000
1696856540.540531,318071.000000000,1696856540.539438009,0.000000000,-0.069000000,-0.044000000,0.000000000,0.001000000,0.003000000
1696856540.542491,318072.000000000,1696856540.541443825,0.000000000,-0.069000000,-0.040000000,0.000000000,0.001000000,0.003000000
1696856540.544515,318073.000000000,1696856540.543443918,0.000000000,-0.070000000,-0.038000000,0.000000000,0.001000000,0.003000000
1696856540.546566,318074.000000000,1696856540.545433283,0.000000000,-0.072000000,-0.035000000,0.000000000,0.001000000,0.003000000
1696856540.548495,318075.000000000,1696856540.547464371,0.000000000,-0.075000000,-0.031000000,0.000000000,0.001000000,0.003000000
1696856540.550498,318076.000000000,1696856540.549475908,0.000000000,-0.079000000,-0.026000000,0.000000000,0.001000000,0.003000000
1696856540.552490,318077.000000000,1696856540.551457644,0.001000000,-0.082000000,-0.022000000,0.000000000,0.001000000,0.002000000
1696856540.554477,318078.000000000,1696856540.553451777,0.002000000,-0.085000000,-0.018000000,0.000000000,0.001000000,0.002000000
1696856540.556432,318079.000000000,1696856540.555409908,0.002000000,-0.086000000,-0.012000000,0.000000000,0.001000000,0.002000000
1696856540.558532,318080.000000000,1696856540.557438374,0.002000000,-0.087000000,-0.007000000,0.000000000,0.001000000,0.002000000
1696856540.560865,318081.000000000,1696856540.559437990,0.002000000,-0.086000000,-0.001000000,0.000000000,0.001000000,0.002000000
1696856540.562539,318082.000000000,1696856540.561405659,0.002000000,-0.085000000,0.005000000,0.000000000,0.001000000,0.002000000
1696856540.564385,318083.000000000,1696856540.563382626,0.001000000,-0.084000000,0.011000000,0.000000000,0.000000000,0.002000000
1696856540.566545,318084.000000000,1696856540.565429449,0.002000000,-0.085000000,0.015000000,0.000000000,0.000000000,0.002000000
1696856540.568445,318085.000000000,1696856540.567401171,0.001000000,-0.086000000,0.021000000,0.000000000,0.000000000,0.001000000
1696856540.570924,318086.000000000,1696856540.569437027,0.002000000,-0.089000000,0.026000000,0.000000000,0.000000000,0.001000000
1696856540.572405,318087.000000000,1696856540.571381092,0.002000000,-0.092000000,0.031000000,0.000000000,0.000000000,0.001000000
1696856540.575639,318088.000000000,1696856540.573391199,0.002000000,-0.095000000,0.037000000,0.000000000,0.000000000,0.001000000
1696856540.576448,318089.000000000,1696856540.575409412,0.002000000,-0.098000000,0.041000000,0.000000000,0.000000000,0.001000000
1696856540.578490,318090.000000000,1696856540.577397108,0.003000000,-0.099000000,0.044000000,0.000000000,0.000000000,0.001000000
1696856540.580606,318091.000000000,1696856540.579425335,0.003000000,-0.099000000,0.049000000,0.000000000,0.000000000,0.001000000
1696856540.582711,318092.000000000,1696856540.581475019,0.002000000,-0.098000000,0.054000000,0.000000000,0.000000000,0.001000000
1696856540.584474,318093.000000000,1696856540.583403826,0.002000000,-0.096000000,0.059000000,0.000000000,0.000000000,0.000000000
1696856540.586466,318094.000000000,1696856540.585417509,0.001000000,-0.094000000,0.064000000,0.000000000,0.000000000,0.000000000
1696856540.589334,318095.000000000,1696856540.587382078,0.001000000,-0.093000000,0.067000000,0.000000000,0.000000000,0.000000000
1696856540.590602,318096.000000000,1696856540.589396954,0.000000000,-0.094000000,0.070000000,0.000000000,0.000000000,0.000000000
1696856540.592531,318097.000000000,1696856540.591436625,0.000000000,-0.095000000,0.073000000,0.000000000,0.000000000,0.000000000
1696856540.594535,318098.000000000,1696856540.593447685,0.000000000,-0.097000000,0.075000000,0.000000000,0.000000000,0.000000000
1696856540.596483,318099.000000000,1696856540.595403194,0.001000000,-0.099000000,0.077000000,0.000000000,0.000000000,0.000000000
1696856540.598586,318100.000000000,1696856540.597487926,0.001000000,-0.101000000,0.078000000,0.000000000,0.000000000,0.000000000
1696856540.601206,318101.000000000,1696856540.599391937,0.000000000,-0.102000000,0.080000000,0.000000000,0.000000000,0.000000000
1696856540.602505,318102.000000000,1696856540.601412296,0.001000000,-0.102000000,0.081000000,0.000000000,0.000000000,0.000000000
1696856540.604597,318103.000000000,1696856540.603391409,0.000000000,-0.100000000,0.083000000,0.000000000,0.000000000,0.000000000
1696856540.606703,318104.000000000,1696856540.605399847,0.000000000,-0.098000000,0.085000000,0.000000000,0.000000000,0.000000000
1696856540.608469,318105.000000000,1696856540.607419968,0.000000000,-0.096000000,0.087000000,0.000000000,0.000000000,0.000000000
1696856540.610422,318106.000000000,1696856540.609404564,0.000000000,-0.094000000,0.086000000,0.000000000,0.000000000,0.000000000
1696856540.612472,318107.000000000,1696856540.611396551,0.000000000,-0.093000000,0.088000000,0.000000000,0.000000000,0.000000000
1696856540.614540,318108.000000000,1696856540.613450289,0.000000000,-0.094000000,0.087000000,0.000000000,0.000000000,0.000000000
1696856540.616618,318109.000000000,1696856540.615539551,0.000000000,-0.095000000,0.087000000,0.000000000,0.000000000,0.000000000
1696856540.618453,318110.000000000,1696856540.617412567,0.000000000,-0.097000000,0.085000000,0.000000000,0.000000000,0.000000000
1696856540.620660,318111.000000000,1696856540.619411945,0.000000000,-0.099000000,0.085000000,0.000000000,0.000000000,0.000000000
1696856540.622563,318112.000000000,1696856540.621482849,0.000000000,-0.100000000,0.084000000,0.000000000,0.000000000,0.000000000
1696856540.624480,318113.000000000,1696856540.623448610,0.000000000,-0.100000000,0.083000000,0.000000000,0.000000000,0.000000000
1696856540.626502,318114.000000000,1696856540.625440359,0.000000000,-0.099000000,0.083000000,0.000000000,0.000000000,0.000000000
1696856540.628469,318115.000000000,1696856540.627412558,0.000000000,-0.097000000,0.083000000,0.000000000,0.000000000,0.000000000
1696856540.630690,318116.000000000,1696856540.629452229,0.000000000,-0.094000000,0.084000000,0.000000000,0.000000000,0.000000000
1696856540.632605,318117.000000000,1696856540.631400585,0.000000000,-0.092000000,0.085000000,0.000000000,0.000000000,0.000000000
1696856540.634532,318118.000000000,1696856540.633400202,0.000000000,-0.091000000,0.084000000,0.000000000,0.000000000,0.000000000
1696856540.636502,318119.000000000,1696856540.635416985,0.000000000,-0.091000000,0.083000000,0.000000000,0.000000000,0.000000000
1696856540.638645,318120.000000000,1696856540.637494326,0.000000000,-0.092000000,0.082000000,0.000000000,0.000000000,0.000000000
1696856540.640702,318121.000000000,1696856540.639403582,0.000000000,-0.093000000,0.082000000,0.000000000,0.000000000,0.000000000
1696856540.642494,318122.000000000,1696856540.641426802,0.000000000,-0.096000000,0.082000000,0.000000000,0.000000000,0.000000000
1696856540.644456,318123.000000000,1696856540.643426657,0.000000000,-0.097000000,0.082000000,0.000000000,0.000000000,0.000000000
1696856540.646596,318124.000000000,1696856540.645479918,0.001000000,-0.097000000,0.081000000,0.000000000,0.000000000,0.000000000
1696856540.648472,318125.000000000,1696856540.647416592,0.000000000,-0.096000000,0.082000000,0.000000000,0.000000000,0.000000000
1696856540.650415,318126.000000000,1696856540.649389505,0.000000000,-0.094000000,0.084000000,0.000000000,0.000000000,0.000000000
1696856540.652481,318127.000000000,1696856540.651395082,0.000000000,-0.092000000,0.085000000,0.000000000,0.000000000,0.000000000
1696856540.654578,318128.000000000,1696856540.653471470,0.000000000,-0.089000000,0.087000000,0.000000000,0.000000000,0.000000000
1696856540.656466,318129.000000000,1696856540.655432463,-0.001000000,-0.088000000,0.088000000,0.000000000,0.000000000,0.000000000
1696856540.658558,318130.000000000,1696856540.657456160,-0.001000000,-0.087000000,0.088000000,0.000000000,0.000000000,0.000000000
1696856540.660800,318131.000000000,1696856540.659442186,-0.002000000,-0.088000000,0.089000000,0.000000000,0.000000000,0.000000000
1696856540.662563,318132.000000000,1696856540.661479235,-0.002000000,-0.089000000,0.090000000,0.000000000,0.000000000,0.000000000
1696856540.664530,318133.000000000,1696856540.663442135,-0.002000000,-0.091000000,0.091000000,0.000000000,0.000000000,0.000000000
1696856540.666532,318134.000000000,1696856540.665439606,-0.003000000,-0.092000000,0.093000000,0.000000000,0.000000000,0.000000000
1696856540.668487,318135.000000000,1696856540.667430401,-0.003000000,-0.093000000,0.093000000,0.000000000,0.000000000,0.000000000
1696856540.671732,318136.000000000,1696856540.669450045,-0.004000000,-0.093000000,0.094000000,0.000000000,0.000000000,0.000000000
1696856540.672598,318137.000000000,1696856540.671483278,-0.004000000,-0.091000000,0.096000000,0.000000000,0.000000000,0.000000000
1696856540.675348,318138.000000000,1696856540.673467398,-0.005000000,-0.089000000,0.099000000,0.000000000,0.000000000,0.000000000
1696856540.676443,318139.000000000,1696856540.675413609,-0.007000000,-0.086000000,0.101000000,0.000000000,0.000000000,0.000000000
1696856540.678874,318140.000000000,1696856540.677453995,-0.007000000,-0.084000000,0.103000000,0.000000000,0.000000000,0.000000000
1696856540.681224,318141.000000000,1696856540.679467440,-0.008000000,-0.083000000,0.104000000,0.000000000,0.000000000,0.000000000
1696856540.682940,318142.000000000,1696856540.681457043,-0.010000000,-0.084000000,0.105000000,0.000000000,0.000000000,0.000000000
1696856540.684515,318143.000000000,1696856540.683433533,-0.010000000,-0.085000000,0.105000000,0.000000000,0.000000000,0.000000000
1696856540.686568,318144.000000000,1696856540.685461044,-0.010000000,-0.086000000,0.106000000,0.000000000,0.000000000,0.000000000
1696856540.688537,318145.000000000,1696856540.687426805,-0.011000000,-0.088000000,0.106000000,0.000000000,0.000000000,0.000000000
1696856540.690568,318146.000000000,1696856540.689452887,-0.012000000,-0.089000000,0.107000000,0.000000000,0.000000000,0.000000000
1696856540.692508,318147.000000000,1696856540.691426277,-0.012000000,-0.090000000,0.106000000,0.000000000,0.000000000,0.000000000
1696856540.694701,318148.000000000,1696856540.693459272,-0.013000000,-0.089000000,0.107000000,0.000000000,0.000000000,0.000000000
1696856540.696526,318149.000000000,1696856540.695449114,-0.014000000,-0.087000000,0.109000000,0.000000000,0.000000000,0.000000000
1696856540.698501,318150.000000000,1696856540.697434187,-0.015000000,-0.084000000,0.109000000,0.000000000,0.000000000,0.000000000
1696856540.700924,318151.000000000,1696856540.699458361,-0.016000000,-0.082000000,0.110000000,0.000000000,0.000000000,0.000000000
1696856540.703066,318152.000000000,1696856540.701480150,-0.017000000,-0.081000000,0.110000000,0.000000000,0.000000000,0.000000000
1696856540.704498,318153.000000000,1696856540.703455210,-0.017000000,-0.080000000,0.109000000,0.000000000,0.000000000,0.000000000
1696856540.706446,318154.000000000,1696856540.705441475,-0.018000000,-0.081000000,0.108000000,0.000000000,0.000000000,0.000000000
1696856540.708504,318155.000000000,1696856540.707435608,-0.018000000,-0.083000000,0.107000000,0.000000000,0.000000000,0.000000000
1696856540.710481,318156.000000000,1696856540.709453821,-0.018000000,-0.085000000,0.105000000,0.000000000,0.000000000,0.000000000
1696856540.712511,318157.000000000,1696856540.711440325,-0.018000000,-0.087000000,0.105000000,0.000000000,0.000000000,0.000000000
1696856540.714691,318158.000000000,1696856540.713619471,-0.018000000,-0.088000000,0.102000000,0.000000000,0.000000000,0.000000000
1696856540.716656,318159.000000000,1696856540.715598822,-0.018000000,-0.087000000,0.101000000,0.000000000,0.000000000,0.000000000
1696856540.719178,318160.000000000,1696856540.717481136,-0.018000000,-0.086000000,0.100000000,0.000000000,0.000000000,0.000000000
1696856540.720995,318161.000000000,1696856540.719413519,-0.018000000,-0.084000000,0.100000000,0.000000000,0.000000000,0.000000000
1696856540.722446,318162.000000000,1696856540.721429825,-0.018000000,-0.082000000,0.098000000,0.000000000,0.000000000,0.000000000
1696856540.724472,318163.000000000,1696856540.723453045,-0.019000000,-0.080000000,0.097000000,0.000000000,0.000000000,0.000000000
1696856540.726468,318164.000000000,1696856540.725386143,-0.019000000,-0.080000000,0.096000000,0.000000000,0.000000000,0.000000000
1696856540.728563,318165.000000000,1696856540.727454662,-0.018000000,-0.081000000,0.093000000,0.000000000,0.000000000,0.000000000
1696856540.730518,318166.000000000,1696856540.729452610,-0.018000000,-0.083000000,0.091000000,0.000000000,0.000000000,0.000000000
1696856540.732716,318167.000000000,1696856540.731378794,-0.017000000,-0.085000000,0.090000000,0.000000000,0.000000000,0.000000000
1696856540.734634,318168.000000000,1696856540.733411551,-0.016000000,-0.087000000,0.087000000,0.000000000,0.000000000,0.000000000
1696856540.736732,318169.000000000,1696856540.735658169,-0.016000000,-0.088000000,0.085000000,0.000000000,0.000000000,0.000000000
1696856540.738505,318170.000000000,1696856540.737420559,-0.015000000,-0.088000000,0.082000000,0.000000000,0.000000000,0.000000000
1696856540.740494,318171.000000000,1696856540.739403963,-0.015000000,-0.087000000,0.081000000,0.000000000,0.000000000,0.000000000
1696856540.742560,318172.000000000,1696856540.741515160,-0.015000000,-0.086000000,0.080000000,0.000000000,0.000000000,0.000000000
1696856540.744540,318173.000000000,1696856540.743491888,-0.014000000,-0.083000000,0.079000000,0.000000000,0.000000000,0.000000000
1696856540.746551,318174.000000000,1696856540.745473385,-0.014000000,-0.082000000,0.077000000,0.000000000,0.000000000,0.000000000
1696856540.748441,318175.000000000,1696856540.747424364,-0.014000000,-0.080000000,0.075000000,0.000000000,0.000000000,0.000000000
1696856540.750413,318176.000000000,1696856540.749413967,-0.014000000,-0.081000000,0.073000000,0.000000000,0.000000000,0.000000000
1696856540.752483,318177.000000000,1696856540.751459599,-0.013000000,-0.082000000,0.070000000,0.000000000,0.000000000,0.000000000
1696856540.754448,318178.000000000,1696856540.753427982,-0.012000000,-0.083000000,0.067000000,0.000000000,0.000000000,0.000000000
1696856540.756451,318179.000000000,1696856540.755428314,-0.011000000,-0.085000000,0.065000000,0.000000000,0.000000000,0.000000000
1696856540.758523,318180.000000000,1696856540.757475376,-0.010000000,-0.086000000,0.062000000,0.000000000,0.000000000,0.001000000
1696856540.760585,318181.000000000,1696856540.759439468,-0.010000000,-0.087000000,0.059000000,0.000000000,0.000000000,0.001000000
1696856540.762498,318182.000000000,1696856540.761448383,-0.010000000,-0.086000000,0.056000000,0.000000000,0.000000000,0.001000000
1696856540.764455,318183.000000000,1696856540.763411045,-0.010000000,-0.084000000,0.054000000,0.000000000,0.000000000,0.001000000
1696856540.766569,318184.000000000,1696856540.765460491,-0.009000000,-0.081000000,0.054000000,0.000000000,0.000000000,0.001000000
1696856540.768539,318185.000000000,1696856540.767472267,-0.010000000,-0.078000000,0.051000000,0.000000000,0.000000000,0.001000000
1696856540.771592,318186.000000000,1696856540.770437717,-0.010000000,-0.076000000,0.047000000,0.000000000,0.000000000,0.001000000
1696856540.772620,318187.000000000,1696856540.771546125,-0.010000000,-0.075000000,0.045000000,0.000000000,0.000000000,0.001000000
1696856540.775669,318188.000000000,1696856540.773561239,-0.010000000,-0.075000000,0.042000000,0.000000000,0.000000000,0.001000000
1696856540.776808,318189.000000000,1696856540.775424242,-0.010000000,-0.076000000,0.039000000,0.000000000,0.000000000,0.001000000
1696856540.778469,318190.000000000,1696856540.777436018,-0.009000000,-0.077000000,0.036000000,0.000000000,0.000000000,0.001000000
1696856540.780682,318191.000000000,1696856540.779582977,-0.009000000,-0.078000000,0.032000000,0.000000000,0.000000000,0.001000000
1696856540.783010,318192.000000000,1696856540.781494379,-0.010000000,-0.078000000,0.029000000,0.000000000,0.000000000,0.001000000
1696856540.784490,318193.000000000,1696856540.783430338,-0.009000000,-0.077000000,0.026000000,0.000000000,0.000000000,0.001000000
1696856540.786474,318194.000000000,1696856540.785442114,-0.010000000,-0.075000000,0.024000000,0.000000000,0.000000000,0.002000000
1696856540.788424,318195.000000000,1696856540.787386656,-0.011000000,-0.072000000,0.023000000,0.000000000,0.000000000,0.002000000
1696856540.790538,318196.000000000,1696856540.789459944,-0.012000000,-0.068000000,0.021000000,0.000000000,0.000000000,0.002000000
1696856540.792553,318197.000000000,1696856540.791482687,-0.013000000,-0.065000000,0.020000000,0.000000000,0.000000000,0.002000000
1696856540.794415,318198.000000000,1696856540.793408871,-0.014000000,-0.064000000,0.017000000,0.000000000,0.000000000,0.002000000
1696856540.796442,318199.000000000,1696856540.795436144,-0.014000000,-0.063000000,0.015000000,0.000000000,0.000000000,0.002000000
1696856540.798422,318200.000000000,1696856540.797398329,-0.015000000,-0.064000000,0.012000000,0.000000000,0.000000000,0.002000000
1696856540.800881,318201.000000000,1696856540.799565315,-0.015000000,-0.065000000,0.012000000,0.000000000,0.000000000,0.002000000
1696856540.802481,318202.000000000,1696856540.801443815,-0.015000000,-0.067000000,0.009000000,0.000000000,0.000000000,0.002000000
1696856540.804461,318203.000000000,1696856540.803427696,-0.016000000,-0.068000000,0.008000000,0.000000000,0.000000000,0.002000000
1696856540.806479,318204.000000000,1696856540.805431604,-0.016000000,-0.068000000,0.007000000,0.000000000,0.000000000,0.002000000
1696856540.808519,318205.000000000,1696856540.807428122,-0.017000000,-0.067000000,0.007000000,0.000000000,0.000000000,0.002000000
1696856540.810781,318206.000000000,1696856540.809413195,-0.017000000,-0.065000000,0.007000000,0.000000000,0.000000000,0.002000000
1696856540.812446,318207.000000000,1696856540.811426163,-0.018000000,-0.063000000,0.009000000,0.000000000,0.000000000,0.002000000
1696856540.814579,318208.000000000,1696856540.813463211,-0.018000000,-0.061000000,0.010000000,0.000000000,0.000000000,0.002000000
1696856540.816492,318209.000000000,1696856540.815444708,-0.019000000,-0.061000000,0.011000000,0.000000000,0.000000000,0.002000000
1696856540.819188,318210.000000000,1696856540.817422867,-0.019000000,-0.061000000,0.011000000,0.000000000,0.000000000,0.002000000
1696856540.821898,318211.000000000,1696856540.819448471,-0.019000000,-0.063000000,0.012000000,0.000000000,0.000000000,0.002000000
1696856540.822716,318212.000000000,1696856540.821438551,-0.019000000,-0.066000000,0.013000000,0.000000000,0.000000000,0.002000000
1696856540.824609,318213.000000000,1696856540.823420048,-0.019000000,-0.069000000,0.014000000,0.000000000,0.000000000,0.002000000
1696856540.826481,318214.000000000,1696856540.825431824,-0.018000000,-0.071000000,0.016000000,0.000000000,0.000000000,0.002000000
1696856540.828504,318215.000000000,1696856540.827417135,-0.017000000,-0.074000000,0.018000000,0.000000000,0.000000000,0.002000000
1696856540.830532,318216.000000000,1696856540.829400063,-0.016000000,-0.075000000,0.020000000,0.000000000,0.000000000,0.002000000
1696856540.832919,318217.000000000,1696856540.831478834,-0.016000000,-0.075000000,0.023000000,0.000000000,0.000000000,0.002000000
1696856540.834526,318218.000000000,1696856540.833451271,-0.016000000,-0.074000000,0.027000000,0.000000000,0.000000000,0.002000000
1696856540.836468,318219.000000000,1696856540.835417032,-0.015000000,-0.073000000,0.031000000,0.000000000,0.000000000,0.002000000
1696856540.838520,318220.000000000,1696856540.837437630,-0.014000000,-0.073000000,0.034000000,0.000000000,0.000000000,0.001000000
1696856540.840736,318221.000000000,1696856540.839450836,-0.014000000,-0.074000000,0.036000000,0.000000000,0.000000000,0.001000000
1696856540.842706,318222.000000000,1696856540.841637611,-0.012000000,-0.076000000,0.039000000,0.000000000,0.000000000,0.001000000
1696856540.844560,318223.000000000,1696856540.843480349,-0.010000000,-0.080000000,0.042000000,0.000000000,0.000000000,0.001000000
1696856540.846680,318224.000000000,1696856540.845469713,-0.009000000,-0.083000000,0.045000000,0.000000000,0.000000000,0.001000000
1696856540.848443,318225.000000000,1696856540.847430468,-0.007000000,-0.087000000,0.046000000,0.000000000,0.000000000,0.001000000
1696856540.850404,318226.000000000,1696856540.849408865,-0.005000000,-0.089000000,0.049000000,0.000000000,0.000000000,0.001000000
1696856540.852398,318227.000000000,1696856540.851397276,-0.003000000,-0.091000000,0.052000000,0.000000000,0.000000000,0.001000000
1696856540.854650,318228.000000000,1696856540.853414059,-0.001000000,-0.091000000,0.054000000,0.000000000,0.000000000,0.001000000
1696856540.856506,318229.000000000,1696856540.855462074,0.000000000,-0.090000000,0.057000000,0.000000000,0.000000000,0.001000000
1696856540.858452,318230.000000000,1696856540.857409477,0.000000000,-0.088000000,0.061000000,0.000000000,0.000000000,0.000000000
1696856540.860497,318231.000000000,1696856540.859385014,0.002000000,-0.087000000,0.064000000,0.000000000,0.000000000,0.000000000
1696856540.862493,318232.000000000,1696856540.861434221,0.003000000,-0.087000000,0.065000000,0.000000000,0.000000000,0.000000000
1696856540.864520,318233.000000000,1696856540.863422871,0.005000000,-0.087000000,0.066000000,0.000000000,0.000000000,0.000000000
1696856540.867147,318234.000000000,1696856540.865416765,0.007000000,-0.089000000,0.067000000,0.000000000,0.001000000,0.000000000
1696856540.868476,318235.000000000,1696856540.867404938,0.009000000,-0.091000000,0.068000000,0.000000000,0.001000000,0.000000000
1696856540.870521,318236.000000000,1696856540.869438648,0.010000000,-0.092000000,0.071000000,0.000000000,0.001000000,0.000000000
1696856540.872745,318237.000000000,1696856540.871412039,0.012000000,-0.094000000,0.070000000,0.000000000,0.001000000,0.000000000
1696856540.874643,318238.000000000,1696856540.873426676,0.014000000,-0.094000000,0.071000000,0.000000000,0.001000000,0.000000000
1696856540.876455,318239.000000000,1696856540.875401735,0.015000000,-0.092000000,0.072000000,0.000000000,0.001000000,0.000000000
1696856540.879259,318240.000000000,1696856540.877501488,0.016000000,-0.090000000,0.072000000,0.000000000,0.001000000,0.000000000
1696856540.881076,318241.000000000,1696856540.879407406,0.017000000,-0.086000000,0.075000000,0.000000000,0.001000000,0.000000000
1696856540.882703,318242.000000000,1696856540.881452560,0.018000000,-0.083000000,0.076000000,0.000000000,0.001000000,0.000000000
1696856540.884463,318243.000000000,1696856540.883431435,0.018000000,-0.080000000,0.076000000,0.000000000,0.001000000,0.000000000
1696856540.886808,318244.000000000,1696856540.885583401,0.018000000,-0.079000000,0.076000000,0.000000000,0.001000000,0.000000000
1696856540.888452,318245.000000000,1696856540.887430191,0.019000000,-0.078000000,0.076000000,0.000000000,0.001000000,0.000000000
1696856540.890396,318246.000000000,1696856540.889389515,0.019000000,-0.078000000,0.076000000,0.000000000,0.001000000,0.000000000
1696856540.892463,318247.000000000,1696856540.891411304,0.020000000,-0.079000000,0.075000000,0.000000000,0.001000000,0.000000000
1696856540.894410,318248.000000000,1696856540.893386602,0.020000000,-0.079000000,0.074000000,0.000000000,0.001000000,0.000000000
1696856540.896427,318249.000000000,1696856540.895397186,0.020000000,-0.079000000,0.074000000,0.000000000,0.001000000,0.000000000
1696856540.898438,318250.000000000,1696856540.897421598,0.020000000,-0.077000000,0.074000000,0.000000000,0.001000000,0.000000000
1696856540.900773,318251.000000000,1696856540.899603605,0.019000000,-0.075000000,0.074000000,-0.001000000,0.001000000,0.000000000
1696856540.902507,318252.000000000,1696856540.901464939,0.018000000,-0.072000000,0.075000000,-0.001000000,0.001000000,0.000000000
1696856540.904633,318253.000000000,1696856540.903426647,0.017000000,-0.069000000,0.076000000,-0.001000000,0.001000000,0.000000000
1696856540.906643,318254.000000000,1696856540.905440331,0.016000000,-0.066000000,0.077000000,-0.001000000,0.001000000,0.000000000
1696856540.908497,318255.000000000,1696856540.907410860,0.014000000,-0.065000000,0.076000000,-0.001000000,0.001000000,0.000000000
1696856540.910669,318256.000000000,1696856540.909479380,0.013000000,-0.064000000,0.076000000,-0.001000000,0.001000000,0.000000000
1696856540.912539,318257.000000000,1696856540.911449194,0.011000000,-0.065000000,0.076000000,-0.001000000,0.001000000,0.000000000
1696856540.914535,318258.000000000,1696856540.913435221,0.010000000,-0.067000000,0.077000000,-0.001000000,0.001000000,0.000000000
1696856540.916521,318259.000000000,1696856540.915444136,0.008000000,-0.069000000,0.077000000,-0.001000000,0.001000000,0.000000000
1696856540.919194,318260.000000000,1696856540.917554140,0.007000000,-0.071000000,0.077000000,-0.001000000,0.001000000,0.000000000
1696856540.921289,318261.000000000,1696856540.919465542,0.005000000,-0.071000000,0.077000000,-0.001000000,0.001000000,0.000000000
1696856540.922795,318262.000000000,1696856540.921484709,0.003000000,-0.071000000,0.078000000,-0.001000000,0.001000000,0.000000000
1696856540.924448,318263.000000000,1696856540.923416853,0.001000000,-0.070000000,0.080000000,-0.001000000,0.001000000,0.000000000
1696856540.926539,318264.000000000,1696856540.925478458,-0.001000000,-0.069000000,0.082000000,-0.001000000,0.000000000,0.000000000
1696856540.928547,318265.000000000,1696856540.927443027,-0.003000000,-0.068000000,0.083000000,-0.001000000,0.000000000,0.000000000
1696856540.930532,318266.000000000,1696856540.929448366,-0.006000000,-0.068000000,0.085000000,-0.001000000,0.000000000,0.000000000
1696856540.932949,318267.000000000,1696856540.931411743,-0.008000000,-0.070000000,0.085000000,-0.001000000,0.000000000,0.000000000
1696856540.934781,318268.000000000,1696856540.933501959,-0.010000000,-0.072000000,0.087000000,-0.001000000,0.000000000,0.000000000
1696856540.936467,318269.000000000,1696856540.935444593,-0.012000000,-0.076000000,0.087000000,-0.001000000,0.000000000,0.000000000
1696856540.938475,318270.000000000,1696856540.937445641,-0.013000000,-0.080000000,0.089000000,0.000000000,0.000000000,0.000000000
