__time,/kms40_driver/wrench/header/seq,/kms40_driver/wrench/header/stamp,/kms40_driver/wrench/wrench/force/x,/kms40_driver/wrench/wrench/force/y,/kms40_driver/wrench/wrench/force/z,/kms40_driver/wrench/wrench/torque/x,/kms40_driver/wrench/wrench/torque/y,/kms40_driver/wrench/wrench/torque/z
1696857060.080820,575679.000000000,1696857060.079096556,0.016000000,-0.115000000,-0.024000000,0.000000000,0.000000000,0.001000000
1696857060.082850,575680.000000000,1696857060.081137657,0.017000000,-0.113000000,-0.029000000,0.000000000,0.000000000,0.001000000
1696857060.084074,575681.000000000,1696857060.082888603,0.017000000,-0.111000000,-0.033000000,0.000000000,0.000000000,0.001000000
1696857060.086234,575682.000000000,1696857060.084960699,0.017000000,-0.108000000,-0.037000000,0.000000000,0.000000000,0.001000000
1696857060.088107,575683.000000000,1696857060.086910009,0.016000000,-0.104000000,-0.039000000,0.000000000,0.000000000,0.001000000
1696857060.090120,575684.000000000,1696857060.088906288,0.015000000,-0.101000000,-0.044000000,0.000000000,0.000000000,0.001000000
1696857060.092132,575685.000000000,1696857060.090909481,0.015000000,-0.099000000,-0.048000000,0.000000000,0.000000000,0.001000000
1696857060.094256,575686.000000000,1696857060.092917204,0.015000000,-0.098000000,-0.054000000,0.000000000,0.000000000,0.002000000
1696857060.096163,575687.000000000,1696857060.094926357,0.015000000,-0.098000000,-0.059000000,0.000000000,0.000000000,0.002000000
1696857060.098331,575688.000000000,1696857060.096971273,0.015000000,-0.098000000,-0.064000000,0.000000000,0.000000000,0.002000000
1696857060.100929,575689.000000000,1696857060.098961115,0.014000000,-0.099000000,-0.068000000,0.000000000,0.000000000,0.002000000
1696857060.102438,575690.000000000,1696857060.100932121,0.015000000,-0.099000000,-0.074000000,0.000000000,0.000000000,0.002000000
1696857060.104173,575691.000000000,1696857060.102955580,0.014000000,-0.098000000,-0.079000000,0.000000000,0.000000000,0.002000000
1696857060.106278,575692.000000000,1696857060.104967356,0.014000000,-0.096000000,-0.082000000,0.000000000,0.000000000,0.002000000
1696857060.108225,575693.000000000,1696857060.106958389,0.013000000,-0.094000000,-0.086000000,0.000000000,0.000000000,0.002000000
1696857060.110181,575694.000000000,1696857060.108940601,0.012000000,-0.091000000,-0.089000000,0.000000000,0.000000000,0.002000000
1696857060.112153,575695.000000000,1696857060.110931873,0.012000000,-0.088000000,-0.093000000,0.000000000,0.000000000,0.002000000
1696857060.114146,575696.000000000,1696857060.112951517,0.011000000,-0.087000000,-0.097000000,0.000000000,0.000000000,0.003000000
1696857060.116121,575697.000000000,1696857060.114933968,0.010000000,-0.086000000,-0.099000000,0.000000000,0.000000000,0.003000000
1696857060.118141,575698.000000000,1696857060.116943836,0.010000000,-0.087000000,-0.102000000,0.000000000,0.000000000,0.003000000
1696857060.120905,575699.000000000,1696857060.118915558,0.010000000,-0.088000000,-0.106000000,0.000000000,0.000000000,0.003000000
1696857060.122771,575700.000000000,1696857060.121034145,0.009000000,-0.090000000,-0.107000000,0.000000000,0.000000000,0.003000000
1696857060.124367,575701.000000000,1696857060.123094082,0.009000000,-0.092000000,-0.109000000,0.000000000,0.000000000,0.003000000
1696857060.126162,575702.000000000,1696857060.124948025,0.009000000,-0.093000000,-0.110000000,0.000000000,0.000000000,0.003000000
1696857060.128272,575703.000000000,1696857060.127051115,0.008000000,-0.093000000,-0.111000000,0.000000000,0.000000000,0.003000000
1696857060.130280,575704.000000000,1696857060.129014730,0.008000000,-0.092000000,-0.111000000,0.000000000,0.000000000,0.003000000
1696857060.132155,575705.000000000,1696857060.130919456,0.007000000,-0.090000000,-0.109000000,0.000000000,0.000000000,0.003000000
1696857060.134216,575706.000000000,1696857060.132973194,0.007000000,-0.089000000,-0.108000000,0.000000000,0.000000000,0.003000000
1696857060.136092,575707.000000000,1696857060.134905815,0.006000000,-0.089000000,-0.106000000,0.000000000,0.000000000,0.003000000
1696857060.138213,575708.000000000,1696857060.136958122,0.005000000,-0.089000000,-0.104000000,0.000000000,0.000000000,0.003000000
1696857060.140780,575709.000000000,1696857060.138931990,0.006000000,-0.091000000,-0.103000000,0.000000000,0.000000000,0.003000000
1696857060.142335,575710.000000000,1696857060.140950441,0.006000000,-0.094000000,-0.100000000,0.000000000,0.000000000,0.003000000
1696857060.144332,575711.000000000,1696857060.142977476,0.005000000,-0.097000000,-0.096000000,0.000000000,0.000000000,0.003000000
1696857060.146306,575712.000000000,1696857060.144961357,0.006000000,-0.100000000,-0.094000000,0.000000000,0.000000000,0.003000000
1696857060.148160,575713.000000000,1696857060.146908522,0.006000000,-0.102000000,-0.090000000,0.000000000,0.000000000,0.003000000
1696857060.151212,575714.000000000,1696857060.148926497,0.007000000,-0.104000000,-0.086000000,0.000000000,0.000000000,0.003000000
1696857060.152342,575715.000000000,1696857060.150919676,0.006000000,-0.104000000,-0.080000000,0.000000000,0.000000000,0.002000000
1696857060.154281,575716.000000000,1696857060.152951479,0.007000000,-0.104000000,-0.074000000,0.000000000,0.000000000,0.002000000
1696857060.156193,575717.000000000,1696857060.154922009,0.006000000,-0.103000000,-0.069000000,0.000000000,0.000000000,0.002000000
1696857060.158303,575718.000000000,1696857060.156958818,0.007000000,-0.103000000,-0.063000000,0.000000000,0.000000000,0.002000000
1696857060.160687,575719.000000000,1696857060.158961058,0.006000000,-0.103000000,-0.057000000,0.000000000,0.000000000,0.002000000
1696857060.162235,575720.000000000,1696857060.160965681,0.007000000,-0.105000000,-0.053000000,0.000000000,-0.001000000,0.002000000
1696857060.164148,575721.000000000,1696857060.162911177,0.007000000,-0.108000000,-0.047000000,0.000000000,-0.001000000,0.002000000
1696857060.166847,575722.000000000,1696857060.165086985,0.008000000,-0.111000000,-0.043000000,0.000000000,0.000000000,0.002000000
1696857060.168320,575723.000000000,1696857060.166924953,0.008000000,-0.114000000,-0.037000000,0.000000000,0.000000000,0.001000000
1696857060.170214,575724.000000000,1696857060.168959141,0.009000000,-0.117000000,-0.032000000,0.000000000,0.000000000,0.001000000
1696857060.172132,575725.000000000,1696857060.170905590,0.010000000,-0.118000000,-0.027000000,0.000000000,0.000000000,0.001000000
1696857060.174478,575726.000000000,1696857060.172938347,0.010000000,-0.119000000,-0.022000000,0.000000000,0.000000000,0.001000000
1696857060.176136,575727.000000000,1696857060.174941540,0.011000000,-0.118000000,-0.016000000,0.000000000,0.000000000,0.001000000
1696857060.178263,575728.000000000,1696857060.177052736,0.011000000,-0.117000000,-0.010000000,0.000000000,0.000000000,0.001000000
1696857060.180832,575729.000000000,1696857060.178903103,0.012000000,-0.116000000,-0.005000000,0.000000000,0.000000000,0.001000000
1696857060.182200,575730.000000000,1696857060.180914640,0.012000000,-0.115000000,0.000000000,0.000000000,0.000000000,0.001000000
1696857060.184151,575731.000000000,1696857060.182900667,0.012000000,-0.116000000,0.003000000,0.000000000,0.000000000,0.001000000
1696857060.186241,575732.000000000,1696857060.184920549,0.012000000,-0.117000000,0.005000000,0.000000000,0.000000000,0.000000000
1696857060.188189,575733.000000000,1696857060.186925650,0.013000000,-0.119000000,0.009000000,0.000000000,0.000000000,0.000000000
1696857060.190180,575734.000000000,1696857060.188912392,0.014000000,-0.121000000,0.012000000,0.000000000,0.000000000,0.000000000
1696857060.192223,575735.000000000,1696857060.190899134,0.015000000,-0.123000000,0.014000000,0.000000000,0.000000000,0.000000000
1696857060.194544,575736.000000000,1696857060.192983150,0.015000000,-0.124000000,0.017000000,0.000000000,0.000000000,0.000000000
1696857060.196261,575737.000000000,1696857060.194915295,0.016000000,-0.124000000,0.019000000,0.000000000,0.000000000,0.000000000
1696857060.198199,575738.000000000,1696857060.196907759,0.017000000,-0.123000000,0.021000000,0.000000000,0.000000000,0.000000000
1696857060.200847,575739.000000000,1696857060.198929310,0.017000000,-0.121000000,0.024000000,0.000000000,0.000000000,0.000000000
1696857060.202159,575740.000000000,1696857060.200906277,0.016000000,-0.119000000,0.027000000,0.000000000,0.000000000,0.000000000
1696857060.204082,575741.000000000,1696857060.202884912,0.017000000,-0.117000000,0.027000000,0.000000000,0.000000000,0.000000000
1696857060.206153,575742.000000000,1696857060.204926491,0.017000000,-0.116000000,0.029000000,0.000000000,0.000000000,0.000000000
1696857060.208210,575743.000000000,1696857060.206937075,0.017000000,-0.116000000,0.029000000,0.000000000,0.000000000,0.000000000
1696857060.210382,575744.000000000,1696857060.208957672,0.017000000,-0.117000000,0.029000000,0.000000000,0.000000000,0.000000000
1696857060.212117,575745.000000000,1696857060.210909128,0.017000000,-0.119000000,0.030000000,0.000000000,0.000000000,0.000000000
1696857060.214260,575746.000000000,1696857060.212933064,0.018000000,-0.120000000,0.031000000,0.000000000,0.000000000,0.000000000
1696857060.216088,575747.000000000,1696857060.214906693,0.018000000,-0.121000000,0.030000000,0.000000000,0.000000000,0.000000000
1696857060.218123,575748.000000000,1696857060.216913939,0.018000000,-0.121000000,0.031000000,0.000000000,0.000000000,0.000000000
1696857060.220967,575749.000000000,1696857060.218883514,0.018000000,-0.121000000,0.030000000,0.000000000,0.000000000,0.000000000
1696857060.222139,575750.000000000,1696857060.220922947,0.017000000,-0.119000000,0.031000000,0.000000000,0.000000000,0.000000000
1696857060.224065,575751.000000000,1696857060.222881079,0.017000000,-0.117000000,0.032000000,0.000000000,0.000000000,0.000000000
1696857060.226180,575752.000000000,1696857060.224932671,0.016000000,-0.115000000,0.032000000,0.000000000,0.000000000,0.000000000
1696857060.228184,575753.000000000,1696857060.226994038,0.016000000,-0.113000000,0.032000000,0.000000000,0.000000000,0.000000000
1696857060.230140,575754.000000000,1696857060.228929281,0.015000000,-0.113000000,0.032000000,0.000000000,0.000000000,0.000000000
1696857060.232151,575755.000000000,1696857060.230933428,0.015000000,-0.114000000,0.032000000,0.000000000,0.000000000,0.000000000
1696857060.234166,575756.000000000,1696857060.232914925,0.015000000,-0.115000000,0.031000000,0.000000000,0.000000000,0.000000000
1696857060.236103,575757.000000000,1696857060.234896421,0.015000000,-0.117000000,0.031000000,0.000000000,0.000000000,0.000000000
1696857060.239071,575758.000000000,1696857060.236913681,0.015000000,-0.119000000,0.030000000,0.000000000,0.000000000,0.000000000
1696857060.240660,575759.000000000,1696857060.238975763,0.014000000,-0.119000000,0.030000000,0.000000000,0.000000000,0.000000000
1696857060.242268,575760.000000000,1696857060.240920305,0.014000000,-0.119000000,0.031000000,0.000000000,0.000000000,0.000000000
1696857060.244131,575761.000000000,1696857060.242915392,0.013000000,-0.118000000,0.032000000,0.000000000,0.000000000,0.000000000
1696857060.246849,575762.000000000,1696857060.244906902,0.013000000,-0.116000000,0.032000000,0.000000000,0.000000000,0.000000000
1696857060.248152,575763.000000000,1696857060.246920586,0.012000000,-0.115000000,0.033000000,0.000000000,0.000000000,0.000000000
1696857060.250325,575764.000000000,1696857060.248945713,0.011000000,-0.113000000,0.034000000,0.000000000,-0.001000000,0.000000000
1696857060.252197,575765.000000000,1696857060.250921249,0.011000000,-0.113000000,0.034000000,0.000000000,-0.001000000,0.000000000
1696857060.254265,575766.000000000,1696857060.252991915,0.010000000,-0.114000000,0.034000000,0.000000000,-0.001000000,0.000000000
1696857060.256150,575767.000000000,1696857060.254899979,0.010000000,-0.115000000,0.034000000,0.000000000,-0.001000000,0.000000000
1696857060.258249,575768.000000000,1696857060.256977320,0.010000000,-0.117000000,0.035000000,0.000000000,-0.001000000,0.000000000
1696857060.261204,575769.000000000,1696857060.258970737,0.010000000,-0.120000000,0.034000000,0.000000000,-0.001000000,0.000000000
1696857060.262183,575770.000000000,1696857060.260972261,0.010000000,-0.121000000,0.033000000,0.000000000,-0.001000000,0.000000000
1696857060.264122,575771.000000000,1696857060.262916088,0.010000000,-0.122000000,0.035000000,0.000000000,-0.001000000,0.000000000
1696857060.266585,575772.000000000,1696857060.265033722,0.010000000,-0.122000000,0.035000000,0.000000000,-0.001000000,0.000000000
1696857060.268135,575773.000000000,1696857060.266949415,0.010000000,-0.120000000,0.037000000,0.000000000,-0.001000000,0.000000000
1696857060.270148,575774.000000000,1696857060.268948317,0.009000000,-0.118000000,0.038000000,0.000000000,-0.001000000,0.000000000
1696857060.272175,575775.000000000,1696857060.270938873,0.009000000,-0.117000000,0.038000000,0.000000000,-0.001000000,0.000000000
1696857060.274204,575776.000000000,1696857060.272960186,0.009000000,-0.116000000,0.038000000,0.000000000,-0.001000000,0.000000000
1696857060.276213,575777.000000000,1696857060.275013685,0.009000000,-0.116000000,0.039000000,0.000000000,-0.001000000,0.000000000
1696857060.278981,575778.000000000,1696857060.277083397,0.010000000,-0.118000000,0.039000000,0.000000000,-0.001000000,0.000000000
1696857060.280823,575779.000000000,1696857060.278963566,0.010000000,-0.120000000,0.039000000,0.000000000,-0.001000000,0.000000000
1696857060.282439,575780.000000000,1696857060.280995369,0.011000000,-0.122000000,0.039000000,0.000000000,-0.001000000,0.000000000
1696857060.284143,575781.000000000,1696857060.282948256,0.011000000,-0.124000000,0.040000000,0.000000000,-0.001000000,0.000000000
1696857060.286137,575782.000000000,1696857060.284940958,0.011000000,-0.125000000,0.040000000,0.000000000,-0.001000000,0.000000000
1696857060.288148,575783.000000000,1696857060.286948681,0.012000000,-0.124000000,0.041000000,0.000000000,-0.001000000,0.000000000
1696857060.290395,575784.000000000,1696857060.288951635,0.012000000,-0.123000000,0.042000000,0.000000000,-0.001000000,0.000000000
1696857060.292213,575785.000000000,1696857060.290949583,0.012000000,-0.121000000,0.043000000,0.000000000,-0.001000000,0.000000000
1696857060.294197,575786.000000000,1696857060.292952299,0.012000000,-0.119000000,0.044000000,0.000000000,-0.001000000,0.000000000
1696857060.296203,575787.000000000,1696857060.294943333,0.013000000,-0.117000000,0.045000000,0.000000000,-0.001000000,0.000000000
1696857060.298239,575788.000000000,1696857060.297016144,0.013000000,-0.117000000,0.045000000,0.000000000,-0.001000000,0.000000000
1696857060.300673,575789.000000000,1696857060.298983335,0.013000000,-0.118000000,0.045000000,0.000000000,-0.001000000,0.000000000
1696857060.302530,575790.000000000,1696857060.301131725,0.014000000,-0.120000000,0.045000000,0.000000000,-0.001000000,0.000000000
1696857060.304369,575791.000000000,1696857060.303042412,0.014000000,-0.122000000,0.045000000,0.000000000,0.000000000,0.000000000
1696857060.306098,575792.000000000,1696857060.304907560,0.015000000,-0.124000000,0.046000000,0.000000000,0.000000000,0.000000000
1696857060.308129,575793.000000000,1696857060.306910515,0.015000000,-0.125000000,0.046000000,0.000000000,0.000000000,0.000000000
1696857060.310150,575794.000000000,1696857060.308901310,0.016000000,-0.125000000,0.045000000,0.000000000,0.000000000,0.000000000
1696857060.312141,575795.000000000,1696857060.310889006,0.016000000,-0.123000000,0.046000000,0.000000000,0.000000000,0.000000000
1696857060.314253,575796.000000000,1696857060.312927961,0.017000000,-0.121000000,0.047000000,0.000000000,0.000000000,0.000000000
1696857060.316092,575797.000000000,1696857060.314879656,0.016000000,-0.120000000,0.048000000,0.000000000,0.000000000,0.000000000
1696857060.318233,575798.000000000,1696857060.316954136,0.016000000,-0.118000000,0.049000000,-0.001000000,0.000000000,0.000000000
1696857060.320506,575799.000000000,1696857060.318957329,0.016000000,-0.117000000,0.050000000,-0.001000000,0.000000000,0.000000000
1696857060.322280,575800.000000000,1696857060.320964575,0.016000000,-0.117000000,0.049000000,-0.001000000,0.000000000,0.000000000
1696857060.324129,575801.000000000,1696857060.322884560,0.017000000,-0.119000000,0.048000000,0.000000000,0.000000000,0.000000000
1696857060.327483,575802.000000000,1696857060.324927568,0.017000000,-0.121000000,0.050000000,0.000000000,0.000000000,0.000000000
1696857060.328146,575803.000000000,1696857060.326920271,0.017000000,-0.123000000,0.049000000,0.000000000,0.000000000,0.000000000
1696857060.330318,575804.000000000,1696857060.328935623,0.017000000,-0.124000000,0.049000000,0.000000000,0.000000000,0.000000000
1696857060.332206,575805.000000000,1696857060.330919504,0.017000000,-0.125000000,0.050000000,0.000000000,0.000000000,0.000000000
1696857060.334204,575806.000000000,1696857060.332920313,0.017000000,-0.124000000,0.050000000,0.000000000,0.000000000,0.000000000
1696857060.336125,575807.000000000,1696857060.334895372,0.017000000,-0.123000000,0.051000000,0.000000000,0.000000000,0.000000000
1696857060.338159,575808.000000000,1696857060.336929321,0.016000000,-0.121000000,0.052000000,0.000000000,0.000000000,0.000000000
1696857060.341010,575809.000000000,1696857060.338948965,0.016000000,-0.119000000,0.052000000,0.000000000,0.000000000,0.000000000
1696857060.342271,575810.000000000,1696857060.340992212,0.015000000,-0.118000000,0.053000000,-0.001000000,0.000000000,0.000000000
1696857060.344158,575811.000000000,1696857060.342907667,0.014000000,-0.118000000,0.052000000,0.000000000,0.000000000,0.000000000
1696857060.346879,575812.000000000,1696857060.345117807,0.014000000,-0.119000000,0.051000000,0.000000000,0.000000000,0.000000000
1696857060.348401,575813.000000000,1696857060.347042084,0.014000000,-0.122000000,0.049000000,0.000000000,0.000000000,0.000000000
1696857060.350145,575814.000000000,1696857060.348896742,0.013000000,-0.124000000,0.049000000,0.000000000,0.000000000,0.000000000
1696857060.352070,575815.000000000,1696857060.350868225,0.013000000,-0.125000000,0.048000000,0.000000000,0.000000000,0.000000000
1696857060.354272,575816.000000000,1696857060.352881432,0.012000000,-0.126000000,0.048000000,0.000000000,0.000000000,0.000000000
1696857060.356090,575817.000000000,1696857060.354861021,0.012000000,-0.126000000,0.047000000,0.000000000,0.000000000,0.000000000
1696857060.358142,575818.000000000,1696857060.356903076,0.011000000,-0.124000000,0.045000000,0.000000000,0.000000000,0.000000000
1696857060.360748,575819.000000000,1696857060.358919859,0.010000000,-0.122000000,0.045000000,0.000000000,0.000000000,0.000000000
1696857060.362274,575820.000000000,1696857060.360934734,0.008000000,-0.120000000,0.044000000,0.000000000,0.000000000,0.000000000
1696857060.364099,575821.000000000,1696857060.362922907,0.007000000,-0.118000000,0.043000000,0.000000000,0.000000000,0.000000000
1696857060.366124,575822.000000000,1696857060.364919186,0.006000000,-0.117000000,0.040000000,0.000000000,0.000000000,0.000000000
1696857060.368154,575823.000000000,1696857060.366912842,0.005000000,-0.117000000,0.038000000,0.000000000,0.000000000,0.000000000
1696857060.370201,575824.000000000,1696857060.368949652,0.004000000,-0.118000000,0.035000000,0.000000000,0.000000000,0.000000000
1696857060.373565,575825.000000000,1696857060.372281551,0.003000000,-0.119000000,0.032000000,0.000000000,0.000000000,0.000000000
1696857060.376207,575826.000000000,1696857060.373411655,0.002000000,-0.120000000,0.028000000,0.000000000,0.000000000,0.000000000
1696857060.376339,575827.000000000,1696857060.374949455,0.002000000,-0.121000000,0.024000000,0.000000000,0.000000000,0.000000000
1696857060.378527,575828.000000000,1696857060.377251148,0.002000000,-0.119000000,0.018000000,0.000000000,0.000000000,0.000000000
1696857060.380959,575829.000000000,1696857060.378952503,0.001000000,-0.118000000,0.016000000,0.000000000,0.000000000,0.000000000
1696857060.382503,575830.000000000,1696857060.380906582,0.000000000,-0.115000000,0.012000000,0.000000000,0.000000000,0.001000000
1696857060.384122,575831.000000000,1696857060.382935286,0.000000000,-0.112000000,0.009000000,0.000000000,0.000000000,0.001000000
1696857060.386298,575832.000000000,1696857060.384983778,-0.001000000,-0.109000000,0.004000000,0.000000000,0.000000000,0.001000000
1696857060.388176,575833.000000000,1696857060.386926413,-0.002000000,-0.107000000,0.000000000,0.000000000,0.000000000,0.001000000
1696857060.390241,575834.000000000,1696857060.388985157,-0.003000000,-0.106000000,-0.004000000,0.000000000,0.000000000,0.001000000
1696857060.392175,575835.000000000,1696857060.390954018,-0.003000000,-0.106000000,-0.010000000,0.000000000,0.000000000,0.001000000
1696857060.394636,575836.000000000,1696857060.393068790,-0.003000000,-0.106000000,-0.016000000,0.000000000,0.000000000,0.001000000
1696857060.396677,575837.000000000,1696857060.395086765,-0.003000000,-0.107000000,-0.021000000,0.000000000,0.000000000,0.001000000
1696857060.398154,575838.000000000,1696857060.396943569,-0.003000000,-0.107000000,-0.027000000,0.000000000,0.000000000,0.001000000
1696857060.400775,575839.000000000,1696857060.399001122,-0.003000000,-0.107000000,-0.032000000,0.000000000,0.000000000,0.001000000
1696857060.402212,575840.000000000,1696857060.400907040,-0.003000000,-0.105000000,-0.036000000,0.000000000,0.000000000,0.001000000
1696857060.404118,575841.000000000,1696857060.402936459,-0.003000000,-0.103000000,-0.041000000,0.000000000,0.000000000,0.002000000
1696857060.406181,575842.000000000,1696857060.404918194,-0.003000000,-0.100000000,-0.044000000,0.000000000,0.000000000,0.002000000
1696857060.408231,575843.000000000,1696857060.406972170,-0.003000000,-0.097000000,-0.048000000,0.000000000,0.000000000,0.002000000
1696857060.410208,575844.000000000,1696857060.408963442,-0.003000000,-0.095000000,-0.051000000,0.000000000,0.000000000,0.002000000
1696857060.412198,575845.000000000,1696857060.410939217,-0.003000000,-0.094000000,-0.056000000,0.000000000,0.000000000,0.002000000
1696857060.414204,575846.000000000,1696857060.412950516,-0.002000000,-0.094000000,-0.060000000,0.000000000,0.000000000,0.002000000
1696857060.416114,575847.000000000,1696857060.414937258,-0.002000000,-0.095000000,-0.064000000,0.000000000,0.000000000,0.002000000
1696857060.418292,575848.000000000,1696857060.416972399,-0.001000000,-0.096000000,-0.067000000,0.000000000,0.000000000,0.002000000
1696857060.420729,575849.000000000,1696857060.418969154,0.000000000,-0.098000000,-0.069000000,0.000000000,0.000000000,0.002000000
1696857060.422151,575850.000000000,1696857060.420925617,0.000000000,-0.098000000,-0.071000000,0.000000000,0.000000000,0.002000000
1696857060.424124,575851.000000000,1696857060.422932148,0.001000000,-0.098000000,-0.073000000,0.000000000,0.000000000,0.002000000
1696857060.426965,575852.000000000,1696857060.424947500,0.002000000,-0.097000000,-0.074000000,0.000000000,0.000000000,0.002000000
1696857060.428303,575853.000000000,1696857060.427024841,0.003000000,-0.095000000,-0.073000000,0.000000000,0.000000000,0.002000000
1696857060.430223,575854.000000000,1696857060.429007530,0.003000000,-0.093000000,-0.073000000,0.000000000,0.000000000,0.002000000
1696857060.432252,575855.000000000,1696857060.430934429,0.004000000,-0.092000000,-0.071000000,0.000000000,0.000000000,0.002000000
1696857060.434199,575856.000000000,1696857060.432949781,0.005000000,-0.092000000,-0.072000000,0.000000000,0.000000000,0.002000000
1696857060.436143,575857.000000000,1696857060.434923172,0.006000000,-0.092000000,-0.070000000,0.000000000,0.000000000,0.002000000
1696857060.438275,575858.000000000,1696857060.436955929,0.006000000,-0.094000000,-0.068000000,0.000000000,0.000000000,0.002000000
1696857060.440519,575859.000000000,1696857060.438958645,0.007000000,-0.097000000,-0.066000000,0.000000000,0.000000000,0.002000000
1696857060.443100,575860.000000000,1696857060.440980434,0.008000000,-0.099000000,-0.064000000,0.000000000,0.000000000,0.002000000
1696857060.444237,575861.000000000,1696857060.442923784,0.009000000,-0.102000000,-0.062000000,0.000000000,0.000000000,0.002000000
1696857060.446220,575862.000000000,1696857060.444968700,0.010000000,-0.103000000,-0.058000000,0.000000000,0.000000000,0.002000000
1696857060.448173,575863.000000000,1696857060.446941614,0.011000000,-0.103000000,-0.054000000,0.000000000,0.000000000,0.002000000
1696857060.450182,575864.000000000,1696857060.448967695,0.011000000,-0.103000000,-0.050000000,0.000000000,0.000000000,0.002000000
1696857060.452218,575865.000000000,1696857060.450961590,0.011000000,-0.101000000,-0.045000000,0.000000000,0.000000000,0.002000000
1696857060.454194,575866.000000000,1696857060.452939034,0.011000000,-0.100000000,-0.039000000,0.000000000,0.000000000,0.001000000
1696857060.456138,575867.000000000,1696857060.454910755,0.011000000,-0.100000000,-0.035000000,0.000000000,0.000000000,0.001000000
1696857060.458309,575868.000000000,1696857060.456990480,0.011000000,-0.101000000,-0.030000000,0.000000000,0.000000000,0.001000000
1696857060.460751,575869.000000000,1696857060.458975077,0.011000000,-0.103000000,-0.027000000,0.000000000,0.000000000,0.001000000
1696857060.462150,575870.000000000,1696857060.460944176,0.011000000,-0.105000000,-0.023000000,0.000000000,0.000000000,0.001000000
1696857060.464092,575871.000000000,1696857060.462919235,0.011000000,-0.108000000,-0.018000000,0.000000000,0.000000000,0.001000000
1696857060.466303,575872.000000000,1696857060.464957476,0.011000000,-0.110000000,-0.013000000,0.000000000,0.000000000,0.001000000
1696857060.468113,575873.000000000,1696857060.466926575,0.011000000,-0.112000000,-0.008000000,0.000000000,0.000000000,0.001000000
1696857060.470152,575874.000000000,1696857060.468951225,0.011000000,-0.113000000,-0.004000000,0.000000000,0.000000000,0.001000000
1696857060.472168,575875.000000000,1696857060.470901012,0.011000000,-0.113000000,0.000000000,0.000000000,0.000000000,0.001000000
1696857060.475621,575876.000000000,1696857060.472964764,0.010000000,-0.111000000,0.005000000,0.000000000,0.000000000,0.001000000
1696857060.476363,575877.000000000,1696857060.474964380,0.009000000,-0.110000000,0.011000000,0.000000000,0.000000000,0.000000000
1696857060.478313,575878.000000000,1696857060.476963282,0.008000000,-0.109000000,0.015000000,0.000000000,0.000000000,0.000000000
1696857060.480589,575879.000000000,1696857060.478953123,0.008000000,-0.109000000,0.019000000,0.000000000,0.000000000,0.000000000
1696857060.482263,575880.000000000,1696857060.480937481,0.007000000,-0.110000000,0.022000000,0.000000000,0.000000000,0.000000000
1696857060.484188,575881.000000000,1696857060.482901096,0.006000000,-0.112000000,0.025000000,0.000000000,0.000000000,0.000000000
1696857060.486214,575882.000000000,1696857060.484927416,0.006000000,-0.114000000,0.028000000,0.000000000,0.000000000,0.000000000
1696857060.488182,575883.000000000,1696857060.486909151,0.006000000,-0.117000000,0.030000000,0.000000000,0.000000000,0.000000000
1696857060.490298,575884.000000000,1696857060.488933563,0.005000000,-0.118000000,0.033000000,0.000000000,0.000000000,0.000000000
1696857060.492257,575885.000000000,1696857060.490921974,0.005000000,-0.119000000,0.035000000,0.000000000,0.000000000,0.000000000
1696857060.494240,575886.000000000,1696857060.492916822,0.004000000,-0.119000000,0.038000000,0.000000000,0.000000000,0.000000000
1696857060.496281,575887.000000000,1696857060.494942188,0.003000000,-0.117000000,0.040000000,0.000000000,0.000000000,0.000000000
1696857060.498350,575888.000000000,1696857060.496967316,0.002000000,-0.116000000,0.044000000,0.000000000,0.000000000,0.000000000
1696857060.500860,575889.000000000,1696857060.498931408,0.001000000,-0.114000000,0.046000000,0.000000000,-0.001000000,0.000000000
1696857060.502418,575890.000000000,1696857060.500953197,0.001000000,-0.113000000,0.046000000,0.000000000,-0.001000000,0.000000000
1696857060.504113,575891.000000000,1696857060.502933025,0.000000000,-0.113000000,0.047000000,0.000000000,-0.001000000,0.000000000
1696857060.506162,575892.000000000,1696857060.504964590,0.000000000,-0.115000000,0.050000000,0.000000000,-0.001000000,0.000000000
1696857060.508135,575893.000000000,1696857060.506950855,0.000000000,-0.117000000,0.050000000,0.000000000,-0.001000000,0.000000000
1696857060.510163,575894.000000000,1696857060.508959055,0.000000000,-0.119000000,0.051000000,0.000000000,-0.001000000,0.000000000
1696857060.512140,575895.000000000,1696857060.510924816,0.000000000,-0.121000000,0.051000000,0.000000000,-0.001000000,0.000000000
1696857060.514196,575896.000000000,1696857060.512973070,0.000000000,-0.122000000,0.052000000,0.000000000,-0.001000000,0.000000000
1696857060.516097,575897.000000000,1696857060.514912605,0.000000000,-0.122000000,0.051000000,0.000000000,0.000000000,0.000000000
1696857060.519240,575898.000000000,1696857060.516956091,0.000000000,-0.121000000,0.053000000,0.000000000,0.000000000,0.000000000
1696857060.520981,575899.000000000,1696857060.518934488,0.000000000,-0.119000000,0.054000000,0.000000000,0.000000000,0.000000000
1696857060.522876,575900.000000000,1696857060.520974636,-0.001000000,-0.117000000,0.056000000,0.000000000,0.000000000,0.000000000
1696857060.524243,575901.000000000,1696857060.522946835,-0.001000000,-0.116000000,0.057000000,0.000000000,-0.001000000,0.000000000
1696857060.526235,575902.000000000,1696857060.524981260,-0.001000000,-0.115000000,0.057000000,0.000000000,-0.001000000,0.000000000
1696857060.528226,575903.000000000,1696857060.526937485,-0.001000000,-0.116000000,0.057000000,0.000000000,0.000000000,0.000000000
1696857060.530429,575904.000000000,1696857060.528972387,-0.001000000,-0.118000000,0.057000000,0.000000000,0.000000000,0.000000000
1696857060.532168,575905.000000000,1696857060.530935764,-0.001000000,-0.121000000,0.057000000,0.000000000,0.000000000,0.000000000
1696857060.534179,575906.000000000,1696857060.532944441,0.000000000,-0.123000000,0.056000000,0.000000000,0.000000000,0.000000000
1696857060.536207,575907.000000000,1696857060.534909487,0.000000000,-0.123000000,0.057000000,0.000000000,0.000000000,0.000000000
1696857060.538223,575908.000000000,1696857060.536934853,0.000000000,-0.124000000,0.057000000,0.000000000,0.000000000,0.000000000
1696857060.541185,575909.000000000,1696857060.538989544,0.000000000,-0.123000000,0.059000000,0.000000000,0.000000000,0.000000000
1696857060.542169,575910.000000000,1696857060.540933609,0.000000000,-0.121000000,0.059000000,0.000000000,0.000000000,0.000000000
1696857060.544201,575911.000000000,1696857060.542924404,0.000000000,-0.119000000,0.061000000,0.000000000,0.000000000,0.000000000
1696857060.546367,575912.000000000,1696857060.545122385,0.000000000,-0.117000000,0.061000000,0.000000000,0.000000000,0.000000000
1696857060.548165,575913.000000000,1696857060.546954393,0.000000000,-0.116000000,0.062000000,0.000000000,0.000000000,0.000000000
1696857060.550210,575914.000000000,1696857060.548934698,0.000000000,-0.116000000,0.061000000,0.000000000,0.000000000,0.000000000
1696857060.552133,575915.000000000,1696857060.550910711,0.000000000,-0.118000000,0.061000000,0.000000000,0.000000000,0.000000000
1696857060.554147,575916.000000000,1696857060.552924156,0.000000000,-0.120000000,0.062000000,0.000000000,0.000000000,0.000000000
1696857060.556115,575917.000000000,1696857060.554908514,0.000000000,-0.121000000,0.062000000,0.000000000,0.000000000,0.000000000
1696857060.558137,575918.000000000,1696857060.556937456,0.001000000,-0.122000000,0.062000000,0.000000000,0.000000000,0.000000000
1696857060.560701,575919.000000000,1696857060.558950186,0.001000000,-0.123000000,0.061000000,0.000000000,0.000000000,0.000000000
1696857060.562745,575920.000000000,1696857060.561096668,0.001000000,-0.122000000,0.062000000,0.000000000,0.000000000,0.000000000
1696857060.564192,575921.000000000,1696857060.562912464,0.001000000,-0.121000000,0.063000000,0.000000000,0.000000000,0.000000000
1696857060.566376,575922.000000000,1696857060.565030575,0.001000000,-0.118000000,0.064000000,-0.001000000,0.000000000,0.000000000
1696857060.568239,575923.000000000,1696857060.566953182,0.000000000,-0.116000000,0.066000000,-0.001000000,0.000000000,0.000000000
1696857060.570302,575924.000000000,1696857060.569017410,0.000000000,-0.115000000,0.066000000,-0.001000000,0.000000000,0.000000000
1696857060.572183,575925.000000000,1696857060.570950985,0.000000000,-0.114000000,0.067000000,-0.001000000,0.000000000,0.000000000
1696857060.574748,575926.000000000,1696857060.572973251,0.000000000,-0.115000000,0.066000000,-0.001000000,0.000000000,0.000000000
1696857060.576212,575927.000000000,1696857060.574982643,0.000000000,-0.117000000,0.067000000,-0.001000000,0.000000000,0.000000000
1696857060.578319,575928.000000000,1696857060.577003956,0.000000000,-0.119000000,0.067000000,-0.001000000,0.000000000,0.000000000
1696857060.580944,575929.000000000,1696857060.578967333,0.000000000,-0.121000000,0.067000000,-0.001000000,0.000000000,0.000000000
1696857060.582243,575930.000000000,1696857060.580914021,0.000000000,-0.121000000,0.067000000,0.000000000,0.000000000,0.000000000
1696857060.584313,575931.000000000,1696857060.582952738,0.000000000,-0.121000000,0.068000000,0.000000000,0.000000000,0.000000000
1696857060.586197,575932.000000000,1696857060.584945202,0.000000000,-0.120000000,0.069000000,0.000000000,0.000000000,0.000000000
1696857060.588133,575933.000000000,1696857060.586938381,0.000000000,-0.118000000,0.070000000,-0.001000000,0.000000000,0.000000000
1696857060.590189,575934.000000000,1696857060.588959932,-0.001000000,-0.116000000,0.072000000,-0.001000000,0.000000000,0.000000000
1696857060.592201,575935.000000000,1696857060.590955734,-0.002000000,-0.114000000,0.073000000,-0.001000000,0.000000000,0.000000000
1696857060.594305,575936.000000000,1696857060.592995405,-0.002000000,-0.113000000,0.074000000,-0.001000000,0.000000000,0.000000000
1696857060.596239,575937.000000000,1696857060.595009327,-0.003000000,-0.114000000,0.073000000,-0.001000000,0.000000000,0.000000000
1696857060.598271,575938.000000000,1696857060.596958637,-0.003000000,-0.115000000,0.073000000,-0.001000000,0.000000000,0.000000000
1696857060.601148,575939.000000000,1696857060.598994017,-0.003000000,-0.117000000,0.073000000,0.000000000,0.000000000,0.000000000
1696857060.602174,575940.000000000,1696857060.600968122,-0.004000000,-0.120000000,0.074000000,0.000000000,0.000000000,0.000000000
1696857060.604117,575941.000000000,1696857060.602928877,-0.004000000,-0.121000000,0.074000000,0.000000000,0.000000000,0.000000000
1696857060.606334,575942.000000000,1696857060.605128050,-0.005000000,-0.122000000,0.074000000,0.000000000,0.000000000,0.000000000
1696857060.608163,575943.000000000,1696857060.606944799,-0.005000000,-0.121000000,0.075000000,0.000000000,0.000000000,0.000000000
1696857060.610229,575944.000000000,1696857060.608948708,-0.006000000,-0.120000000,0.076000000,0.000000000,0.000000000,0.000000000
1696857060.612158,575945.000000000,1696857060.610944033,-0.007000000,-0.118000000,0.078000000,0.000000000,0.000000000,0.000000000
1696857060.614178,575946.000000000,1696857060.612951040,-0.007000000,-0.116000000,0.079000000,0.000000000,0.000000000,0.000000000
1696857060.616286,575947.000000000,1696857060.615051270,-0.008000000,-0.115000000,0.080000000,0.000000000,0.000000000,0.000000000
1696857060.619169,575948.000000000,1696857060.617052317,-0.008000000,-0.116000000,0.079000000,0.000000000,0.000000000,0.000000000
1696857060.620702,575949.000000000,1696857060.619017839,-0.009000000,-0.117000000,0.079000000,0.000000000,0.000000000,0.000000000
1696857060.622173,575950.000000000,1696857060.620952129,-0.009000000,-0.119000000,0.079000000,0.000000000,0.000000000,0.000000000
1696857060.624177,575951.000000000,1696857060.622924328,-0.009000000,-0.122000000,0.079000000,0.000000000,0.000000000,0.000000000
1696857060.626337,575952.000000000,1696857060.624943256,-0.009000000,-0.124000000,0.080000000,0.000000000,0.000000000,0.000000000
1696857060.628245,575953.000000000,1696857060.626953125,-0.009000000,-0.125000000,0.079000000,0.000000000,0.000000000,0.000000000
1696857060.630200,575954.000000000,1696857060.628945112,-0.009000000,-0.125000000,0.079000000,0.000000000,0.000000000,0.000000000
1696857060.632125,575955.000000000,1696857060.630913019,-0.009000000,-0.123000000,0.078000000,0.000000000,0.000000000,0.000000000
1696857060.634202,575956.000000000,1696857060.632942438,-0.009000000,-0.122000000,0.079000000,0.000000000,0.000000000,0.000000000
1696857060.636140,575957.000000000,1696857060.634912968,-0.010000000,-0.120000000,0.079000000,0.000000000,0.000000000,0.000000000
1696857060.638151,575958.000000000,1696857060.636961699,-0.010000000,-0.118000000,0.079000000,0.000000000,0.000000000,0.000000000
1696857060.640721,575959.000000000,1696857060.639030218,-0.010000000,-0.118000000,0.077000000,0.000000000,0.000000000,0.000000000
1696857060.642358,575960.000000000,1696857060.640976906,-0.009000000,-0.118000000,0.074000000,0.000000000,0.000000000,0.000000000
1696857060.644130,575961.000000000,1696857060.642939806,-0.009000000,-0.119000000,0.074000000,0.000000000,0.000000000,0.000000000
1696857060.646289,575962.000000000,1696857060.645088434,-0.008000000,-0.121000000,0.070000000,0.000000000,0.000000000,0.000000000
1696857060.648145,575963.000000000,1696857060.646946192,-0.008000000,-0.123000000,0.068000000,0.000000000,0.000000000,0.000000000
1696857060.650314,575964.000000000,1696857060.648989201,-0.007000000,-0.124000000,0.065000000,0.000000000,0.000000000,0.000000000
1696857060.652138,575965.000000000,1696857060.650926590,-0.007000000,-0.123000000,0.061000000,0.000000000,0.000000000,0.000000000
1696857060.654161,575966.000000000,1696857060.652955532,-0.006000000,-0.122000000,0.058000000,0.000000000,0.000000000,0.000000000
1696857060.656112,575967.000000000,1696857060.654924870,-0.006000000,-0.119000000,0.055000000,0.000000000,0.000000000,0.000000000
1696857060.658280,575968.000000000,1696857060.657007933,-0.005000000,-0.117000000,0.053000000,0.000000000,0.000000000,0.000000000
1696857060.660775,575969.000000000,1696857060.658985615,-0.005000000,-0.114000000,0.050000000,0.000000000,0.000000000,0.000000000
1696857060.662884,575970.000000000,1696857060.661015749,-0.005000000,-0.111000000,0.046000000,0.000000000,0.000000000,0.000000000
1696857060.665287,575971.000000000,1696857060.663178205,-0.004000000,-0.111000000,0.040000000,0.000000000,0.000000000,0.000000000
1696857060.666965,575972.000000000,1696857060.665201902,-0.004000000,-0.111000000,0.036000000,0.000000000,0.000000000,0.000000000
1696857060.668222,575973.000000000,1696857060.666926384,-0.002000000,-0.112000000,0.028000000,0.000000000,0.000000000,0.000000000
1696857060.670271,575974.000000000,1696857060.668967962,-0.002000000,-0.112000000,0.024000000,0.000000000,0.000000000,0.000000000
1696857060.672251,575975.000000000,1696857060.670958519,-0.001000000,-0.113000000,0.018000000,0.000000000,0.000000000,0.000000000
1696857060.674254,575976.000000000,1696857060.672959566,0.000000000,-0.112000000,0.012000000,0.000000000,0.000000000,0.001000000
1696857060.676240,575977.000000000,1696857060.674957752,0.000000000,-0.110000000,0.007000000,0.000000000,0.000000000,0.001000000
1696857060.678270,575978.000000000,1696857060.676967144,0.000000000,-0.107000000,0.001000000,0.000000000,0.000000000,0.001000000
1696857060.680670,575979.000000000,1696857060.679002762,0.000000000,-0.104000000,-0.002000000,0.000000000,0.000000000,0.001000000
1696857060.682283,575980.000000000,1696857060.680970907,0.000000000,-0.100000000,-0.006000000,-0.001000000,0.000000000,0.001000000
1696857060.684255,575981.000000000,1696857060.682958364,0.000000000,-0.097000000,-0.012000000,-0.001000000,0.000000000,0.001000000
1696857060.686574,575982.000000000,1696857060.685117960,0.000000000,-0.096000000,-0.017000000,-0.001000000,0.000000000,0.001000000
1696857060.688154,575983.000000000,1696857060.686944246,0.000000000,-0.095000000,-0.022000000,-0.001000000,0.000000000,0.001000000
1696857060.690239,575984.000000000,1696857060.688968897,0.001000000,-0.096000000,-0.027000000,-0.001000000,0.000000000,0.001000000
1696857060.692230,575985.000000000,1696857060.690942287,0.001000000,-0.097000000,-0.031000000,0.000000000,0.000000000,0.002000000
1696857060.694301,575986.000000000,1696857060.693011761,0.002000000,-0.097000000,-0.035000000,0.000000000,0.000000000,0.002000000
1696857060.696334,575987.000000000,1696857060.694962740,0.002000000,-0.097000000,-0.040000000,0.000000000,0.000000000,0.002000000
1696857060.698262,575988.000000000,1696857060.696951389,0.002000000,-0.097000000,-0.043000000,0.000000000,0.000000000,0.002000000
1696857060.700907,575989.000000000,1696857060.698968649,0.002000000,-0.095000000,-0.046000000,0.000000000,0.000000000,0.002000000
1696857060.702214,575990.000000000,1696857060.700973511,0.001000000,-0.092000000,-0.045000000,0.000000000,0.000000000,0.002000000
1696857060.704169,575991.000000000,1696857060.702938080,0.001000000,-0.090000000,-0.047000000,-0.001000000,0.000000000,0.002000000
1696857060.706484,575992.000000000,1696857060.704953432,0.000000000,-0.088000000,-0.047000000,-0.001000000,0.000000000,0.002000000
1696857060.708220,575993.000000000,1696857060.706973791,0.000000000,-0.087000000,-0.047000000,-0.001000000,0.000000000,0.002000000
1696857060.710243,575994.000000000,1696857060.709000111,0.000000000,-0.087000000,-0.048000000,-0.001000000,0.000000000,0.002000000
1696857060.712187,575995.000000000,1696857060.710964441,0.000000000,-0.089000000,-0.047000000,-0.001000000,0.000000000,0.002000000
1696857060.714308,575996.000000000,1696857060.712979794,-0.001000000,-0.091000000,-0.047000000,0.000000000,0.000000000,0.002000000
1696857060.716238,575997.000000000,1696857060.714981318,-0.001000000,-0.093000000,-0.045000000,0.000000000,0.000000000,0.002000000
1696857060.718289,575998.000000000,1696857060.716987371,-0.001000000,-0.096000000,-0.043000000,0.000000000,0.000000000,0.002000000
1696857060.721051,575999.000000000,1696857060.718995094,-0.001000000,-0.097000000,-0.041000000,0.000000000,0.000000000,0.002000000
1696857060.722209,576000.000000000,1696857060.720974445,-0.001000000,-0.097000000,-0.038000000,0.000000000,0.000000000,0.002000000
1696857060.724174,576001.000000000,1696857060.722948551,-0.002000000,-0.097000000,-0.034000000,0.000000000,0.000000000,0.002000000
1696857060.726306,576002.000000000,1696857060.724979639,-0.002000000,-0.096000000,-0.029000000,0.000000000,0.000000000,0.002000000
1696857060.728181,576003.000000000,1696857060.726969957,-0.003000000,-0.095000000,-0.024000000,0.000000000,0.000000000,0.002000000
1696857060.730286,576004.000000000,1696857060.729063511,-0.004000000,-0.095000000,-0.020000000,0.000000000,0.000000000,0.001000000
1696857060.732205,576005.000000000,1696857060.730971098,-0.004000000,-0.097000000,-0.015000000,0.000000000,0.000000000,0.001000000
1696857060.734559,576006.000000000,1696857060.732957125,-0.004000000,-0.099000000,-0.011000000,0.000000000,0.000000000,0.001000000
1696857060.736217,576007.000000000,1696857060.734961748,-0.004000000,-0.102000000,-0.006000000,0.000000000,0.000000000,0.001000000
1696857060.738254,576008.000000000,1696857060.737016678,-0.003000000,-0.106000000,-0.002000000,0.000000000,0.000000000,0.001000000
1696857060.740652,576009.000000000,1696857060.738946199,-0.003000000,-0.109000000,0.002000000,0.000000000,0.000000000,0.001000000
1696857060.742239,576010.000000000,1696857060.740974665,-0.002000000,-0.112000000,0.006000000,0.000000000,0.000000000,0.001000000
1696857060.744164,576011.000000000,1696857060.742938995,-0.002000000,-0.113000000,0.011000000,0.000000000,0.000000000,0.001000000
1696857060.746223,576012.000000000,1696857060.745031834,-0.002000000,-0.114000000,0.016000000,0.000000000,0.000000000,0.001000000
1696857060.748145,576013.000000000,1696857060.746963024,-0.002000000,-0.113000000,0.023000000,0.000000000,0.000000000,0.001000000
1696857060.750218,576014.000000000,1696857060.749046564,-0.001000000,-0.112000000,0.027000000,0.000000000,0.000000000,0.000000000
1696857060.752137,576015.000000000,1696857060.750938177,-0.001000000,-0.111000000,0.032000000,0.000000000,0.000000000,0.000000000
1696857060.755006,576016.000000000,1696857060.752984047,-0.001000000,-0.112000000,0.035000000,0.000000000,0.000000000,0.000000000
1696857060.756198,576017.000000000,1696857060.754927397,0.000000000,-0.114000000,0.038000000,0.000000000,0.000000000,0.000000000
1696857060.758538,576018.000000000,1696857060.756954432,0.000000000,-0.116000000,0.040000000,0.000000000,0.000000000,0.000000000
1696857060.760706,576019.000000000,1696857060.758970737,0.001000000,-0.119000000,0.044000000,0.000000000,0.000000000,0.000000000
1696857060.762243,576020.000000000,1696857060.760944366,0.002000000,-0.122000000,0.046000000,0.000000000,0.000000000,0.000000000
1696857060.764181,576021.000000000,1696857060.762911081,0.004000000,-0.124000000,0.048000000,0.000000000,0.000000000,0.000000000
1696857060.766294,576022.000000000,1696857060.764931440,0.005000000,-0.125000000,0.049000000,0.000000000,0.000000000,0.000000000
1696857060.768232,576023.000000000,1696857060.766948938,0.005000000,-0.124000000,0.051000000,0.000000000,0.000000000,0.000000000
1696857060.770367,576024.000000000,1696857060.769044161,0.006000000,-0.123000000,0.053000000,0.000000000,0.000000000,0.000000000
1696857060.772260,576025.000000000,1696857060.770935297,0.007000000,-0.121000000,0.054000000,0.000000000,0.000000000,0.000000000
1696857060.774379,576026.000000000,1696857060.772945881,0.008000000,-0.119000000,0.055000000,0.000000000,0.000000000,0.000000000
1696857060.776273,576027.000000000,1696857060.774976015,0.008000000,-0.118000000,0.056000000,0.000000000,0.000000000,0.000000000
1696857060.778419,576028.000000000,1696857060.776996374,0.009000000,-0.118000000,0.055000000,0.000000000,0.000000000,0.000000000
1696857060.780872,576029.000000000,1696857060.778958082,0.010000000,-0.119000000,0.055000000,0.000000000,0.000000000,0.000000000
1696857060.782235,576030.000000000,1696857060.780990839,0.011000000,-0.120000000,0.054000000,0.000000000,0.000000000,0.000000000
1696857060.784092,576031.000000000,1696857060.782913208,0.012000000,-0.122000000,0.053000000,0.000000000,0.000000000,0.000000000
1696857060.786254,576032.000000000,1696857060.784947395,0.013000000,-0.123000000,0.052000000,0.000000000,0.000000000,0.000000000
1696857060.788106,576033.000000000,1696857060.786926746,0.014000000,-0.123000000,0.050000000,0.000000000,0.000000000,0.000000000
1696857060.790220,576034.000000000,1696857060.788961172,0.014000000,-0.123000000,0.049000000,0.000000000,0.000000000,0.000000000
1696857060.792196,576035.000000000,1696857060.790935040,0.015000000,-0.120000000,0.050000000,0.000000000,0.000000000,0.000000000
1696857060.794147,576036.000000000,1696857060.792944193,0.015000000,-0.118000000,0.048000000,0.000000000,0.000000000,0.000000000
1696857060.796169,576037.000000000,1696857060.794933558,0.015000000,-0.115000000,0.049000000,0.000000000,0.000000000,0.000000000
1696857060.798181,576038.000000000,1696857060.796960592,0.014000000,-0.113000000,0.048000000,0.000000000,0.000000000,0.000000000
1696857060.800846,576039.000000000,1696857060.798989773,0.014000000,-0.112000000,0.047000000,-0.001000000,0.000000000,0.000000000
1696857060.802238,576040.000000000,1696857060.800948143,0.014000000,-0.112000000,0.045000000,0.000000000,0.000000000,0.000000000
1696857060.804326,576041.000000000,1696857060.802978277,0.014000000,-0.113000000,0.044000000,0.000000000,0.000000000,0.000000000
1696857060.806211,576042.000000000,1696857060.804939032,0.015000000,-0.115000000,0.042000000,0.000000000,0.000000000,0.000000000
1696857060.808149,576043.000000000,1696857060.806920767,0.015000000,-0.116000000,0.041000000,0.000000000,0.000000000,0.000000000
1696857060.810335,576044.000000000,1696857060.808941603,0.015000000,-0.117000000,0.040000000,0.000000000,0.000000000,0.000000000
1696857060.812247,576045.000000000,1696857060.810925245,0.014000000,-0.117000000,0.039000000,0.000000000,0.000000000,0.000000000
1696857060.814182,576046.000000000,1696857060.812931299,0.014000000,-0.116000000,0.039000000,0.000000000,0.000000000,0.000000000
1696857060.816311,576047.000000000,1696857060.814917088,0.013000000,-0.114000000,0.039000000,0.000000000,0.000000000,0.000000000
1696857060.818415,576048.000000000,1696857060.816981792,0.012000000,-0.111000000,0.040000000,-0.001000000,0.000000000,0.000000000
1696857060.820704,576049.000000000,1696857060.818993568,0.011000000,-0.109000000,0.040000000,-0.001000000,0.000000000,0.000000000
1696857060.822243,576050.000000000,1696857060.820977211,0.010000000,-0.108000000,0.040000000,-0.001000000,0.000000000,0.000000000
1696857060.824181,576051.000000000,1696857060.822937012,0.009000000,-0.109000000,0.039000000,-0.001000000,0.000000000,0.000000000
1696857060.826307,576052.000000000,1696857060.824998140,0.009000000,-0.110000000,0.038000000,-0.001000000,0.000000000,0.000000000
1696857060.828209,576053.000000000,1696857060.826935291,0.008000000,-0.112000000,0.039000000,-0.001000000,0.000000000,0.000000000
1696857060.830264,576054.000000000,1696857060.828981876,0.008000000,-0.115000000,0.037000000,-0.001000000,0.000000000,0.000000000
1696857060.832204,576055.000000000,1696857060.830940247,0.008000000,-0.117000000,0.037000000,0.000000000,0.000000000,0.000000000
1696857060.834208,576056.000000000,1696857060.832976341,0.007000000,-0.118000000,0.036000000,0.000000000,0.000000000,0.000000000
1696857060.836164,576057.000000000,1696857060.834921837,0.006000000,-0.118000000,0.037000000,0.000000000,0.000000000,0.000000000
1696857060.838175,576058.000000000,1696857060.836941004,0.005000000,-0.116000000,0.038000000,0.000000000,0.000000000,0.000000000
1696857060.841128,576059.000000000,1696857060.838980675,0.004000000,-0.115000000,0.039000000,-0.001000000,0.000000000,0.000000000
1696857060.842228,576060.000000000,1696857060.840967894,0.003000000,-0.114000000,0.039000000,-0.001000000,0.000000000,0.000000000
1696857060.844153,576061.000000000,1696857060.842945337,0.002000000,-0.113000000,0.040000000,-0.001000000,0.000000000,0.000000000
1696857060.846954,576062.000000000,1696857060.845134020,0.002000000,-0.114000000,0.038000000,-0.001000000,-0.001000000,0.000000000
1696857060.848394,576063.000000000,1696857060.847144842,0.001000000,-0.116000000,0.038000000,-0.001000000,-0.001000000,0.000000000
1696857060.850411,576064.000000000,1696857060.849093914,0.001000000,-0.118000000,0.038000000,0.000000000,-0.001000000,0.000000000
1696857060.852122,576065.000000000,1696857060.850881100,0.001000000,-0.121000000,0.037000000,0.000000000,-0.001000000,0.000000000
1696857060.854114,576066.000000000,1696857060.852889538,0.001000000,-0.124000000,0.037000000,0.000000000,-0.001000000,0.000000000
1696857060.856194,576067.000000000,1696857060.854950428,0.000000000,-0.126000000,0.037000000,0.000000000,-0.001000000,0.000000000
1696857060.859058,576068.000000000,1696857060.857055187,0.000000000,-0.126000000,0.036000000,0.000000000,0.000000000,0.000000000
1696857060.860997,576069.000000000,1696857060.858998299,0.000000000,-0.126000000,0.038000000,0.000000000,0.000000000,0.000000000
1696857060.862182,576070.000000000,1696857060.860943556,0.000000000,-0.125000000,0.038000000,0.000000000,0.000000000,0.000000000
1696857060.864186,576071.000000000,1696857060.862970591,-0.001000000,-0.124000000,0.039000000,0.000000000,-0.001000000,0.000000000
1696857060.867033,576072.000000000,1696857060.864982367,-0.001000000,-0.123000000,0.039000000,0.000000000,-0.001000000,0.000000000
1696857060.868167,576073.000000000,1696857060.866968632,-0.001000000,-0.123000000,0.038000000,0.000000000,-0.001000000,0.000000000
1696857060.870251,576074.000000000,1696857060.868988514,-0.002000000,-0.124000000,0.038000000,0.000000000,-0.001000000,0.000000000
1696857060.872163,576075.000000000,1696857060.870924473,-0.002000000,-0.126000000,0.038000000,0.000000000,-0.001000000,0.000000000
1696857060.874308,576076.000000000,1696857060.873000622,-0.002000000,-0.128000000,0.038000000,0.000000000,0.000000000,0.000000000
1696857060.876201,576077.000000000,1696857060.874997616,-0.001000000,-0.131000000,0.038000000,0.000000000,0.000000000,0.000000000
1696857060.878191,576078.000000000,1696857060.876990557,-0.001000000,-0.133000000,0.037000000,0.000000000,0.000000000,0.000000000
1696857060.880758,576079.000000000,1696857060.878987312,-0.001000000,-0.134000000,0.036000000,0.000000000,0.000000000,0.000000000
1696857060.882257,576080.000000000,1696857060.880992174,-0.001000000,-0.133000000,0.038000000,0.000000000,0.000000000,0.000000000
1696857060.884183,576081.000000000,1696857060.882940531,-0.001000000,-0.132000000,0.038000000,0.000000000,0.000000000,0.000000000
1696857060.886216,576082.000000000,1696857060.885007143,-0.001000000,-0.129000000,0.040000000,0.000000000,0.000000000,0.000000000
1696857060.888203,576083.000000000,1696857060.886965036,-0.001000000,-0.128000000,0.041000000,0.000000000,0.000000000,0.000000000
1696857060.890176,576084.000000000,1696857060.888978958,-0.001000000,-0.126000000,0.042000000,0.000000000,0.000000000,0.000000000
1696857060.892215,576085.000000000,1696857060.891018152,-0.001000000,-0.127000000,0.041000000,0.000000000,0.000000000,0.000000000
1696857060.894194,576086.000000000,1696857060.892999887,-0.001000000,-0.127000000,0.041000000,0.000000000,0.000000000,0.000000000
1696857060.896331,576087.000000000,1696857060.895025969,-0.001000000,-0.129000000,0.041000000,0.000000000,0.000000000,0.000000000
1696857060.898383,576088.000000000,1696857060.896957874,0.000000000,-0.131000000,0.041000000,0.000000000,0.000000000,0.000000000
1696857060.900942,576089.000000000,1696857060.898958921,0.000000000,-0.132000000,0.041000000,0.000000000,0.000000000,0.000000000
1696857060.902141,576090.000000000,1696857060.900911331,0.000000000,-0.132000000,0.042000000,0.000000000,0.000000000,0.000000000
1696857060.904186,576091.000000000,1696857060.902944326,0.001000000,-0.132000000,0.041000000,0.000000000,0.000000000,0.000000000
1696857060.906521,576092.000000000,1696857060.904942274,0.001000000,-0.130000000,0.043000000,0.000000000,0.000000000,0.000000000
1696857060.908169,576093.000000000,1696857060.906907797,0.001000000,-0.127000000,0.045000000,0.000000000,0.000000000,0.000000000
1696857060.910146,576094.000000000,1696857060.908921957,0.001000000,-0.124000000,0.046000000,0.000000000,0.000000000,0.000000000
1696857060.912145,576095.000000000,1696857060.910930634,0.001000000,-0.122000000,0.047000000,0.000000000,0.000000000,0.000000000
1696857060.914185,576096.000000000,1696857060.912977457,0.001000000,-0.121000000,0.047000000,0.000000000,0.000000000,0.000000000
1696857060.916173,576097.000000000,1696857060.914937496,0.001000000,-0.121000000,0.046000000,0.000000000,0.000000000,0.000000000
1696857060.918144,576098.000000000,1696857060.916953564,0.002000000,-0.122000000,0.047000000,0.000000000,0.000000000,0.000000000
1696857060.920599,576099.000000000,1696857060.918975115,0.002000000,-0.123000000,0.048000000,0.000000000,0.000000000,0.000000000
1696857060.922799,576100.000000000,1696857060.921060085,0.003000000,-0.125000000,0.046000000,0.000000000,0.000000000,0.000000000
1696857060.924208,576101.000000000,1696857060.922972918,0.003000000,-0.125000000,0.046000000,0.000000000,0.000000000,0.000000000
1696857060.926247,576102.000000000,1696857060.924962997,0.003000000,-0.124000000,0.046000000,0.000000000,0.000000000,0.000000000
1696857060.928258,576103.000000000,1696857060.926924706,0.003000000,-0.123000000,0.045000000,0.000000000,0.000000000,0.000000000
1696857060.930366,576104.000000000,1696857060.928972244,0.003000000,-0.120000000,0.046000000,0.000000000,0.000000000,0.000000000
1696857060.932186,576105.000000000,1696857060.930965185,0.003000000,-0.117000000,0.046000000,-0.001000000,0.000000000,0.000000000
1696857060.934253,576106.000000000,1696857060.932968616,0.002000000,-0.115000000,0.046000000,-0.001000000,0.000000000,0.000000000
1696857060.936178,576107.000000000,1696857060.934971571,0.002000000,-0.113000000,0.045000000,-0.001000000,0.000000000,0.000000000
1696857060.938419,576108.000000000,1696857060.936973095,0.002000000,-0.112000000,0.042000000,-0.001000000,0.000000000,0.000000000
1696857060.941734,576109.000000000,1696857060.938962221,0.002000000,-0.113000000,0.041000000,-0.001000000,0.000000000,0.000000000
1696857060.942556,576110.000000000,1696857060.940979719,0.001000000,-0.114000000,0.039000000,-0.001000000,0.000000000,0.000000000
1696857060.944152,576111.000000000,1696857060.942947388,0.001000000,-0.115000000,0.036000000,-0.001000000,0.000000000,0.000000000
1696857060.946402,576112.000000000,1696857060.944951057,0.001000000,-0.116000000,0.033000000,0.000000000,0.000000000,0.000000000
1696857060.948166,576113.000000000,1696857060.946935892,0.001000000,-0.116000000,0.030000000,0.000000000,0.000000000,0.000000000
1696857060.950231,576114.000000000,1696857060.948960781,0.001000000,-0.115000000,0.027000000,0.000000000,0.000000000,0.000000000
1696857060.952194,576115.000000000,1696857060.950918913,0.000000000,-0.113000000,0.024000000,0.000000000,0.000000000,0.000000000
1696857060.954959,576116.000000000,1696857060.953690767,0.000000000,-0.110000000,0.020000000,-0.001000000,0.000000000,0.000000000
1696857060.956347,576117.000000000,1696857060.955044508,0.000000000,-0.107000000,0.016000000,-0.001000000,0.000000000,0.000000000
1696857060.958524,576118.000000000,1696857060.957029104,-0.001000000,-0.105000000,0.014000000,-0.001000000,0.000000000,0.000000000
1696857060.960881,576119.000000000,1696857060.958957911,-0.002000000,-0.104000000,0.009000000,-0.001000000,0.000000000,0.001000000
1696857060.962471,576120.000000000,1696857060.960986376,-0.002000000,-0.104000000,0.004000000,-0.001000000,0.000000000,0.001000000
1696857060.964209,576121.000000000,1696857060.962940454,-0.002000000,-0.105000000,0.000000000,-0.001000000,0.000000000,0.001000000
1696857060.966353,576122.000000000,1696857060.964987993,-0.002000000,-0.107000000,-0.006000000,0.000000000,0.000000000,0.001000000
1696857060.968274,576123.000000000,1696857060.966997147,-0.002000000,-0.108000000,-0.012000000,0.000000000,0.000000000,0.001000000
1696857060.971189,576124.000000000,1696857060.968986034,-0.003000000,-0.108000000,-0.017000000,0.000000000,0.000000000,0.001000000
1696857060.972367,576125.000000000,1696857060.970985413,-0.003000000,-0.107000000,-0.023000000,0.000000000,0.000000000,0.001000000
1696857060.974746,576126.000000000,1696857060.972990990,-0.003000000,-0.106000000,-0.027000000,0.000000000,0.000000000,0.001000000
1696857060.976264,576127.000000000,1696857060.975003958,-0.004000000,-0.103000000,-0.031000000,0.000000000,0.000000000,0.002000000
1696857060.978397,576128.000000000,1696857060.976996660,-0.004000000,-0.101000000,-0.035000000,0.000000000,0.000000000,0.002000000
1696857060.980705,576129.000000000,1696857060.979036570,-0.004000000,-0.098000000,-0.039000000,0.000000000,0.000000000,0.002000000
1696857060.982302,576130.000000000,1696857060.980968237,-0.005000000,-0.097000000,-0.045000000,0.000000000,0.000000000,0.002000000
1696857060.984177,576131.000000000,1696857060.982950449,-0.005000000,-0.097000000,-0.049000000,0.000000000,0.000000000,0.002000000
1696857060.986272,576132.000000000,1696857060.984999895,-0.004000000,-0.098000000,-0.053000000,0.000000000,0.000000000,0.002000000
1696857060.988252,576133.000000000,1696857060.986940861,-0.004000000,-0.099000000,-0.058000000,0.000000000,0.000000000,0.002000000
1696857060.990260,576134.000000000,1696857060.988985777,-0.003000000,-0.101000000,-0.062000000,0.000000000,0.000000000,0.002000000
1696857060.992249,576135.000000000,1696857060.990961552,-0.003000000,-0.102000000,-0.065000000,0.000000000,0.000000000,0.002000000
1696857060.994302,576136.000000000,1696857060.992992878,-0.002000000,-0.102000000,-0.069000000,0.000000000,0.000000000,0.003000000
1696857060.996920,576137.000000000,1696857060.995013952,-0.002000000,-0.101000000,-0.070000000,0.000000000,0.000000000,0.003000000
1696857060.998270,576138.000000000,1696857060.996980429,-0.002000000,-0.099000000,-0.071000000,0.000000000,0.000000000,0.003000000
