__time,/hsrb/wrist_wrench/compensated/header/seq,/hsrb/wrist_wrench/compensated/header/stamp,/hsrb/wrist_wrench/compensated/wrench/force/x,/hsrb/wrist_wrench/compensated/wrench/force/y,/hsrb/wrist_wrench/compensated/wrench/force/z,/hsrb/wrist_wrench/compensated/wrench/torque/x,/hsrb/wrist_wrench/compensated/wrench/torque/y,/hsrb/wrist_wrench/compensated/wrench/torque/z,/rosout/header/seq,/rosout/header/stamp,/rosout/level,/rosout/line,/rosout_agg/header/seq,/rosout_agg/header/stamp,/rosout_agg/level,/rosout_agg/line
1697105439.770101,,,,,,,,,538.000000,1697105439.769853,2.000000,30.000000,,,,
1697105439.782617,,,,,,,,,539.000000,1697105439.782119,2.000000,30.000000,,,,
1697105439.784099,,,,,,,,,,,,,1522.000000,1697105439.769853,2.000000,30.000000
1697105439.806386,,,,,,,,,,,,,1523.000000,1697105439.782119,2.000000,30.000000
1697105439.806820,,,,,,,,,540.000000,1697105439.806563,2.000000,30.000000,,,,
1697105439.817626,,,,,,,,,,,,,1524.000000,1697105439.806563,2.000000,30.000000
1697105439.820036,,,,,,,,,541.000000,1697105439.819746,2.000000,30.000000,,,,
1697105439.829185,,,,,,,,,,,,,1525.000000,1697105439.819746,2.000000,30.000000
1697105439.838354,,,,,,,,,542.000000,1697105439.838201,2.000000,209.000000,,,,
1697105439.865846,,,,,,,,,543.000000,1697105439.865576,2.000000,30.000000,,,,
1697105439.867423,,,,,,,,,,,,,1526.000000,1697105439.838201,2.000000,209.000000
1697105439.877096,,,,,,,,,,,,,1527.000000,1697105439.865576,2.000000,30.000000
1697105439.877451,,,,,,,,,544.000000,1697105439.877292,4.000000,34.000000,,,,
1697105439.888556,,,,,,,,,,,,,1528.000000,1697105439.877292,4.000000,34.000000
1697105439.890667,,,,,,,,,545.000000,1697105439.890471,4.000000,34.000000,,,,
1697105439.910012,,,,,,,,,,,,,1529.000000,1697105439.890471,4.000000,34.000000
1697105441.983111,,,,,,,,,546.000000,1697105441.982805,2.000000,30.000000,,,,
1697105442.024054,,,,,,,,,,,,,1530.000000,1697105441.982805,2.000000,30.000000
1697105442.024668,,,,,,,,,547.000000,1697105442.024367,2.000000,30.000000,,,,
1697105442.047791,,,,,,,,,,,,,1531.000000,1697105442.024367,2.000000,30.000000
1697105442.048704,,,,,,,,,548.000000,1697105442.048243,2.000000,30.000000,,,,
1697105442.070113,,,,,,,,,549.000000,1697105442.069803,2.000000,30.000000,,,,
1697105442.070680,,,,,,,,,,,,,1532.000000,1697105442.048243,2.000000,30.000000
1697105442.082140,,,,,,,,,,,,,1533.000000,1697105442.069803,2.000000,30.000000
1697105442.084212,,,,,,,,,550.000000,1697105442.083219,2.000000,30.000000,,,,
1697105442.102104,,,,,,,,,,,,,1534.000000,1697105442.083219,2.000000,30.000000
1697105442.144834,,,,,,,,,551.000000,1697105442.144586,2.000000,30.000000,,,,
1697105442.162401,,,,,,,,,,,,,1535.000000,1697105442.144586,2.000000,30.000000
1697105442.163283,,,,,,,,,552.000000,1697105442.163028,2.000000,30.000000,,,,
1697105442.177824,,,,,,,,,,,,,1536.000000,1697105442.163028,2.000000,30.000000
1697105442.178251,,,,,,,,,553.000000,1697105442.177958,2.000000,30.000000,,,,
1697105442.200979,,,,,,,,,,,,,1537.000000,1697105442.177958,2.000000,30.000000
1697105442.201689,,,,,,,,,554.000000,1697105442.201515,2.000000,30.000000,,,,
1697105442.223318,,,,,,,,,,,,,1538.000000,1697105442.201515,2.000000,30.000000
1697105442.331119,,,,,,,,,555.000000,1697105442.330876,2.000000,30.000000,,,,
1697105442.340432,,,,,,,,,,,,,1539.000000,1697105442.330876,2.000000,30.000000
1697105442.340811,,,,,,,,,556.000000,1697105442.340597,2.000000,30.000000,,,,
1697105442.355367,,,,,,,,,,,,,1540.000000,1697105442.340597,2.000000,30.000000
1697105442.356473,,,,,,,,,557.000000,1697105442.355690,2.000000,30.000000,,,,
1697105442.373677,,,,,,,,,,,,,1541.000000,1697105442.355690,2.000000,30.000000
1697105442.376433,,,,,,,,,558.000000,1697105442.375625,2.000000,30.000000,,,,
1697105442.394192,,,,,,,,,,,,,1542.000000,1697105442.375625,2.000000,30.000000
1697105442.394830,,,,,,,,,559.000000,1697105442.394412,2.000000,30.000000,,,,
1697105442.418158,,,,,,,,,,,,,1543.000000,1697105442.394412,2.000000,30.000000
1697105442.749274,,,,,,,,,560.000000,1697105442.748597,2.000000,30.000000,,,,
1697105442.774637,,,,,,,,,561.000000,1697105442.774094,2.000000,30.000000,,,,
1697105442.775893,,,,,,,,,,,,,1544.000000,1697105442.748597,2.000000,30.000000
1697105442.793612,,,,,,,,,,,,,1545.000000,1697105442.774094,2.000000,30.000000
1697105442.802456,,,,,,,,,562.000000,1697105442.802033,2.000000,30.000000,,,,
1697105442.822574,,,,,,,,,,,,,1546.000000,1697105442.802033,2.000000,30.000000
1697105443.266671,,,,,,,,,563.000000,1697105443.266318,2.000000,30.000000,,,,
1697105443.289801,,,,,,,,,,,,,1547.000000,1697105443.266318,2.000000,30.000000
1697105443.290209,,,,,,,,,564.000000,1697105443.289905,2.000000,30.000000,,,,
1697105443.304339,,,,,,,,,,,,,1548.000000,1697105443.289905,2.000000,30.000000
1697105443.318118,,,,,,,,,28.000000,1697105443.306613,4.000000,357.000000,,,,
1697105443.318203,,,,,,,,,,,,,1549.000000,1697105443.306613,4.000000,357.000000
1697105443.320450,,,,,,,,,565.000000,1697105443.320103,2.000000,30.000000,,,,
1697105443.341876,,,,,,,,,,,,,1550.000000,1697105443.320103,2.000000,30.000000
1697105443.341957,,,,,,,,,29.000000,1697105443.327948,4.000000,82.000000,,,,
1697105443.342052,,,,,,,,,,,,,1551.000000,1697105443.327948,4.000000,82.000000
1697105443.342422,,,,,,,,,566.000000,1697105443.342180,2.000000,30.000000,,,,
1697105443.372865,,,,,,,,,,,,,1552.000000,1697105443.342180,2.000000,30.000000
1697105444.189483,,,,,,,,,567.000000,1697105444.189224,2.000000,30.000000,,,,
1697105444.208479,,,,,,,,,,,,,1553.000000,1697105444.189224,2.000000,30.000000
1697105444.228875,,,,,,,,,568.000000,1697105444.228488,2.000000,30.000000,,,,
1697105444.257670,,,,,,,,,,,,,1554.000000,1697105444.228488,2.000000,30.000000
1697105444.258352,,,,,,,,,569.000000,1697105444.258172,4.000000,34.000000,,,,
1697105444.275453,,,,,,,,,,,,,1555.000000,1697105444.258172,4.000000,34.000000
1697105444.277431,,,,,,,,,570.000000,1697105444.276976,4.000000,34.000000,,,,
1697105444.297418,,,,,,,,,,,,,1556.000000,1697105444.276976,4.000000,34.000000
1697105444.298025,,,,,,,,,571.000000,1697105444.297850,4.000000,34.000000,,,,
1697105444.330362,,,,,,,,,572.000000,1697105444.329950,4.000000,34.000000,,,,
1697105444.330476,,,,,,,,,,,,,1557.000000,1697105444.297850,4.000000,34.000000
1697105444.366781,,,,,,,,,,,,,1558.000000,1697105444.329950,4.000000,34.000000
1697105444.367297,,,,,,,,,573.000000,1697105444.366510,2.000000,30.000000,,,,
1697105444.391081,,,,,,,,,,,,,1559.000000,1697105444.366510,2.000000,30.000000
1697105444.392734,,,,,,,,,574.000000,1697105444.391214,4.000000,34.000000,,,,
1697105444.409810,,,,,,,,,,,,,1560.000000,1697105444.391214,4.000000,34.000000
1697105446.417412,,,,,,,,,575.000000,1697105446.417084,2.000000,30.000000,,,,
1697105446.437284,,,,,,,,,,,,,1561.000000,1697105446.417084,2.000000,30.000000
1697105446.437920,,,,,,,,,576.000000,1697105446.437433,2.000000,30.000000,,,,
1697105446.456254,,,,,,,,,,,,,1562.000000,1697105446.437433,2.000000,30.000000
1697105446.456619,,,,,,,,,577.000000,1697105446.456406,2.000000,30.000000,,,,
1697105446.472182,,,,,,,,,,,,,1563.000000,1697105446.456406,2.000000,30.000000
1697105446.472474,,,,,,,,,578.000000,1697105446.472325,2.000000,30.000000,,,,
1697105446.488994,,,,,,,,,,,,,1564.000000,1697105446.472325,2.000000,30.000000
1697105446.491720,,,,,,,,,579.000000,1697105446.491094,2.000000,30.000000,,,,
1697105446.514485,,,,,,,,,,,,,1565.000000,1697105446.491094,2.000000,30.000000
1697105446.518849,,,,,,,,,580.000000,1697105446.518447,2.000000,30.000000,,,,
1697105446.540207,,,,,,,,,,,,,1566.000000,1697105446.518447,2.000000,30.000000
1697105446.541013,,,,,,,,,581.000000,1697105446.540660,4.000000,34.000000,,,,
1697105446.560519,,,,,,,,,,,,,1567.000000,1697105446.540660,4.000000,34.000000
1697105446.578245,,,,,,,,,582.000000,1697105446.576750,4.000000,34.000000,,,,
1697105446.633381,,,,,,,,,,,,,1568.000000,1697105446.576750,4.000000,34.000000
1697108035.171599,147948.000000,1697108035.149781,-0.003164,0.187858,0.316887,-0.003467,-0.004849,0.002793,,,,,,,,
1697108035.181093,147949.000000,1697108035.159896,-0.004781,0.189035,0.312563,-0.003430,-0.004821,0.002752,,,,,,,,
1697108035.183751,147950.000000,1697108035.169780,-0.006296,0.191015,0.309359,-0.003404,-0.004806,0.002723,,,,,,,,
1697108035.203074,147951.000000,1697108035.179769,-0.007457,0.193592,0.306980,-0.003387,-0.004801,0.002705,,,,,,,,
1697108035.206094,147952.000000,1697108035.189733,-0.008302,0.196526,0.304713,-0.003374,-0.004802,0.002698,,,,,,,,
1697108035.207819,147953.000000,1697108035.200426,-0.009264,0.200213,0.302734,-0.003366,-0.004823,0.002701,,,,,,,,
1697108035.227424,147954.000000,1697108035.209893,-0.010351,0.205416,0.302233,-0.003376,-0.004878,0.002719,,,,,,,,
1697108035.237772,147955.000000,1697108035.219871,-0.011167,0.212156,0.303480,-0.003407,-0.004960,0.002748,,,,,,,,
1697108035.248829,147956.000000,1697108035.230402,-0.011717,0.219491,0.305213,-0.003449,-0.005048,0.002780,,,,,,,,
1697108035.255908,147957.000000,1697108035.239869,-0.012365,0.226525,0.306742,-0.003490,-0.005133,0.002806,,,,,,,,
1697108035.263155,147958.000000,1697108035.249689,-0.013296,0.233306,0.309286,-0.003538,-0.005226,0.002837,,,,,,,,
1697108035.274406,147959.000000,1697108035.259758,-0.014097,0.239303,0.312882,-0.003589,-0.005316,0.002870,,,,,,,,
1697108035.284901,147960.000000,1697108035.269762,-0.014188,0.242955,0.315268,-0.003623,-0.005373,0.002893,,,,,,,,
1697108035.297508,147961.000000,1697108035.279763,-0.013579,0.244683,0.316519,-0.003643,-0.005402,0.002910,,,,,,,,
1697108035.315869,147962.000000,1697108035.292619,-0.012478,0.245667,0.318188,-0.003663,-0.005427,0.002935,,,,,,,,
1697108035.324585,147964.000000,1697108035.310977,-0.008033,0.244861,0.322668,-0.003690,-0.005433,0.003000,,,,,,,,
1697108035.332731,147965.000000,1697108035.319787,-0.004954,0.243420,0.325215,-0.003704,-0.005419,0.003031,,,,,,,,
1697108035.343478,147966.000000,1697108035.329727,-0.001993,0.242301,0.328678,-0.003727,-0.005419,0.003062,,,,,,,,
1697108035.353823,147967.000000,1697108035.340124,0.000699,0.241749,0.332923,-0.003757,-0.005438,0.003095,,,,,,,,
1697108035.363481,147968.000000,1697108035.349767,0.003236,0.241890,0.337452,-0.003791,-0.005467,0.003131,,,,,,,,
1697108035.373686,147969.000000,1697108035.360683,0.005758,0.242818,0.341811,-0.003826,-0.005504,0.003166,,,,,,,,
1697108035.384336,147970.000000,1697108035.369910,0.008176,0.243404,0.345448,-0.003856,-0.005538,0.003189,,,,,,,,
1697108035.397780,147971.000000,1697108035.379748,0.010303,0.242501,0.348280,-0.003870,-0.005557,0.003195,,,,,,,,
1697108035.410655,147972.000000,1697108035.389745,0.012020,0.239640,0.349579,-0.003859,-0.005553,0.003182,,,,,,,,
1697108035.425537,147974.000000,1697108035.410561,0.014148,0.229307,0.343835,-0.003762,-0.005446,0.003084,,,,,,,,
1697108035.436222,147975.000000,1697108035.419778,0.013893,0.224555,0.339546,-0.003708,-0.005389,0.003021,,,,,,,,
1697108035.451205,147976.000000,1697108035.431057,0.013017,0.220658,0.337044,-0.003662,-0.005354,0.002971,,,,,,,,
1697108035.468576,147977.000000,1697108035.440006,0.011675,0.217154,0.335548,-0.003623,-0.005326,0.002931,,,,,,,,
1697108035.472666,147978.000000,1697108035.449756,0.009849,0.215138,0.335348,-0.003605,-0.005313,0.002901,,,,,,,,
1697108035.484272,147979.000000,1697108035.459771,0.007690,0.216099,0.339699,-0.003633,-0.005350,0.002908,,,,,,,,
1697108035.488287,147980.000000,1697108035.470133,0.004933,0.219289,0.348784,-0.003699,-0.005438,0.002957,,,,,,,,
1697108035.496018,147981.000000,1697108035.479779,0.001108,0.223327,0.360713,-0.003781,-0.005556,0.003032,,,,,,,,
1697108035.503829,147982.000000,1697108035.489697,-0.004085,0.227899,0.374741,-0.003874,-0.005701,0.003122,,,,,,,,
1697108035.521377,147983.000000,1697108035.503540,-0.010207,0.233090,0.390254,-0.003981,-0.005872,0.003219,,,,,,,,
1697108035.524755,147984.000000,1697108035.509870,-0.016471,0.238838,0.406997,-0.004099,-0.006054,0.003327,,,,,,,,
1697108035.533542,147985.000000,1697108035.519769,-0.023024,0.243561,0.421457,-0.004201,-0.006212,0.003423,,,,,,,,
1697108035.553562,147986.000000,1697108035.530197,-0.029922,0.245343,0.429376,-0.004257,-0.006304,0.003475,,,,,,,,
1697108035.561755,147988.000000,1697108035.549769,-0.041664,0.245695,0.439308,-0.004309,-0.006393,0.003546,,,,,,,,
1697108035.574685,147989.000000,1697108035.559979,-0.046698,0.246775,0.444789,-0.004340,-0.006436,0.003590,,,,,,,,
1697108035.590166,147990.000000,1697108035.570073,-0.051256,0.248428,0.448483,-0.004368,-0.006467,0.003626,,,,,,,,
1697108035.598739,147991.000000,1697108035.580692,-0.055549,0.250997,0.450995,-0.004398,-0.006496,0.003659,,,,,,,,
1697108035.602508,147992.000000,1697108035.589761,-0.059676,0.253307,0.451693,-0.004417,-0.006515,0.003678,,,,,,,,
1697108035.613967,147993.000000,1697108035.599760,-0.063200,0.254173,0.450405,-0.004414,-0.006509,0.003679,,,,,,,,
1697108035.621408,147994.000000,1697108035.610503,-0.065716,0.253838,0.447275,-0.004395,-0.006479,0.003667,,,,,,,,
1697108035.633999,147995.000000,1697108035.619735,-0.066753,0.252421,0.440713,-0.004356,-0.006413,0.003632,,,,,,,,
1697108035.648461,147996.000000,1697108035.629804,-0.066332,0.249974,0.431163,-0.004295,-0.006315,0.003569,,,,,,,,
1697108035.658453,147997.000000,1697108035.639967,-0.064932,0.246555,0.419810,-0.004217,-0.006197,0.003481,,,,,,,,
1697108035.672097,147998.000000,1697108035.651923,-0.063063,0.242421,0.407423,-0.004129,-0.006067,0.003374,,,,,,,,
1697108035.679609,147999.000000,1697108035.662312,-0.061496,0.238523,0.395788,-0.004047,-0.005946,0.003270,,,,,,,,
1697108035.694756,148000.000000,1697108035.671199,-0.060772,0.235777,0.386166,-0.003981,-0.005855,0.003182,,,,,,,,
1697108035.697885,148001.000000,1697108035.680652,-0.060793,0.234474,0.379186,-0.003936,-0.005798,0.003119,,,,,,,,
1697108035.715715,148002.000000,1697108035.689709,-0.061248,0.234568,0.375153,-0.003911,-0.005773,0.003086,,,,,,,,
1697108035.720101,148003.000000,1697108035.699821,-0.061767,0.236134,0.374581,-0.003909,-0.005778,0.003083,,,,,,,,
1697108035.726248,148004.000000,1697108035.710860,-0.061839,0.238957,0.377614,-0.003926,-0.005815,0.003106,,,,,,,,
1697108035.737872,148005.000000,1697108035.719846,-0.061267,0.242236,0.382438,-0.003953,-0.005873,0.003142,,,,,,,,
1697108035.742757,148006.000000,1697108035.729731,-0.060273,0.245413,0.387580,-0.003981,-0.005932,0.003188,,,,,,,,
1697108035.750139,148007.000000,1697108035.739765,-0.059015,0.248680,0.393246,-0.004012,-0.005995,0.003246,,,,,,,,
1697108035.763417,148008.000000,1697108035.749890,-0.057179,0.251428,0.397823,-0.004038,-0.006050,0.003305,,,,,,,,
1697108035.772952,148009.000000,1697108035.759662,-0.054378,0.252406,0.398481,-0.004040,-0.006065,0.003348,,,,,,,,
1697108035.786931,148010.000000,1697108035.770270,-0.050431,0.252054,0.395681,-0.004018,-0.006039,0.003378,,,,,,,,
1697108035.798484,148011.000000,1697108035.780281,-0.045372,0.250195,0.389966,-0.003971,-0.005967,0.003396,,,,,,,,
1697108035.809857,148012.000000,1697108035.789782,-0.040045,0.245122,0.380088,-0.003880,-0.005837,0.003386,,,,,,,,
1697108035.820323,148013.000000,1697108035.800624,-0.034911,0.237719,0.367991,-0.003763,-0.005676,0.003355,,,,,,,,
1697108035.830126,148014.000000,1697108035.812593,-0.029644,0.230281,0.357129,-0.003650,-0.005523,0.003327,,,,,,,,
1697108035.842359,148015.000000,1697108035.820000,-0.024227,0.223674,0.349053,-0.003556,-0.005396,0.003314,,,,,,,,
1697108035.847409,148016.000000,1697108035.829645,-0.018791,0.218538,0.344111,-0.003491,-0.005302,0.003319,,,,,,,,
1697108035.852442,148017.000000,1697108035.839809,-0.013607,0.215372,0.341712,-0.003457,-0.005243,0.003337,,,,,,,,
1697108035.864585,148018.000000,1697108035.849986,-0.009073,0.214379,0.342275,-0.003455,-0.005225,0.003370,,,,,,,,
1697108035.874848,148019.000000,1697108035.861096,-0.005459,0.215733,0.347243,-0.003488,-0.005264,0.003433,,,,,,,,
1697108035.885629,148020.000000,1697108035.870394,-0.002634,0.218619,0.356106,-0.003547,-0.005351,0.003526,,,,,,,,
1697108035.897506,148021.000000,1697108035.880237,-0.000324,0.221727,0.367002,-0.003612,-0.005456,0.003630,,,,,,,,
1697108035.909973,148022.000000,1697108035.889897,0.001275,0.225109,0.380065,-0.003681,-0.005581,0.003743,,,,,,,,
1697108035.913682,148023.000000,1697108035.899642,0.001717,0.228710,0.394324,-0.003749,-0.005726,0.003855,,,,,,,,
1697108035.928288,148024.000000,1697108035.909782,0.000847,0.231959,0.407756,-0.003807,-0.005874,0.003955,,,,,,,,
1697108035.940445,148025.000000,1697108035.919791,-0.001083,0.235600,0.422680,-0.003871,-0.006044,0.004065,,,,,,,,
1697108035.944835,148026.000000,1697108035.929787,-0.003578,0.239524,0.439628,-0.003942,-0.006237,0.004193,,,,,,,,
1697108035.957461,148027.000000,1697108035.939780,-0.005540,0.243065,0.457004,-0.004008,-0.006429,0.004328,,,,,,,,
1697108035.966035,148028.000000,1697108035.949788,-0.006309,0.246689,0.475101,-0.004075,-0.006617,0.004472,,,,,,,,
1697108035.975106,148029.000000,1697108035.959908,-0.006452,0.250311,0.491890,-0.004135,-0.006790,0.004604,,,,,,,,
1697108035.992482,148030.000000,1697108035.970129,-0.006389,0.253818,0.506094,-0.004185,-0.006944,0.004715,,,,,,,,
1697108035.999290,148032.000000,1697108035.989754,-0.004418,0.263358,0.535246,-0.004307,-0.007260,0.004952,,,,,,,,
1697108036.015398,148033.000000,1697108035.999870,-0.002360,0.269205,0.550781,-0.004376,-0.007419,0.005082,,,,,,,,
1697108036.028221,148034.000000,1697108036.009738,0.000354,0.273482,0.562693,-0.004426,-0.007531,0.005180,,,,,,,,
1697108036.038878,148035.000000,1697108036.019766,0.003570,0.275268,0.569770,-0.004448,-0.007592,0.005240,,,,,,,,
1697108036.046472,148036.000000,1697108036.029973,0.007335,0.275472,0.573966,-0.004451,-0.007620,0.005278,,,,,,,,
1697108036.053124,148037.000000,1697108036.039763,0.011767,0.275059,0.576790,-0.004453,-0.007629,0.005301,,,,,,,,
1697108036.064104,148038.000000,1697108036.049763,0.016738,0.275358,0.581013,-0.004474,-0.007645,0.005326,,,,,,,,
1697108036.072506,148039.000000,1697108036.063299,0.022396,0.277031,0.588820,-0.004521,-0.007682,0.005367,,,,,,,,
1697108036.081715,148040.000000,1697108036.069775,0.028660,0.278569,0.598633,-0.004573,-0.007725,0.005409,,,,,,,,
1697108036.093326,148041.000000,1697108036.079767,0.035037,0.278680,0.608150,-0.004615,-0.007756,0.005433,,,,,,,,
1697108036.106218,148042.000000,1697108036.089851,0.041098,0.276611,0.613373,-0.004636,-0.007751,0.005413,,,,,,,,
1697108036.118680,148043.000000,1697108036.099984,0.046434,0.272264,0.611823,-0.004626,-0.007693,0.005347,,,,,,,,
1697108036.128535,148044.000000,1697108036.109984,0.051173,0.266892,0.606724,-0.004598,-0.007606,0.005262,,,,,,,,
1697108036.140096,148045.000000,1697108036.119764,0.055679,0.261331,0.601673,-0.004567,-0.007521,0.005178,,,,,,,,
1697108036.158825,148046.000000,1697108036.129678,0.059353,0.255124,0.595644,-0.004522,-0.007433,0.005085,,,,,,,,
1697108036.164609,148048.000000,1697108036.150088,0.063341,0.243546,0.579338,-0.004410,-0.007245,0.004882,,,,,,,,
1697108036.178716,148049.000000,1697108036.159787,0.064605,0.238906,0.570352,-0.004365,-0.007152,0.004779,,,,,,,,
1697108036.192612,148050.000000,1697108036.170666,0.065182,0.233310,0.558459,-0.004302,-0.007038,0.004664,,,,,,,,
1697108036.201010,148052.000000,1697108036.189734,0.062821,0.219979,0.526772,-0.004116,-0.006757,0.004403,,,,,,,,
1697108036.223706,148053.000000,1697108036.201611,0.059651,0.214376,0.510603,-0.004030,-0.006629,0.004274,,,,,,,,
1697108036.232734,148054.000000,1697108036.209880,0.054816,0.208921,0.494377,-0.003946,-0.006503,0.004146,,,,,,,,
1697108036.239130,148055.000000,1697108036.220296,0.049082,0.203549,0.478395,-0.003867,-0.006376,0.004026,,,,,,,,
1697108036.246119,148056.000000,1697108036.229781,0.043608,0.199108,0.463241,-0.003803,-0.006248,0.003918,,,,,,,,
1697108036.266203,148057.000000,1697108036.247382,0.038604,0.196417,0.450347,-0.003761,-0.006137,0.003829,,,,,,,,
1697108036.273275,148058.000000,1697108036.250375,0.034099,0.195512,0.441562,-0.003746,-0.006061,0.003766,,,,,,,,
1697108036.275622,148059.000000,1697108036.261225,0.030628,0.196075,0.437895,-0.003758,-0.006026,0.003743,,,,,,,,
1697108036.284058,148060.000000,1697108036.269902,0.028176,0.197002,0.436813,-0.003783,-0.006008,0.003746,,,,,,,,
1697108036.294850,148061.000000,1697108036.279902,0.026102,0.197702,0.435499,-0.003806,-0.005982,0.003759,,,,,,,,
1697108036.304736,148062.000000,1697108036.290265,0.024185,0.199010,0.434221,-0.003837,-0.005954,0.003779,,,,,,,,
1697108036.310846,148063.000000,1697108036.299847,0.022309,0.200832,0.432706,-0.003875,-0.005926,0.003807,,,,,,,,
1697108036.325774,148064.000000,1697108036.309855,0.020130,0.202069,0.429996,-0.003908,-0.005888,0.003832,,,,,,,,
1697108036.333647,148065.000000,1697108036.319849,0.017594,0.202662,0.426674,-0.003932,-0.005846,0.003854,,,,,,,,
1697108036.348833,148066.000000,1697108036.329719,0.014877,0.202770,0.423409,-0.003945,-0.005800,0.003872,,,,,,,,
1697108036.368223,148068.000000,1697108036.349975,0.009297,0.200402,0.415577,-0.003921,-0.005680,0.003886,,,,,,,,
1697108036.380368,148069.000000,1697108036.359785,0.006208,0.197307,0.406607,-0.003869,-0.005573,0.003849,,,,,,,,
1697108036.383768,148070.000000,1697108036.369685,0.003266,0.194119,0.396866,-0.003811,-0.005459,0.003807,,,,,,,,
1697108036.398621,148071.000000,1697108036.380252,0.000615,0.191037,0.388743,-0.003761,-0.005359,0.003773,,,,,,,,
1697108036.407950,148072.000000,1697108036.389844,-0.001813,0.187367,0.380572,-0.003706,-0.005256,0.003730,,,,,,,,
1697108036.425798,148073.000000,1697108036.399856,-0.003807,0.183096,0.371090,-0.003636,-0.005140,0.003671,,,,,,,,
1697108036.427862,148075.000000,1697108036.419633,-0.005823,0.173681,0.350691,-0.003482,-0.004889,0.003528,,,,,,,,
1697108036.439821,148076.000000,1697108036.429842,-0.005615,0.169590,0.342352,-0.003419,-0.004775,0.003467,,,,,,,,
1697108036.456174,148077.000000,1697108036.440687,-0.004668,0.167252,0.337741,-0.003387,-0.004696,0.003437,,,,,,,,
1697108036.466242,148078.000000,1697108036.449749,-0.003519,0.166836,0.336330,-0.003382,-0.004655,0.003435,,,,,,,,
1697108036.485407,148079.000000,1697108036.459739,-0.002836,0.166818,0.334073,-0.003373,-0.004619,0.003427,,,,,,,,
1697108036.494107,148081.000000,1697108036.479889,-0.002414,0.166874,0.329054,-0.003344,-0.004559,0.003402,,,,,,,,
1697108036.506708,148082.000000,1697108036.489622,-0.002224,0.167419,0.328749,-0.003343,-0.004550,0.003411,,,,,,,,
1697108036.520995,148083.000000,1697108036.499836,-0.002275,0.168398,0.328975,-0.003347,-0.004553,0.003434,,,,,,,,
1697108036.528242,148084.000000,1697108036.511009,-0.002220,0.169413,0.328972,-0.003353,-0.004557,0.003458,,,,,,,,
1697108036.538325,148085.000000,1697108036.520944,-0.001728,0.169847,0.328464,-0.003355,-0.004556,0.003474,,,,,,,,
1697108036.550291,148086.000000,1697108036.529711,-0.001052,0.169710,0.327469,-0.003349,-0.004547,0.003482,,,,,,,,
1697108036.556994,148087.000000,1697108036.540169,-0.000539,0.170011,0.327308,-0.003345,-0.004548,0.003499,,,,,,,,
1697108036.559238,148088.000000,1697108036.550360,-0.000256,0.171562,0.329772,-0.003361,-0.004581,0.003539,,,,,,,,
1697108036.572234,148089.000000,1697108036.560436,-0.000344,0.174362,0.335473,-0.003398,-0.004651,0.003600,,,,,,,,
1697108036.585606,148090.000000,1697108036.569725,-0.000975,0.176811,0.340591,-0.003426,-0.004717,0.003653,,,,,,,,
1697108036.593788,148091.000000,1697108036.580137,-0.001998,0.176646,0.340407,-0.003408,-0.004728,0.003654,,,,,,,,
1697108036.604558,148092.000000,1697108036.589794,-0.003139,0.174847,0.337416,-0.003366,-0.004708,0.003628,,,,,,,,
1697108036.614372,148093.000000,1697108036.599866,-0.004332,0.173683,0.335815,-0.003337,-0.004703,0.003613,,,,,,,,
1697108036.624213,148094.000000,1697108036.610087,-0.005644,0.173082,0.335156,-0.003319,-0.004709,0.003608,,,,,,,,
1697108036.636782,148095.000000,1697108036.619989,-0.006853,0.172648,0.334252,-0.003300,-0.004714,0.003602,,,,,,,,
1697108036.641575,148096.000000,1697108036.629855,-0.007568,0.172683,0.333444,-0.003281,-0.004722,0.003598,,,,,,,,
1697108036.651478,148097.000000,1697108036.639862,-0.007774,0.173005,0.332871,-0.003263,-0.004730,0.003592,,,,,,,,
1697108036.663600,148098.000000,1697108036.649953,-0.007875,0.172764,0.330919,-0.003232,-0.004723,0.003570,,,,,,,,
1697108036.672566,148099.000000,1697108036.659761,-0.008151,0.172137,0.328200,-0.003195,-0.004714,0.003537,,,,,,,,
1697108036.685735,148100.000000,1697108036.669753,-0.008278,0.172288,0.327826,-0.003172,-0.004732,0.003524,,,,,,,,
1697108036.695375,148101.000000,1697108036.680118,-0.007904,0.172788,0.327908,-0.003147,-0.004753,0.003516,,,,,,,,
1697108036.703748,148102.000000,1697108036.689886,-0.007327,0.172748,0.325333,-0.003107,-0.004748,0.003489,,,,,,,,
1697108036.716440,148103.000000,1697108036.699762,-0.006990,0.172437,0.320925,-0.003061,-0.004732,0.003448,,,,,,,,
1697108036.724454,148104.000000,1697108036.710255,-0.006983,0.171626,0.315209,-0.003007,-0.004703,0.003397,,,,,,,,
1697108036.736638,148105.000000,1697108036.720096,-0.007010,0.169451,0.307403,-0.002935,-0.004643,0.003327,,,,,,,,
1697108036.747351,148106.000000,1697108036.730610,-0.006769,0.166255,0.297654,-0.002850,-0.004555,0.003241,,,,,,,,
1697108036.758060,148107.000000,1697108036.739792,-0.006317,0.163604,0.288228,-0.002774,-0.004466,0.003160,,,,,,,,
1697108036.765703,148108.000000,1697108036.749754,-0.005825,0.162805,0.281399,-0.002723,-0.004409,0.003106,,,,,,,,
1697108036.773983,148109.000000,1697108036.759841,-0.005355,0.163943,0.277483,-0.002700,-0.004387,0.003083,,,,,,,,
1697108036.785042,148110.000000,1697108036.769875,-0.004968,0.165945,0.275404,-0.002694,-0.004388,0.003077,,,,,,,,
1697108036.797224,148111.000000,1697108036.779925,-0.004943,0.167595,0.273872,-0.002693,-0.004393,0.003074,,,,,,,,
1697108036.808285,148112.000000,1697108036.790180,-0.005327,0.168457,0.272450,-0.002692,-0.004394,0.003070,,,,,,,,
1697108036.814241,148113.000000,1697108036.800267,-0.005788,0.169160,0.271690,-0.002698,-0.004403,0.003073,,,,,,,,
1697108036.828256,148114.000000,1697108036.810262,-0.006231,0.169912,0.271376,-0.002709,-0.004415,0.003081,,,,,,,,
1697108036.840991,148115.000000,1697108036.820273,-0.006695,0.169446,0.269803,-0.002711,-0.004403,0.003070,,,,,,,,
1697108036.848790,148116.000000,1697108036.830127,-0.007269,0.166556,0.265239,-0.002685,-0.004348,0.003023,,,,,,,,
1697108036.855541,148117.000000,1697108036.840010,-0.007950,0.161122,0.257343,-0.002623,-0.004249,0.002936,,,,,,,,
1697108036.862664,148118.000000,1697108036.849726,-0.008438,0.154038,0.247672,-0.002537,-0.004117,0.002829,,,,,,,,
1697108036.876693,148119.000000,1697108036.859966,-0.008527,0.146181,0.237432,-0.002439,-0.003961,0.002714,,,,,,,,
1697108036.887651,148120.000000,1697108036.869761,-0.008304,0.137234,0.225823,-0.002324,-0.003776,0.002583,,,,,,,,
1697108036.899291,148121.000000,1697108036.879851,-0.007940,0.127236,0.212229,-0.002191,-0.003560,0.002433,,,,,,,,
1697108036.912520,148122.000000,1697108036.889728,-0.007549,0.117839,0.198678,-0.002062,-0.003346,0.002282,,,,,,,,
1697108036.921871,148123.000000,1697108036.899847,-0.007275,0.110301,0.187789,-0.001960,-0.003175,0.002157,,,,,,,,
1697108036.926010,148124.000000,1697108036.909860,-0.007009,0.104393,0.179866,-0.001885,-0.003047,0.002062,,,,,,,,
1697108036.934045,148125.000000,1697108036.919852,-0.006490,0.099156,0.173288,-0.001821,-0.002938,0.001981,,,,,,,,
1697108036.941067,148126.000000,1697108036.930309,-0.005865,0.093647,0.166252,-0.001750,-0.002823,0.001894,,,,,,,,
1697108036.953882,148127.000000,1697108036.939721,-0.005346,0.088012,0.159013,-0.001672,-0.002706,0.001808,,,,,,,,
1697108036.964741,148128.000000,1697108036.950471,-0.004917,0.082344,0.151663,-0.001589,-0.002588,0.001724,,,,,,,,
1697108036.983503,148129.000000,1697108036.960879,-0.004680,0.076618,0.143812,-0.001501,-0.002465,0.001637,,,,,,,,
1697108036.994236,148130.000000,1697108036.969791,-0.004692,0.071762,0.137214,-0.001425,-0.002364,0.001562,,,,,,,,
1697108036.997730,148131.000000,1697108036.981195,-0.004876,0.067768,0.131993,-0.001363,-0.002281,0.001502,,,,,,,,
1697108037.003332,148132.000000,1697108036.989752,-0.005161,0.063666,0.126092,-0.001295,-0.002188,0.001438,,,,,,,,
1697108037.013817,148133.000000,1697108036.999871,-0.005437,0.059716,0.119994,-0.001227,-0.002090,0.001374,,,,,,,,
1697108037.022834,148134.000000,1697108037.009634,-0.005675,0.057070,0.116265,-0.001181,-0.002024,0.001337,,,,,,,,
1697108037.037488,148135.000000,1697108037.019937,-0.005965,0.055288,0.114129,-0.001152,-0.001983,0.001315,,,,,,,,
1697108037.046581,148136.000000,1697108037.030089,-0.006239,0.053484,0.111690,-0.001124,-0.001941,0.001290,,,,,,,,
1697108037.054804,148137.000000,1697108037.039752,-0.006347,0.052174,0.110050,-0.001106,-0.001912,0.001275,,,,,,,,
1697108037.068706,148138.000000,1697108037.049761,-0.006318,0.051716,0.109944,-0.001104,-0.001907,0.001276,,,,,,,,
1697108037.081965,148139.000000,1697108037.059819,-0.006186,0.051967,0.110939,-0.001116,-0.001919,0.001288,,,,,,,,
1697108037.096972,148140.000000,1697108037.070370,-0.006037,0.052951,0.112988,-0.001140,-0.001949,0.001312,,,,,,,,
1697108037.102881,148142.000000,1697108037.089873,-0.006483,0.057539,0.120786,-0.001233,-0.002076,0.001398,,,,,,,,
1697108037.111683,148143.000000,1697108037.101071,-0.006854,0.060448,0.125406,-0.001286,-0.002158,0.001451,,,,,,,,
1697108037.121356,148144.000000,1697108037.109746,-0.007120,0.062849,0.128898,-0.001328,-0.002224,0.001494,,,,,,,,
1697108037.133908,148145.000000,1697108037.119754,-0.007151,0.064186,0.130128,-0.001349,-0.002255,0.001514,,,,,,,,
1697108037.143119,148146.000000,1697108037.130088,-0.006758,0.063872,0.128034,-0.001337,-0.002232,0.001499,,,,,,,,
1697108037.158901,148147.000000,1697108037.139969,-0.005923,0.062462,0.123871,-0.001304,-0.002173,0.001460,,,,,,,,
1697108037.163153,148148.000000,1697108037.149884,-0.004873,0.061515,0.121072,-0.001280,-0.002129,0.001435,,,,,,,,
1697108037.174042,148149.000000,1697108037.159749,-0.003815,0.061179,0.119978,-0.001269,-0.002107,0.001427,,,,,,,,
1697108037.183030,148150.000000,1697108037.169720,-0.002784,0.060712,0.118908,-0.001259,-0.002083,0.001419,,,,,,,,
1697108037.199771,148151.000000,1697108037.182264,-0.001833,0.060300,0.118269,-0.001251,-0.002065,0.001415,,,,,,,,
1697108037.210470,148152.000000,1697108037.190590,-0.001065,0.059945,0.118008,-0.001245,-0.002052,0.001417,,,,,,,,
1697108037.222276,148153.000000,1697108037.201294,-0.000468,0.058783,0.116430,-0.001222,-0.002020,0.001404,,,,,,,,
1697108037.225865,148154.000000,1697108037.212266,-0.000051,0.057297,0.114445,-0.001193,-0.001982,0.001387,,,,,,,,
1697108037.240856,148155.000000,1697108037.220842,0.000074,0.056425,0.113661,-0.001176,-0.001965,0.001384,,,,,,,,
1697108037.254133,148157.000000,1697108037.240099,0.000026,0.055397,0.114358,-0.001163,-0.001962,0.001408,,,,,,,,
1697108037.264768,148158.000000,1697108037.250116,0.000319,0.054903,0.115434,-0.001162,-0.001966,0.001428,,,,,,,,
1697108037.273007,148159.000000,1697108037.259754,0.000845,0.054097,0.115859,-0.001157,-0.001959,0.001443,,,,,,,,
1697108037.293931,148160.000000,1697108037.274177,0.001443,0.053565,0.116781,-0.001157,-0.001957,0.001466,,,,,,,,
1697108037.306096,148161.000000,1697108037.285867,0.001958,0.053195,0.117946,-0.001161,-0.001957,0.001489,,,,,,,,
1697108037.315901,148163.000000,1697108037.299712,0.002960,0.051644,0.117015,-0.001147,-0.001916,0.001492,,,,,,,,
1697108037.323417,148164.000000,1697108037.310093,0.003617,0.051617,0.117007,-0.001148,-0.001910,0.001501,,,,,,,,
1697108037.334397,148165.000000,1697108037.319763,0.004562,0.052405,0.118033,-0.001160,-0.001919,0.001524,,,,,,,,
1697108037.342809,148166.000000,1697108037.329722,0.005733,0.053319,0.118813,-0.001172,-0.001924,0.001546,,,,,,,,
1697108037.353941,148167.000000,1697108037.340097,0.006932,0.053858,0.118664,-0.001177,-0.001916,0.001558,,,,,,,,
1697108037.366134,148168.000000,1697108037.350239,0.008142,0.054515,0.119047,-0.001187,-0.001917,0.001575,,,,,,,,
1697108037.378680,148169.000000,1697108037.359747,0.009569,0.056024,0.121613,-0.001214,-0.001948,0.001619,,,,,,,,
1697108037.386550,148170.000000,1697108037.369854,0.011302,0.058348,0.126083,-0.001255,-0.002003,0.001686,,,,,,,,
1697108037.395510,148171.000000,1697108037.380514,0.013072,0.060522,0.129999,-0.001288,-0.002050,0.001744,,,,,,,,
1697108037.472119,148172.000000,1697108037.389734,0.014407,0.061615,0.131098,-0.001296,-0.002062,0.001766,,,,,,,,
1697108037.475789,148174.000000,1697108037.409748,0.015351,0.061376,0.126897,-0.001259,-0.002010,0.001726,,,,,,,,
1697108037.480003,148178.000000,1697108037.449922,0.010554,0.052201,0.103209,-0.001043,-0.001699,0.001422,,,,,,,,
1697108037.486748,148180.000000,1697108037.469743,0.007617,0.049919,0.098018,-0.000990,-0.001634,0.001350,,,,,,,,
1697108037.490527,148181.000000,1697108037.480457,0.006478,0.049943,0.098296,-0.000988,-0.001641,0.001352,,,,,,,,
1697108037.498497,148182.000000,1697108037.492792,0.005470,0.050261,0.099227,-0.000991,-0.001657,0.001365,,,,,,,,
1697108037.504605,148183.000000,1697108037.499738,0.004654,0.050927,0.100848,-0.001000,-0.001684,0.001387,,,,,,,,
1697108037.525182,148184.000000,1697108037.509966,0.004049,0.052432,0.104009,-0.001023,-0.001733,0.001432,,,,,,,,
1697108037.536859,148185.000000,1697108037.519886,0.003591,0.054397,0.107698,-0.001053,-0.001790,0.001487,,,,,,,,
1697108037.551365,148186.000000,1697108037.529947,0.003204,0.056272,0.110790,-0.001080,-0.001841,0.001535,,,,,,,,
1697108037.560477,148187.000000,1697108037.539871,0.002698,0.057626,0.112395,-0.001095,-0.001872,0.001564,,,,,,,,
1697108037.562100,148188.000000,1697108037.549850,0.001977,0.058129,0.111746,-0.001094,-0.001876,0.001564,,,,,,,,
1697108037.574221,148189.000000,1697108037.560138,0.001122,0.058294,0.109784,-0.001085,-0.001866,0.001548,,,,,,,,
1697108037.584117,148190.000000,1697108037.570598,0.000317,0.059244,0.108831,-0.001087,-0.001875,0.001544,,,,,,,,
1697108037.593513,148191.000000,1697108037.582263,-0.000305,0.061088,0.109523,-0.001106,-0.001909,0.001562,,,,,,,,
1697108037.607062,148192.000000,1697108037.589872,-0.000757,0.063113,0.110622,-0.001128,-0.001946,0.001584,,,,,,,,
1697108037.612999,148193.000000,1697108037.599787,-0.001089,0.064861,0.111108,-0.001146,-0.001974,0.001598,,,,,,,,
1697108037.633671,148194.000000,1697108037.619563,-0.001322,0.066192,0.110744,-0.001156,-0.001989,0.001601,,,,,,,,
1697108037.635415,148195.000000,1697108037.621009,-0.001412,0.067885,0.111035,-0.001172,-0.002012,0.001612,,,,,,,,
1697108037.652471,148196.000000,1697108037.630344,-0.001285,0.070728,0.113214,-0.001207,-0.002066,0.001650,,,,,,,,
1697108037.667530,148197.000000,1697108037.640412,-0.001121,0.074357,0.116304,-0.001255,-0.002138,0.001699,,,,,,,,
1697108037.676462,148199.000000,1697108037.659880,-0.001338,0.083079,0.124386,-0.001376,-0.002316,0.001817,,,,,,,,
1697108037.708005,148200.000000,1697108037.669830,-0.001533,0.088090,0.129813,-0.001451,-0.002424,0.001890,,,,,,,,
1697108037.710370,148201.000000,1697108037.680988,-0.001597,0.093171,0.135450,-0.001529,-0.002536,0.001965,,,,,,,,
1697108037.732400,148203.000000,1697108037.699745,-0.001400,0.102678,0.146441,-0.001684,-0.002747,0.002104,,,,,,,,
1697108037.741721,148206.000000,1697108037.729851,0.000485,0.107221,0.152553,-0.001789,-0.002855,0.002164,,,,,,,,
1697108037.751884,148207.000000,1697108037.739622,0.001722,0.107856,0.154937,-0.001815,-0.002883,0.002183,,,,,,,,
1697108037.758409,148208.000000,1697108037.750129,0.002673,0.107057,0.156069,-0.001822,-0.002887,0.002185,,,,,,,,
1697108037.826437,148209.000000,1697108037.760089,0.003074,0.104037,0.154250,-0.001797,-0.002843,0.002151,,,,,,,,
1697108037.828872,148211.000000,1697108037.781131,0.002776,0.094993,0.145024,-0.001694,-0.002671,0.002018,,,,,,,,
1697108037.834795,148215.000000,1697108037.819749,0.001069,0.083800,0.131253,-0.001567,-0.002442,0.001818,,,,,,,,
1697108037.839087,148216.000000,1697108037.830095,0.000675,0.081730,0.128777,-0.001542,-0.002405,0.001779,,,,,,,,
1697108037.861748,148217.000000,1697108037.839754,0.000419,0.080749,0.127704,-0.001533,-0.002396,0.001759,,,,,,,,
1697108037.876274,148219.000000,1697108037.859757,0.000268,0.080189,0.126842,-0.001524,-0.002405,0.001740,,,,,,,,
1697108037.892067,148220.000000,1697108037.870013,0.000099,0.080504,0.127089,-0.001525,-0.002420,0.001741,,,,,,,,
1697108037.900000,148222.000000,1697108037.889712,-0.000761,0.081599,0.127420,-0.001530,-0.002461,0.001741,,,,,,,,
1697108037.910310,148223.000000,1697108037.900095,-0.001144,0.083794,0.129495,-0.001556,-0.002520,0.001769,,,,,,,,
1697108037.923897,148224.000000,1697108037.909942,-0.001176,0.087547,0.133648,-0.001605,-0.002613,0.001827,,,,,,,,
1697108037.943415,148225.000000,1697108037.926133,-0.000857,0.091785,0.138266,-0.001658,-0.002715,0.001894,,,,,,,,
1697108037.957721,148227.000000,1697108037.940032,0.000020,0.104962,0.155004,-0.001828,-0.003039,0.002121,,,,,,,,
1697108037.970435,148228.000000,1697108037.949768,0.000473,0.112765,0.165163,-0.001924,-0.003228,0.002258,,,,,,,,
1697108037.985762,148229.000000,1697108037.960835,0.000900,0.120343,0.174069,-0.002009,-0.003398,0.002383,,,,,,,,
1697108037.986301,148230.000000,1697108037.969962,0.001226,0.126645,0.180451,-0.002070,-0.003529,0.002478,,,,,,,,
1697108037.993709,148231.000000,1697108037.979782,0.001502,0.131482,0.184541,-0.002110,-0.003619,0.002544,,,,,,,,
1697108038.004070,148232.000000,1697108037.989891,0.001797,0.136228,0.188151,-0.002149,-0.003698,0.002601,,,,,,,,
1697108038.020730,148233.000000,1697108037.999736,0.002011,0.140674,0.191023,-0.002184,-0.003768,0.002648,,,,,,,,
1697108038.032549,148234.000000,1697108038.009798,0.001980,0.142959,0.191149,-0.002193,-0.003795,0.002660,,,,,,,,
1697108038.037390,148235.000000,1697108038.019868,0.001703,0.142493,0.188151,-0.002168,-0.003766,0.002631,,,,,,,,
1697108038.049880,148236.000000,1697108038.030351,0.001370,0.141159,0.184529,-0.002136,-0.003718,0.002594,,,,,,,,
1697108038.060986,148237.000000,1697108038.039964,0.001308,0.141550,0.183918,-0.002132,-0.003712,0.002595,,,,,,,,
1697108038.072130,148238.000000,1697108038.049748,0.001803,0.143617,0.186536,-0.002158,-0.003749,0.002636,,,,,,,,
1697108038.089465,148240.000000,1697108038.069742,0.003770,0.145002,0.190812,-0.002187,-0.003786,0.002691,,,,,,,,
1697108038.098895,148241.000000,1697108038.079990,0.004432,0.143393,0.190802,-0.002174,-0.003767,0.002684,,,,,,,,
1697108038.111344,148242.000000,1697108038.089743,0.004532,0.140226,0.188976,-0.002141,-0.003720,0.002653,,,,,,,,
1697108038.120986,148243.000000,1697108038.099755,0.004100,0.135520,0.184881,-0.002084,-0.003638,0.002592,,,,,,,,
1697108038.121565,148244.000000,1697108038.109967,0.003353,0.129751,0.179121,-0.002013,-0.003529,0.002509,,,,,,,,
1697108038.135981,148245.000000,1697108038.119859,0.002512,0.123663,0.172880,-0.001941,-0.003411,0.002420,,,,,,,,
1697108038.145124,148246.000000,1697108038.129726,0.001638,0.118200,0.167591,-0.001880,-0.003307,0.002343,,,,,,,,
1697108038.158061,148247.000000,1697108038.143604,0.000883,0.113440,0.163273,-0.001829,-0.003217,0.002277,,,,,,,,
1697108038.164267,148248.000000,1697108038.149785,0.000354,0.109173,0.159297,-0.001782,-0.003134,0.002215,,,,,,,,
1697108038.175107,148249.000000,1697108038.159825,-0.000061,0.106005,0.156495,-0.001751,-0.003073,0.002167,,,,,,,,
1697108038.188658,148250.000000,1697108038.169816,-0.000533,0.104095,0.155288,-0.001740,-0.003041,0.002141,,,,,,,,
1697108038.195461,148251.000000,1697108038.179969,-0.001337,0.102611,0.154474,-0.001736,-0.003019,0.002121,,,,,,,,
1697108038.202509,148252.000000,1697108038.190139,-0.002497,0.101213,0.153777,-0.001736,-0.002997,0.002099,,,,,,,,
1697108038.211403,148253.000000,1697108038.201053,-0.003931,0.100421,0.154241,-0.001748,-0.002990,0.002091,,,,,,,,
1697108038.222472,148254.000000,1697108038.209996,-0.005613,0.100760,0.156098,-0.001778,-0.003009,0.002101,,,,,,,,
1697108038.235476,148255.000000,1697108038.219846,-0.007342,0.102396,0.159420,-0.001828,-0.003054,0.002128,,,,,,,,
1697108038.246472,148256.000000,1697108038.229913,-0.009002,0.104563,0.163556,-0.001886,-0.003108,0.002165,,,,,,,,
1697108038.250163,148257.000000,1697108038.240128,-0.010596,0.106286,0.166894,-0.001936,-0.003148,0.002190,,,,,,,,
1697108038.264779,148258.000000,1697108038.251806,-0.012160,0.108008,0.170057,-0.001985,-0.003187,0.002211,,,,,,,,
1697108038.272611,148259.000000,1697108038.260743,-0.013760,0.110272,0.174310,-0.002043,-0.003245,0.002245,,,,,,,,
1697108038.283355,148260.000000,1697108038.269754,-0.015492,0.112062,0.177901,-0.002088,-0.003295,0.002273,,,,,,,,
1697108038.293883,148261.000000,1697108038.281451,-0.017243,0.112276,0.178638,-0.002102,-0.003303,0.002268,,,,,,,,
1697108038.303239,148262.000000,1697108038.289800,-0.018783,0.111302,0.177510,-0.002093,-0.003282,0.002240,,,,,,,,
1697108038.312837,148263.000000,1697108038.299838,-0.020086,0.110037,0.176304,-0.002077,-0.003259,0.002212,,,,,,,,
1697108038.325207,148264.000000,1697108038.309727,-0.020989,0.108118,0.174011,-0.002048,-0.003220,0.002176,,,,,,,,
1697108038.337337,148265.000000,1697108038.324459,-0.021442,0.105785,0.170646,-0.002009,-0.003164,0.002131,,,,,,,,
1697108038.349139,148266.000000,1697108038.329630,-0.021810,0.104460,0.168672,-0.001986,-0.003132,0.002103,,,,,,,,
1697108038.360383,148267.000000,1697108038.339737,-0.022295,0.104120,0.168391,-0.001980,-0.003131,0.002093,,,,,,,,
1697108038.378051,148268.000000,1697108038.350075,-0.023033,0.104427,0.168962,-0.001985,-0.003152,0.002094,,,,,,,,
1697108038.383189,148270.000000,1697108038.369809,-0.025338,0.108328,0.174828,-0.002043,-0.003289,0.002144,,,,,,,,
1697108038.390801,148271.000000,1697108038.379876,-0.026601,0.111532,0.180248,-0.002092,-0.003392,0.002194,,,,,,,,
1697108038.410172,148272.000000,1697108038.389873,-0.028085,0.115496,0.186701,-0.002149,-0.003510,0.002253,,,,,,,,
1697108038.427419,148273.000000,1697108038.399627,-0.029701,0.120417,0.194134,-0.002217,-0.003644,0.002321,,,,,,,,
1697108038.436607,148274.000000,1697108038.410151,-0.031185,0.125441,0.201290,-0.002285,-0.003771,0.002390,,,,,,,,
1697108038.440316,148275.000000,1697108038.420117,-0.032545,0.130286,0.207748,-0.002347,-0.003887,0.002453,,,,,,,,
1697108038.449136,148276.000000,1697108038.429760,-0.034000,0.135083,0.213727,-0.002407,-0.003997,0.002510,,,,,,,,
1697108038.458136,148277.000000,1697108038.439735,-0.035918,0.139633,0.218929,-0.002462,-0.004101,0.002559,,,,,,,,
1697108038.474305,148278.000000,1697108038.449732,-0.038493,0.144957,0.224985,-0.002530,-0.004224,0.002618,,,,,,,,
1697108038.487204,148279.000000,1697108038.460123,-0.041502,0.151472,0.232671,-0.002617,-0.004374,0.002695,,,,,,,,
1697108038.490620,148280.000000,1697108038.473180,-0.044736,0.158309,0.241041,-0.002711,-0.004535,0.002776,,,,,,,,
1697108038.496316,148281.000000,1697108038.480895,-0.048230,0.165300,0.250392,-0.002812,-0.004708,0.002862,,,,,,,,
1697108038.502948,148282.000000,1697108038.490017,-0.052039,0.173114,0.261973,-0.002928,-0.004905,0.002965,,,,,,,,
1697108038.515037,148283.000000,1697108038.499864,-0.056225,0.181841,0.275574,-0.003059,-0.005128,0.003084,,,,,,,,
1697108038.524018,148284.000000,1697108038.509831,-0.060852,0.190663,0.289130,-0.003192,-0.005351,0.003202,,,,,,,,
1697108038.535729,148285.000000,1697108038.519829,-0.065974,0.199748,0.303032,-0.003328,-0.005578,0.003327,,,,,,,,
1697108038.547374,148286.000000,1697108038.529813,-0.071577,0.209269,0.317837,-0.003468,-0.005810,0.003465,,,,,,,,
1697108038.556294,148287.000000,1697108038.539854,-0.077383,0.218209,0.332036,-0.003598,-0.006023,0.003599,,,,,,,,
1697108038.571720,148288.000000,1697108038.551104,-0.082927,0.225381,0.344229,-0.003706,-0.006200,0.003713,,,,,,,,
1697108038.578634,148289.000000,1697108038.560078,-0.087795,0.230322,0.353443,-0.003785,-0.006331,0.003799,,,,,,,,
1697108038.581861,148290.000000,1697108038.569695,-0.091684,0.233382,0.360397,-0.003841,-0.006429,0.003862,,,,,,,,
1697108038.595971,148291.000000,1697108038.579831,-0.094477,0.234276,0.365204,-0.003869,-0.006489,0.003900,,,,,,,,
1697108038.602881,148292.000000,1697108038.589879,-0.096411,0.233034,0.367829,-0.003868,-0.006513,0.003919,,,,,,,,
1697108038.619110,148293.000000,1697108038.599864,-0.097729,0.230807,0.369101,-0.003850,-0.006517,0.003928,,,,,,,,
1697108038.630631,148294.000000,1697108038.610700,-0.098131,0.227783,0.368519,-0.003819,-0.006495,0.003921,,,,,,,,
1697108038.636786,148295.000000,1697108038.620681,-0.096990,0.223256,0.365666,-0.003771,-0.006436,0.003892,,,,,,,,
1697108038.650183,148296.000000,1697108038.630081,-0.094411,0.217858,0.362227,-0.003712,-0.006356,0.003849,,,,,,,,
1697108038.652512,148297.000000,1697108038.639835,-0.091310,0.213012,0.359923,-0.003661,-0.006285,0.003813,,,,,,,,
1697108038.654982,148298.000000,1697108038.649771,-0.087843,0.208557,0.357383,-0.003616,-0.006213,0.003780,,,,,,,,
1697108038.676337,148299.000000,1697108038.659745,-0.084001,0.204486,0.354414,-0.003578,-0.006135,0.003745,,,,,,,,
1697108038.688940,148300.000000,1697108038.669824,-0.080373,0.200901,0.351143,-0.003548,-0.006055,0.003705,,,,,,,,
1697108038.696659,148301.000000,1697108038.679826,-0.076949,0.196351,0.344683,-0.003501,-0.005942,0.003632,,,,,,,,
1697108038.701385,148302.000000,1697108038.692181,-0.073753,0.190796,0.335451,-0.003436,-0.005805,0.003532,,,,,,,,
1697108038.708785,148303.000000,1697108038.699946,-0.071223,0.185524,0.326078,-0.003373,-0.005676,0.003434,,,,,,,,
1697108038.721685,148304.000000,1697108038.710134,-0.069423,0.181003,0.317383,-0.003318,-0.005563,0.003344,,,,,,,,
1697108038.733704,148305.000000,1697108038.719829,-0.067873,0.176995,0.309453,-0.003268,-0.005464,0.003262,,,,,,,,
1697108038.742454,148306.000000,1697108038.729707,-0.065924,0.173042,0.302023,-0.003219,-0.005363,0.003181,,,,,,,,
1697108038.752766,148307.000000,1697108038.739816,-0.063595,0.169370,0.295538,-0.003175,-0.005266,0.003106,,,,,,,,
1697108038.760855,148308.000000,1697108038.750561,-0.061173,0.166336,0.290689,-0.003141,-0.005185,0.003042,,,,,,,,
1697108038.776636,148309.000000,1697108038.760127,-0.058557,0.163425,0.286926,-0.003116,-0.005114,0.002987,,,,,,,,
1697108038.792260,148310.000000,1697108038.769880,-0.056072,0.160338,0.284323,-0.003097,-0.005055,0.002944,,,,,,,,
1697108038.801368,148311.000000,1697108038.780406,-0.054294,0.157616,0.284136,-0.003091,-0.005024,0.002923,,,,,,,,
1697108038.809194,148312.000000,1697108038.789846,-0.052953,0.155969,0.286637,-0.003105,-0.005028,0.002928,,,,,,,,
1697108038.814476,148313.000000,1697108038.800078,-0.051444,0.155666,0.290810,-0.003140,-0.005060,0.002948,,,,,,,,
1697108038.823872,148314.000000,1697108038.810159,-0.049830,0.156872,0.295857,-0.003192,-0.005113,0.002975,,,,,,,,
1697108038.833370,148315.000000,1697108038.819897,-0.048089,0.158975,0.300678,-0.003248,-0.005172,0.003006,,,,,,,,
1697108038.845717,148316.000000,1697108038.829860,-0.045987,0.160568,0.304019,-0.003291,-0.005212,0.003032,,,,,,,,
1697108038.859812,148317.000000,1697108038.840003,-0.043989,0.161689,0.306801,-0.003327,-0.005244,0.003059,,,,,,,,
1697108038.869833,148318.000000,1697108038.849782,-0.042387,0.162684,0.309620,-0.003360,-0.005279,0.003090,,,,,,,,
1697108038.883460,148319.000000,1697108038.859754,-0.040831,0.163100,0.311474,-0.003380,-0.005300,0.003115,,,,,,,,
1697108038.885081,148320.000000,1697108038.869734,-0.039252,0.163243,0.312786,-0.003391,-0.005313,0.003139,,,,,,,,
1697108038.891090,148321.000000,1697108038.879759,-0.037766,0.163701,0.314972,-0.003403,-0.005333,0.003173,,,,,,,,
1697108038.904005,148322.000000,1697108038.889848,-0.036239,0.165542,0.320187,-0.003437,-0.005382,0.003226,,,,,,,,
1697108038.916766,148323.000000,1697108038.899868,-0.034631,0.170278,0.330630,-0.003518,-0.005490,0.003320,,,,,,,,
1697108038.928192,148324.000000,1697108038.909864,-0.033027,0.176497,0.342907,-0.003616,-0.005617,0.003432,,,,,,,,
1697108038.935809,148325.000000,1697108038.919905,-0.031864,0.181775,0.352068,-0.003688,-0.005706,0.003518,,,,,,,,
1697108038.944543,148326.000000,1697108038.929780,-0.031340,0.186290,0.358402,-0.003739,-0.005765,0.003577,,,,,,,,
1697108038.953657,148327.000000,1697108038.940075,-0.030869,0.190328,0.362746,-0.003773,-0.005802,0.003620,,,,,,,,
1697108038.968719,148328.000000,1697108038.949835,-0.030335,0.194059,0.365599,-0.003797,-0.005826,0.003654,,,,,,,,
1697108038.979391,148329.000000,1697108038.959741,-0.030082,0.197569,0.366788,-0.003814,-0.005833,0.003679,,,,,,,,
1697108038.988747,148330.000000,1697108038.970248,-0.029967,0.200533,0.365552,-0.003815,-0.005819,0.003690,,,,,,,,
1697108039.001062,148331.000000,1697108038.979896,-0.029916,0.204449,0.365116,-0.003825,-0.005827,0.003714,,,,,,,,
1697108039.004998,148332.000000,1697108038.989871,-0.029973,0.210389,0.367691,-0.003865,-0.005884,0.003773,,,,,,,,
1697108039.014928,148333.000000,1697108038.999850,-0.030049,0.216613,0.370197,-0.003910,-0.005950,0.003837,,,,,,,,
1697108039.028813,148334.000000,1697108039.009950,-0.030060,0.222407,0.371265,-0.003945,-0.006004,0.003887,,,,,,,,
1697108039.040955,148335.000000,1697108039.019742,-0.030141,0.230092,0.374438,-0.004001,-0.006089,0.003955,,,,,,,,
1697108039.050844,148336.000000,1697108039.029987,-0.030866,0.241831,0.382884,-0.004111,-0.006245,0.004069,,,,,,,,
1697108039.054054,148337.000000,1697108039.039837,-0.032283,0.257443,0.396233,-0.004274,-0.006473,0.004220,,,,,,,,
1697108039.059901,148338.000000,1697108039.049848,-0.034340,0.275288,0.411510,-0.004466,-0.006740,0.004381,,,,,,,,
1697108039.075771,148339.000000,1697108039.062485,-0.037237,0.294542,0.426964,-0.004672,-0.007026,0.004539,,,,,,,,
1697108039.090122,148340.000000,1697108039.070247,-0.040729,0.314566,0.442985,-0.004885,-0.007320,0.004697,,,,,,,,
1697108039.102339,148341.000000,1697108039.080022,-0.044610,0.333314,0.457981,-0.005090,-0.007592,0.004836,,,,,,,,
1697108039.102858,148342.000000,1697108039.089703,-0.048697,0.349311,0.469786,-0.005268,-0.007818,0.004937,,,,,,,,
1697108039.113015,148343.000000,1697108039.099840,-0.052842,0.363336,0.479582,-0.005425,-0.008012,0.005019,,,,,,,,
1697108039.124629,148344.000000,1697108039.109835,-0.056952,0.376398,0.489959,-0.005571,-0.008195,0.005106,,,,,,,,
1697108039.132502,148345.000000,1697108039.119861,-0.060860,0.388056,0.501287,-0.005700,-0.008364,0.005194,,,,,,,,
1697108039.143934,148346.000000,1697108039.129730,-0.064361,0.397347,0.512204,-0.005797,-0.008511,0.005264,,,,,,,,
1697108039.153704,148347.000000,1697108039.139849,-0.067306,0.403026,0.521380,-0.005851,-0.008621,0.005307,,,,,,,,
1697108039.161030,148348.000000,1697108039.151133,-0.069429,0.404856,0.528209,-0.005866,-0.008688,0.005326,,,,,,,,
1697108039.174112,148349.000000,1697108039.161648,-0.070556,0.404680,0.533565,-0.005864,-0.008729,0.005330,,,,,,,,
1697108039.186579,148350.000000,1697108039.169785,-0.071213,0.405457,0.540696,-0.005878,-0.008783,0.005345,,,,,,,,
1697108039.196503,148351.000000,1697108039.179754,-0.071674,0.409065,0.552218,-0.005927,-0.008874,0.005398,,,,,,,,
1697108039.210017,148352.000000,1697108039.189945,-0.071618,0.413966,0.566497,-0.005995,-0.008976,0.005478,,,,,,,,
1697108039.228839,148353.000000,1697108039.199878,-0.071027,0.418912,0.582618,-0.006073,-0.009076,0.005569,,,,,,,,
1697108039.236677,148355.000000,1697108039.219977,-0.068712,0.434238,0.622865,-0.006305,-0.009333,0.005780,,,,,,,,
1697108039.248947,148356.000000,1697108039.230877,-0.067166,0.441235,0.639916,-0.006410,-0.009451,0.005850,,,,,,,,
1697108039.260774,148357.000000,1697108039.239725,-0.065989,0.445727,0.652777,-0.006484,-0.009548,0.005892,,,,,,,,
1697108039.271429,148358.000000,1697108039.249695,-0.065250,0.448614,0.662892,-0.006535,-0.009629,0.005924,,,,,,,,
1697108039.275218,148359.000000,1697108039.259831,-0.065457,0.449635,0.668935,-0.006562,-0.009689,0.005943,,,,,,,,
1697108039.292542,148360.000000,1697108039.269824,-0.067451,0.448906,0.671896,-0.006576,-0.009749,0.005950,,,,,,,,
1697108039.302127,148361.000000,1697108039.279846,-0.070566,0.446435,0.673459,-0.006584,-0.009808,0.005944,,,,,,,,
1697108039.320252,148362.000000,1697108039.293282,-0.073981,0.441480,0.671391,-0.006570,-0.009831,0.005907,,,,,,,,
1697108039.320276,148363.000000,1697108039.299821,-0.078292,0.434749,0.665248,-0.006530,-0.009817,0.005839,,,,,,,,
1697108039.333803,148364.000000,1697108039.309723,-0.083235,0.428021,0.658911,-0.006486,-0.009794,0.005767,,,,,,,,
1697108039.334368,148365.000000,1697108039.320081,-0.087290,0.422866,0.656290,-0.006461,-0.009783,0.005718,,,,,,,,
1697108039.342028,148366.000000,1697108039.330309,-0.089849,0.420087,0.657884,-0.006460,-0.009793,0.005702,,,,,,,,
1697108039.355715,148367.000000,1697108039.340509,-0.091198,0.419217,0.661611,-0.006466,-0.009819,0.005707,,,,,,,,
1697108039.368305,148368.000000,1697108039.350120,-0.091602,0.419038,0.665623,-0.006468,-0.009845,0.005716,,,,,,,,
1697108039.378907,148369.000000,1697108039.359942,-0.091193,0.417761,0.667470,-0.006458,-0.009835,0.005708,,,,,,,,
1697108039.393766,148370.000000,1697108039.370669,-0.089883,0.415022,0.666869,-0.006434,-0.009783,0.005681,,,,,,,,
1697108039.406090,148372.000000,1697108039.390505,-0.085069,0.410576,0.666054,-0.006390,-0.009654,0.005641,,,,,,,,
1697108039.414569,148373.000000,1697108039.399840,-0.081989,0.407396,0.664002,-0.006356,-0.009580,0.005615,,,,,,,,
1697108039.424334,148374.000000,1697108039.409740,-0.078162,0.402373,0.658343,-0.006295,-0.009472,0.005564,,,,,,,,
1697108039.438636,148375.000000,1697108039.419939,-0.074226,0.396284,0.648770,-0.006209,-0.009336,0.005491,,,,,,,,
1697108039.458548,148376.000000,1697108039.429957,-0.070264,0.389512,0.636860,-0.006103,-0.009181,0.005401,,,,,,,,
1697108039.462196,148377.000000,1697108039.439862,-0.066363,0.381518,0.623655,-0.005978,-0.009011,0.005301,,,,,,,,
1697108039.465749,148378.000000,1697108039.449874,-0.062991,0.372219,0.609162,-0.005838,-0.008830,0.005194,,,,,,,,
1697108039.468948,148379.000000,1697108039.460074,-0.059850,0.361468,0.592143,-0.005683,-0.008623,0.005077,,,,,,,,
1697108039.479830,148380.000000,1697108039.469769,-0.056667,0.349163,0.572272,-0.005517,-0.008385,0.004947,,,,,,,,
1697108039.494473,148381.000000,1697108039.479869,-0.053620,0.335122,0.550215,-0.005340,-0.008117,0.004799,,,,,,,,
1697108039.506581,148382.000000,1697108039.489744,-0.051100,0.319659,0.526436,-0.005147,-0.007824,0.004635,,,,,,,,
1697108039.512322,148383.000000,1697108039.499867,-0.049544,0.304207,0.502697,-0.004951,-0.007538,0.004468,,,,,,,,
1697108039.522504,148384.000000,1697108039.511398,-0.049184,0.289887,0.480414,-0.004764,-0.007281,0.004305,,,,,,,,
1697108039.532245,148385.000000,1697108039.520478,-0.049483,0.277379,0.460204,-0.004594,-0.007059,0.004143,,,,,,,,
1697108039.545678,148386.000000,1697108039.529969,-0.049658,0.267113,0.443605,-0.004450,-0.006880,0.003991,,,,,,,,
1697108039.552616,148387.000000,1697108039.539710,-0.049640,0.258908,0.430895,-0.004334,-0.006739,0.003855,,,,,,,,
1697108039.565262,148388.000000,1697108039.550355,-0.049591,0.252053,0.420797,-0.004241,-0.006623,0.003740,,,,,,,,
1697108039.573958,148389.000000,1697108039.563749,-0.049575,0.244916,0.410631,-0.004150,-0.006503,0.003627,,,,,,,,
1697108039.584021,148390.000000,1697108039.573296,-0.049290,0.237014,0.398478,-0.004052,-0.006359,0.003506,,,,,,,,
1697108039.595099,148391.000000,1697108039.579843,-0.048089,0.230239,0.387238,-0.003970,-0.006222,0.003401,,,,,,,,
1697108039.603482,148392.000000,1697108039.589862,-0.045828,0.225921,0.380126,-0.003924,-0.006124,0.003337,,,,,,,,
1697108039.614224,148393.000000,1697108039.600346,-0.043220,0.223917,0.376687,-0.003911,-0.006068,0.003304,,,,,,,,
1697108039.622119,148394.000000,1697108039.609756,-0.040765,0.223444,0.375476,-0.003915,-0.006039,0.003292,,,,,,,,
1697108039.628831,148395.000000,1697108039.619838,-0.038444,0.223305,0.374982,-0.003922,-0.006018,0.003292,,,,,,,,
1697108039.635205,148396.000000,1697108039.630029,-0.036494,0.223551,0.374734,-0.003935,-0.006008,0.003305,,,,,,,,
1697108039.660327,148397.000000,1697108039.639947,-0.035029,0.225467,0.375735,-0.003968,-0.006024,0.003337,,,,,,,,
1697108039.681221,148398.000000,1697108039.650453,-0.034056,0.229005,0.377139,-0.004016,-0.006058,0.003382,,,,,,,,
1697108039.686176,148400.000000,1697108039.670076,-0.031428,0.235129,0.372212,-0.004063,-0.006071,0.003433,,,,,,,,
1697108039.701246,148401.000000,1697108039.679734,-0.029283,0.237306,0.366702,-0.004068,-0.006051,0.003437,,,,,,,,
1697108039.706734,148402.000000,1697108039.689731,-0.026918,0.239318,0.360905,-0.004072,-0.006022,0.003430,,,,,,,,
1697108039.718460,148403.000000,1697108039.700360,-0.024515,0.240155,0.354394,-0.004065,-0.005974,0.003410,,,,,,,,
1697108039.731477,148404.000000,1697108039.709923,-0.022506,0.240521,0.349340,-0.004057,-0.005933,0.003397,,,,,,,,
1697108039.746038,148406.000000,1697108039.729897,-0.020110,0.246688,0.352829,-0.004128,-0.006004,0.003459,,,,,,,,
1697108039.759229,148407.000000,1697108039.740072,-0.019560,0.253634,0.361147,-0.004213,-0.006120,0.003534,,,,,,,,
1697108039.765628,148408.000000,1697108039.750522,-0.019325,0.262551,0.371729,-0.004319,-0.006270,0.003618,,,,,,,,
1697108039.776175,148409.000000,1697108039.759864,-0.019012,0.271900,0.381833,-0.004430,-0.006425,0.003691,,,,,,,,
1697108039.784350,148410.000000,1697108039.769742,-0.018363,0.279492,0.388448,-0.004517,-0.006542,0.003736,,,,,,,,
1697108039.803704,148411.000000,1697108039.779851,-0.017698,0.283984,0.389982,-0.004555,-0.006596,0.003745,,,,,,,,
1697108039.815375,148413.000000,1697108039.799939,-0.017993,0.286403,0.384169,-0.004533,-0.006567,0.003704,,,,,,,,
1697108039.825230,148414.000000,1697108039.809938,-0.018988,0.285977,0.379851,-0.004504,-0.006522,0.003674,,,,,,,,
1697108039.829510,148415.000000,1697108039.821622,-0.020376,0.284006,0.374255,-0.004460,-0.006456,0.003630,,,,,,,,
1697108039.837885,148416.000000,1697108039.829829,-0.021410,0.279908,0.366262,-0.004390,-0.006357,0.003561,,,,,,,,
1697108039.849554,148417.000000,1697108039.840062,-0.021729,0.273405,0.355970,-0.004288,-0.006215,0.003468,,,,,,,,
1697108039.859686,148418.000000,1697108039.849819,-0.022022,0.265080,0.344531,-0.004162,-0.006045,0.003363,,,,,,,,
1697108039.868384,148419.000000,1697108039.859844,-0.022718,0.255928,0.332467,-0.004027,-0.005867,0.003253,,,,,,,,
1697108039.880836,148420.000000,1697108039.869811,-0.023298,0.246839,0.320424,-0.003894,-0.005689,0.003145,,,,,,,,
1697108039.893887,148421.000000,1697108039.882356,-0.023330,0.237505,0.308307,-0.003754,-0.005504,0.003036,,,,,,,,
1697108039.906387,148422.000000,1697108039.889652,-0.022880,0.226630,0.295107,-0.003594,-0.005290,0.002913,,,,,,,,
1697108039.916321,148423.000000,1697108039.899822,-0.021811,0.214592,0.281534,-0.003426,-0.005057,0.002782,,,,,,,,
1697108039.920702,148424.000000,1697108039.910860,-0.019987,0.202717,0.268524,-0.003264,-0.004826,0.002649,,,,,,,,
1697108039.942194,148425.000000,1697108039.927287,-0.017768,0.191424,0.256041,-0.003105,-0.004602,0.002517,,,,,,,,
1697108039.949364,148427.000000,1697108039.939813,-0.014732,0.176137,0.241553,-0.002884,-0.004311,0.002335,,,,,,,,
1697108039.962052,148428.000000,1697108039.950266,-0.014114,0.171827,0.239251,-0.002823,-0.004243,0.002285,,,,,,,,
1697108039.975974,148429.000000,1697108039.960749,-0.013665,0.168545,0.238033,-0.002775,-0.004193,0.002246,,,,,,,,
1697108039.988058,148430.000000,1697108039.972337,-0.013150,0.165898,0.236933,-0.002734,-0.004149,0.002211,,,,,,,,
1697108039.992211,148431.000000,1697108039.980070,-0.012727,0.163602,0.236007,-0.002697,-0.004110,0.002181,,,,,,,,
1697108040.010413,148432.000000,1697108039.989809,-0.012774,0.161987,0.236248,-0.002673,-0.004096,0.002163,,,,,,,,
1697108040.029627,148433.000000,1697108039.999823,-0.013260,0.162108,0.239282,-0.002673,-0.004126,0.002168,,,,,,,,
1697108040.037728,148434.000000,1697108040.013444,-0.014078,0.164435,0.246051,-0.002704,-0.004208,0.002205,,,,,,,,
1697108040.037738,148435.000000,1697108040.019951,-0.015328,0.169059,0.256351,-0.002764,-0.004339,0.002275,,,,,,,,
1697108040.045455,148436.000000,1697108040.029831,-0.016758,0.175685,0.269052,-0.002846,-0.004506,0.002369,,,,,,,,
