__time,/hsrb/joint_states/arm_flex_joint/effort,/hsrb/joint_states/arm_flex_joint/position,/hsrb/joint_states/arm_flex_joint/velocity,/hsrb/joint_states/arm_lift_joint/effort,/hsrb/joint_states/arm_lift_joint/position,/hsrb/joint_states/arm_lift_joint/velocity,/hsrb/joint_states/arm_roll_joint/effort,/hsrb/joint_states/arm_roll_joint/position,/hsrb/joint_states/arm_roll_joint/velocity,/hsrb/joint_states/base_l_drive_wheel_joint/effort,/hsrb/joint_states/base_l_drive_wheel_joint/position,/hsrb/joint_states/base_l_drive_wheel_joint/velocity,/hsrb/joint_states/base_r_drive_wheel_joint/effort,/hsrb/joint_states/base_r_drive_wheel_joint/position,/hsrb/joint_states/base_r_drive_wheel_joint/velocity,/hsrb/joint_states/base_roll_joint/effort,/hsrb/joint_states/base_roll_joint/position,/hsrb/joint_states/base_roll_joint/velocity,/hsrb/joint_states/hand_l_spring_proximal_joint/effort,/hsrb/joint_states/hand_l_spring_proximal_joint/position,/hsrb/joint_states/hand_l_spring_proximal_joint/velocity,/hsrb/joint_states/hand_motor_joint/effort,/hsrb/joint_states/hand_motor_joint/position,/hsrb/joint_states/hand_motor_joint/velocity,/hsrb/joint_states/hand_r_spring_proximal_joint/effort,/hsrb/joint_states/hand_r_spring_proximal_joint/position,/hsrb/joint_states/hand_r_spring_proximal_joint/velocity,/hsrb/joint_states/head_pan_joint/effort,/hsrb/joint_states/head_pan_joint/position,/hsrb/joint_states/head_pan_joint/velocity,/hsrb/joint_states/head_tilt_joint/effort,/hsrb/joint_states/head_tilt_joint/position,/hsrb/joint_states/head_tilt_joint/velocity,/hsrb/joint_states/header/seq,/hsrb/joint_states/header/stamp,/hsrb/joint_states/wrist_flex_joint/effort,/hsrb/joint_states/wrist_flex_joint/position,/hsrb/joint_states/wrist_flex_joint/velocity,/hsrb/joint_states/wrist_roll_joint/effort,/hsrb/joint_states/wrist_roll_joint/position,/hsrb/joint_states/wrist_roll_joint/velocity,/hsrb/pressure_sensor/data,/hsrb/wrist_wrench/compensated/header/seq,/hsrb/wrist_wrench/compensated/header/stamp,/hsrb/wrist_wrench/compensated/wrench/force/x,/hsrb/wrist_wrench/compensated/wrench/force/y,/hsrb/wrist_wrench/compensated/wrench/force/z,/hsrb/wrist_wrench/compensated/wrench/torque/x,/hsrb/wrist_wrench/compensated/wrench/torque/y,/hsrb/wrist_wrench/compensated/wrench/torque/z
1692875524.163558,-0.032354,-0.025652,-0.000018,-42.784513,0.001230,0.000008,-0.060720,0.002005,-0.000046,0.021576,-1.479173,-0.000415,-0.002697,1.722393,-0.000653,0.176640,-2.292839,0.000764,-0.847000,0.146955,0.012000,0.000817,0.491045,-0.007681,-0.486000,0.212954,0.006000,-0.025760,-0.000046,0.000138,-1.235429,-0.000003,-0.000038,11222.000000,1692875524.139068,0.636114,-1.569998,-0.000048,0.021029,0.000153,0.000048,,,,,,,,,
1692875524.175112,-0.355898,-0.025268,-0.002132,-42.493461,0.001230,0.000008,0.121440,0.002005,-0.000046,0.002697,-1.479133,-0.006947,-0.005394,1.722393,-0.000653,0.143520,-2.292849,-0.001570,-0.847000,0.145773,0.002000,0.000408,0.492227,0.001181,-0.488000,0.211772,0.006000,0.001840,-0.000046,0.000138,-1.261714,-0.000003,-0.000038,11223.000000,1692875524.159086,0.714971,-1.569998,-0.000048,0.068343,0.000153,0.000048,,,,,,,,,
1692875524.192089,-1.536834,-0.025268,-0.001920,-42.493461,0.001230,0.000008,0.055200,0.002005,-0.000046,-0.053940,-1.479133,0.009936,-0.002697,1.722393,-0.000653,0.165600,-2.292839,0.000094,-0.850000,0.142772,0.001000,0.008186,0.492227,0.003545,-0.492000,0.208772,0.006000,0.000000,-0.000046,0.000138,-1.196000,-0.000003,-0.000038,11224.000000,1692875524.179068,0.725486,-1.569998,-0.000048,-0.042057,0.000153,0.000048,,,,,,,,,
1692875524.209575,-0.986809,-0.025268,-0.000068,-42.493461,0.001230,0.000008,0.193200,0.002005,-0.000046,0.059334,-1.479212,-0.014508,-0.002697,1.722393,-0.000653,0.154560,-2.292839,0.000094,-0.848000,0.144001,-0.004000,0.008598,0.493999,0.005909,-0.493000,0.208001,-0.008999,-0.016560,-0.000046,0.000138,-1.222286,-0.000003,-0.000038,11225.000000,1692875524.199090,0.767543,-1.569998,-0.000048,-0.042057,0.000153,0.000048,,,,,,,,,
1692875524.230821,-0.161772,-0.025652,-0.001234,-42.784513,0.001230,0.000008,0.126960,0.002005,-0.000046,0.075516,-1.479212,-0.002513,-0.002697,1.722393,-0.000653,0.209760,-2.292839,0.000094,-0.848000,0.144591,0.006000,0.002046,0.493409,0.008272,-0.493000,0.207590,-0.004000,0.005520,-0.000046,0.000138,-1.248571,0.000002,0.000038,11226.000000,1692875524.219089,0.730743,-1.569998,-0.000048,0.036800,0.000153,0.000048,,,,,,,,,
1692875524.251542,-0.242658,-0.025652,-0.000862,-42.784513,0.001230,0.000008,0.115920,0.002005,-0.000046,-0.002697,-1.479153,0.004354,0.000000,1.722393,-0.000653,0.154560,-2.292849,-0.004900,-0.851000,0.142590,-0.004000,0.003683,0.493409,0.005318,-0.493000,0.208591,-0.003000,0.014720,-0.000046,0.000138,-1.123714,0.000002,0.000038,11227.000000,1692875524.239104,0.662400,-1.569998,-0.000048,-0.010514,0.000153,0.000048,,,,,,,,,
1692875524.267707,0.275012,-0.025652,-0.000018,-43.657666,0.001230,0.000008,0.005520,0.002005,-0.000046,0.016182,-1.479133,-0.006056,-0.005394,1.722393,-0.000653,0.165600,-2.292839,0.000094,-0.851000,0.142772,-0.008000,-0.000408,0.492227,-0.000590,-0.490000,0.210773,0.002000,-0.014720,-0.000046,0.000138,-1.130286,0.000002,0.000038,11228.000000,1692875524.259064,0.751771,-1.569998,-0.000048,0.026286,0.000153,0.000048,,,,,,,,,
1692875524.295565,0.064709,-0.025652,-0.000997,-42.784513,0.001229,-0.000185,0.160080,0.002005,-0.000046,-0.021576,-1.479113,0.013835,0.000000,1.722393,-0.000653,0.231840,-2.292839,0.000094,-0.851000,0.143772,-0.003000,0.007370,0.492227,-0.000590,-0.493000,0.208772,-0.003000,-0.005520,-0.000046,0.000138,-1.222286,0.000002,0.000038,11229.000000,1692875524.279064,0.709714,-1.569998,-0.000048,0.057829,0.000153,0.000048,,,,,,,,,
1692875524.296592,,,,,,,,,,,,,,,,,,,,,,,,,,,,,,,,,,,,,,,,,,0.000000,,,,,,,,
1692875524.315312,-0.469139,-0.025652,-0.001363,-44.239768,0.001229,-0.000390,0.215280,0.002005,-0.000046,-0.091698,-1.479094,0.004532,-0.002697,1.722393,-0.000653,0.121440,-2.292839,0.003487,-0.851000,0.142772,-0.003000,0.000817,0.492227,-0.000590,-0.493000,0.208772,-0.007000,0.000000,-0.000046,0.000138,-1.235429,0.000002,0.000038,11230.000000,1692875524.299062,0.714971,-1.569998,-0.000048,0.010514,0.000153,0.000048,,,,,,,,,
1692875524.333093,-0.679443,-0.025652,-0.001989,-43.366615,0.001229,-0.000013,0.071760,0.002005,-0.000046,-0.029667,-1.479094,0.016032,-0.002697,1.722393,-0.000653,0.176640,-2.292849,-0.000356,-0.855000,0.140773,-0.016000,0.004091,0.492227,0.002363,-0.493000,0.209773,-0.002000,0.011040,-0.000046,0.000138,-1.242000,0.000002,0.000038,11231.000000,1692875524.319064,0.757029,-1.569998,-0.000048,-0.026286,0.000153,0.000048,,,,,,,,,
1692875524.351199,-1.067695,-0.025652,-0.000688,-42.784513,0.001229,-0.000008,0.115920,0.002005,-0.000046,0.072819,-1.479212,-0.001207,-0.002697,1.722393,-0.000653,0.253920,-2.292839,0.000094,-0.856000,0.141773,-0.016000,0.001637,0.492227,-0.000590,-0.497000,0.207772,-0.006000,-0.033120,-0.000046,0.000138,-1.176286,0.000002,0.000038,11232.000000,1692875524.339064,0.714971,-1.569998,-0.000048,-0.042057,0.000153,0.000048,,,,,,,,,
1692875524.371236,-0.291190,-0.025652,-0.000018,-41.911359,0.001229,-0.000008,0.176640,0.002005,-0.000046,-0.013485,-1.479094,0.016725,-0.002697,1.722393,-0.000653,0.165600,-2.292839,0.000094,-0.856000,0.141773,-0.010999,0.004091,0.492227,-0.000590,-0.495000,0.208772,-0.004999,-0.036800,-0.000046,0.000138,-1.150000,0.000002,0.000038,11233.000000,1692875524.359065,0.736000,-1.569998,-0.000048,0.073600,0.000153,0.000048,,,,,,,,,
1692875524.392596,-0.485316,-0.025652,-0.000018,-41.620308,0.001229,-0.000008,0.000000,0.002005,-0.000046,0.043152,-1.479193,-0.013459,-0.005394,1.722393,-0.000653,0.242880,-2.292839,0.000094,-0.856000,0.141773,-0.010999,0.002454,0.492227,-0.000590,-0.490000,0.211772,0.009999,0.031280,-0.000046,0.000138,-1.301143,0.000002,0.000038,11234.000000,1692875524.379110,0.693943,-1.569998,-0.000048,0.057829,0.000153,0.000048,,,,,,,,,
1692875524.405652,,,,,,,,,,,,,,,,,,,,,,,,,,,,,,,,,,,,,,,,,,0.000000,,,,,,,,
1692875524.421382,-0.048532,-0.025652,-0.000018,-41.329257,0.001229,-0.000008,0.071760,0.002005,-0.000046,-0.056637,-1.479074,0.021356,-0.002697,1.722393,-0.000653,0.209760,-2.292839,0.000251,-0.856000,0.141364,-0.019999,0.004091,0.491636,-0.000590,-0.490000,0.211364,0.009999,-0.011040,-0.000046,0.000138,-1.196000,0.000002,0.000038,11235.000000,1692875524.399063,0.736000,-1.569998,-0.000048,0.042057,0.000153,0.000048,,,,,,,,,
1692875524.444005,-0.226481,-0.026036,-0.000018,-40.747155,0.001230,0.000033,0.121440,0.002005,-0.000046,0.002697,-1.479232,-0.015755,-0.002697,1.722393,-0.000653,0.220800,-2.292839,0.000094,-0.859000,0.140364,-0.014999,0.001637,0.491636,-0.002954,-0.493000,0.209363,-0.004999,0.014720,-0.000046,0.000138,-1.399714,0.000002,0.000038,11236.000000,1692875524.419067,0.793829,-1.569998,-0.000048,-0.105143,0.000153,0.000048,,,,,,,,,
1692875524.477551,-0.064709,-0.025652,-0.000018,-41.038206,0.001230,0.000008,0.176640,0.002005,-0.000046,-0.080910,-1.479074,0.008906,-0.005394,1.722393,-0.000653,0.209760,-2.292839,0.000094,-0.866000,0.135363,-0.043000,0.004503,0.491636,-0.002954,-0.493000,0.210364,-0.004999,-0.016560,-0.000046,0.000138,-1.235429,0.000002,0.000038,11237.000000,1692875524.439066,0.804343,-1.569998,-0.000048,-0.042057,0.000153,0.000048,,,,,,,,,
1692875524.485717,0.080886,-0.025652,-0.000018,-40.747155,0.001230,0.000008,0.110400,0.002005,-0.000046,-0.008091,-1.479173,0.001662,-0.005394,1.722393,-0.000653,0.143520,-2.292849,-0.001738,-0.860000,0.141364,-0.014000,0.002046,0.491636,-0.002954,-0.493000,0.209363,-0.004999,-0.014720,-0.000046,0.000138,-1.248571,0.000002,0.000038,11238.000000,1692875524.459061,0.867429,-1.569998,-0.000048,0.073600,0.000153,0.000048,,,,,,,,,
1692875524.507272,,,,,,,,,,,,,,,,,,,,,,,,,,,,,,,,,,,,,,,,,,,21629.000000,1692875524.486060,0.000000,0.000000,0.000000,0.000000,0.000000,0.000000
1692875524.510419,-0.016177,-0.025652,-0.000018,-41.329257,0.001230,0.000056,0.071760,0.002005,-0.000046,0.026970,-1.479153,-0.008867,0.000000,1.722393,-0.000653,0.220800,-2.292839,0.000094,-0.860000,0.141364,-0.017999,0.003275,0.491636,-0.002954,-0.486000,0.213363,0.014999,0.014720,-0.000046,0.000138,-1.163143,0.000002,0.000038,11239.000000,1692875524.479062,0.888457,-1.569998,-0.000048,0.084114,0.000153,0.000048,,,,,,,,,
1692875524.520270,,,,,,,,,,,,,,,,,,,,,,,,,,,,,,,,,,,,,,,,,,,21630.000000,1692875524.495896,0.000000,0.000000,0.000000,0.000000,0.000000,0.000000
1692875524.529299,,,,,,,,,,,,,,,,,,,,,,,,,,,,,,,,,,,,,,,,,,0.000000,,,,,,,,
1692875524.529307,,,,,,,,,,,,,,,,,,,,,,,,,,,,,,,,,,,,,,,,,,,21631.000000,1692875524.509805,0.000000,0.000000,0.000000,0.000000,0.000000,0.000000
1692875524.529315,1.747138,-0.025652,0.001292,-41.620308,0.001230,0.000008,0.121440,0.002005,-0.000046,-0.029667,-1.479094,0.015517,-0.005394,1.722393,-0.000653,0.187680,-2.292839,0.000094,-0.860000,0.141773,0.002000,0.008598,0.492227,0.000000,-0.486000,0.212772,0.014999,0.007360,-0.000046,0.000138,-1.327429,0.000002,0.000038,11240.000000,1692875524.499066,0.962057,-1.569998,-0.000048,-0.110400,0.000153,0.000048,,,,,,,,,
1692875524.535688,,,,,,,,,,,,,,,,,,,,,,,,,,,,,,,,,,,,,,,,,,,21632.000000,1692875524.517882,0.000000,0.000000,0.000000,0.000000,0.000000,0.000000
1692875524.541194,,,,,,,,,,,,,,,,,,,,,,,,,,,,,,,,,,,,,,,,,,,21633.000000,1692875524.526943,0.000000,0.000000,0.000000,0.000000,0.000000,0.000000
1692875524.542966,0.436784,-0.025652,-0.000018,-42.202410,0.001230,0.000008,0.126960,0.002005,-0.000046,-0.002697,-1.479153,-0.008590,0.000000,1.722393,-0.000653,0.242880,-2.292839,0.000094,-0.856000,0.143772,-0.003000,0.000817,0.492227,0.000000,-0.488000,0.210773,0.004999,-0.049680,-0.000046,0.000138,-1.209143,0.000002,0.000038,11241.000000,1692875524.519061,0.867429,-1.569998,-0.000048,0.078857,0.000153,0.000048,,,,,,,,,
1692875524.555994,,,,,,,,,,,,,,,,,,,,,,,,,,,,,,,,,,,,,,,,,,,21634.000000,1692875524.543034,0.000000,0.000000,0.000000,0.000000,0.000000,0.000000
1692875524.556010,0.485316,-0.025652,-0.000018,-42.202410,0.001230,0.000008,0.088320,0.002005,-0.000046,-0.032364,-1.479094,0.015221,-0.013485,1.722393,-0.000653,0.209760,-2.292839,0.000094,-0.856000,0.144773,0.010999,0.002866,0.492227,0.000000,-0.488000,0.211772,0.004999,-0.014720,-0.000046,0.000138,-1.242000,0.000002,0.000038,11242.000000,1692875524.539069,0.867429,-1.569998,-0.000048,0.063086,0.000153,0.000048,,,,,,,,,
1692875524.559659,,,,,,,,,,,,,,,,,,,,,,,,,,,,,,,,,,,,,,,,,,,21636.000000,1692875524.555862,0.000000,0.000000,0.000000,0.000000,0.000000,0.000000
1692875524.572445,-0.097063,-0.025268,-0.000018,-42.493461,0.001230,0.000008,0.110400,0.002005,-0.000046,0.045849,-1.479212,-0.014785,-0.002697,1.722393,-0.000653,0.099360,-2.292849,-0.003790,-0.850000,0.147363,0.010999,0.003275,0.491636,-0.002363,-0.486000,0.211364,0.013000,-0.001840,-0.000046,0.000138,-1.314286,0.000002,0.000038,11243.000000,1692875524.559065,0.920000,-1.569998,-0.000048,0.057829,0.000153,0.000048,,,,,,,,,
1692875524.576225,,,,,,,,,,,,,,,,,,,,,,,,,,,,,,,,,,,,,,,,,,,21637.000000,1692875524.570138,0.000000,0.000000,0.000000,0.000000,0.000000,0.000000
1692875524.589089,,,,,,,,,,,,,,,,,,,,,,,,,,,,,,,,,,,,,,,,,,,21638.000000,1692875524.578983,0.000000,0.000000,0.000000,0.000000,0.000000,0.000000
1692875524.589104,-0.032354,-0.025652,-0.000997,-42.784513,0.001230,0.000008,0.088320,0.002005,-0.000046,-0.083607,-1.479054,0.015715,-0.002697,1.722393,-0.000653,0.242880,-2.292839,0.000094,-0.856000,0.142181,0.014999,0.003275,0.492818,0.003545,-0.485000,0.212181,0.003000,-0.003680,-0.000046,0.000138,-1.136857,0.000002,0.000038,11244.000000,1692875524.579068,0.783314,-1.569998,-0.000048,0.089371,0.000153,0.000048,,,,,,,,,
1692875524.597904,,,,,,,,,,,,,,,,,,,,,,,,,,,,,,,,,,,,,,,,,,,21639.000000,1692875524.585974,0.000000,0.000000,0.000000,0.000000,0.000000,0.000000
1692875524.612524,,,,,,,,,,,,,,,,,,,,,,,,,,,,,,,,,,,,,,,,,,,21640.000000,1692875524.595829,0.000000,0.000000,0.000000,0.000000,0.000000,0.000000
1692875524.613072,0.113240,-0.025652,0.000018,-43.366615,0.001230,0.000008,0.099360,0.002005,-0.000046,-0.002697,-1.479232,-0.015834,-0.002697,1.722393,-0.000653,0.220800,-2.292839,0.000094,-0.856000,0.141000,0.000000,0.002454,0.493999,0.003545,-0.486000,0.210000,0.007000,0.009200,-0.000046,0.000138,-1.248571,0.000002,0.000038,11245.000000,1692875524.599060,0.893714,-1.569998,-0.000048,0.084114,0.000153,0.000048,,,,,,,,,
1692875524.626367,,,,,,,,,,,,,,,,,,,,,,,,,,,,,,,,,,,,,,,,,,,21641.000000,1692875524.606188,0.000000,0.000000,0.000000,0.000000,0.000000,0.000000
1692875524.629704,,,,,,,,,,,,,,,,,,,,,,,,,,,,,,,,,,,,,,,,,,0.000000,,,,,,,,
1692875524.637028,,,,,,,,,,,,,,,,,,,,,,,,,,,,,,,,,,,,,,,,,,,21642.000000,1692875524.615955,0.000000,0.000000,0.000000,0.000000,0.000000,0.000000
1692875524.637043,-0.145595,-0.025652,0.000018,-43.366615,0.001230,0.000008,0.121440,0.002005,-0.000046,-0.018879,-1.479113,-0.001029,-0.005394,1.722393,-0.000653,0.242880,-2.292839,0.000094,-0.860000,0.139001,0.000000,0.004091,0.493999,0.005909,-0.490000,0.207000,0.002000,-0.018400,-0.000046,0.000138,-1.136857,0.000002,0.000038,11246.000000,1692875524.619063,0.920000,-1.569998,-0.000048,0.010514,0.000153,0.000048,,,,,,,,,
1692875524.646915,,,,,,,,,,,,,,,,,,,,,,,,,,,,,,,,,,,,,,,,,,,21643.000000,1692875524.625915,0.000000,0.000000,0.000000,0.000000,0.000000,0.000000
1692875524.653569,,,,,,,,,,,,,,,,,,,,,,,,,,,,,,,,,,,,,,,,,,,21644.000000,1692875524.635882,0.000000,0.000000,0.000000,0.000000,0.000000,0.000000
1692875524.653579,0.145595,-0.025652,-0.000018,-42.784513,0.001230,0.000008,0.182160,0.002005,-0.000046,0.043152,-1.479212,-0.008194,-0.005394,1.722393,-0.000653,0.187680,-2.292839,0.000094,-0.861000,0.138591,-0.008999,0.002454,0.493409,0.008272,-0.490000,0.208591,-0.008000,-0.003680,-0.000046,0.000138,-1.268286,0.000002,0.000038,11247.000000,1692875524.639063,0.820114,-1.569998,-0.000048,0.047314,0.000153,0.000048,,,,,,,,,
1692875524.662542,,,,,,,,,,,,,,,,,,,,,,,,,,,,,,,,,,,,,,,,,,,21645.000000,1692875524.646059,0.000000,0.000000,0.000000,0.000000,0.000000,0.000000
1692875524.672894,,,,,,,,,,,,,,,,,,,,,,,,,,,,,,,,,,,,,,,,,,,21646.000000,1692875524.655925,0.000000,0.000000,0.000000,0.000000,0.000000,0.000000
1692875524.675583,-0.760329,-0.025268,-0.000464,-43.366615,0.001230,0.000008,0.033120,0.002005,-0.000046,0.021576,-1.479153,-0.008808,-0.008091,1.722393,-0.000653,0.088320,-2.292849,-0.000146,-0.861000,0.139001,-0.013000,0.004091,0.493999,0.007681,-0.495000,0.205001,-0.012000,-0.011040,-0.000046,0.000138,-1.110571,0.000002,0.000038,11248.000000,1692875524.659059,0.746514,-1.569998,-0.000048,0.084114,0.000153,0.000048,,,,,,,,,
1692875524.682443,,,,,,,,,,,,,,,,,,,,,,,,,,,,,,,,,,,,,,,,,,,21647.000000,1692875524.665935,0.000000,0.000000,0.000000,0.000000,0.000000,0.000000
1692875524.689377,,,,,,,,,,,,,,,,,,,,,,,,,,,,,,,,,,,,,,,,,,,21648.000000,1692875524.676268,0.000000,0.000000,0.000000,0.000000,0.000000,0.000000
1692875524.694410,0.000000,-0.025652,0.000018,-43.948717,0.001229,-0.000131,0.143520,0.002005,-0.000046,-0.032364,-1.479094,0.014468,-0.008091,1.722393,-0.000653,0.220800,-2.292839,0.000094,-0.859000,0.142410,-0.003000,0.002046,0.494590,0.007681,-0.497000,0.205409,-0.006000,-0.018400,-0.000046,0.000138,-1.176286,0.000002,0.000038,11249.000000,1692875524.679063,0.883200,-1.569998,-0.000048,-0.036800,0.000153,0.000048,,,,,,,,,
1692875524.702923,,,,,,,,,,,,,,,,,,,,,,,,,,,,,,,,,,,,,,,,,,,21649.000000,1692875524.685923,0.000000,0.000000,0.000000,0.000000,0.000000,0.000000
1692875524.717437,-0.080886,-0.025652,0.000018,-42.202410,0.001229,-0.000008,-0.005520,0.002005,-0.000046,0.032364,-1.479173,-0.012252,-0.002697,1.722393,-0.000653,0.242880,-2.292839,0.000094,-0.856000,0.142410,0.012000,0.002046,0.494590,0.007090,-0.500000,0.204410,-0.014000,-0.047840,-0.000046,0.000138,-1.288000,0.000002,0.000038,11250.000000,1692875524.699060,0.893714,-1.569998,-0.000048,0.000000,0.000153,0.000048,,,,,,,,,
1692875524.718896,,,,,,,,,,,,,,,,,,,,,,,,,,,,,,,,,,,,,,,,,,,21650.000000,1692875524.695934,0.000000,0.000000,0.000000,0.000000,0.000000,0.000000
1692875524.725166,,,,,,,,,,,,,,,,,,,,,,,,,,,,,,,,,,,,,,,,,,,21651.000000,1692875524.706557,0.000000,0.000000,0.000000,0.000000,0.000000,0.000000
1692875524.732647,,,,,,,,,,,,,,,,,,,,,,,,,,,,,,,,,,,,,,,,,,0.000000,,,,,,,,
1692875524.742733,,,,,,,,,,,,,,,,,,,,,,,,,,,,,,,,,,,,,,,,,,,21652.000000,1692875524.715954,0.000000,0.000000,0.000000,0.000000,0.000000,0.000000
1692875524.742980,-0.097063,-0.025652,0.000018,-42.784513,0.001229,-0.000008,0.088320,0.002005,-0.000046,0.037758,-1.479193,-0.013835,-0.008091,1.722393,-0.000653,0.220800,-2.292839,0.000094,-0.861000,0.139410,0.002000,0.001225,0.494590,0.006499,-0.500000,0.205409,-0.004000,0.003680,-0.000046,0.000138,-1.248571,0.000002,0.000038,11251.000000,1692875524.719064,0.856914,-1.569998,-0.000048,0.047314,0.000153,0.000048,,,,,,,,,
1692875524.758340,,,,,,,,,,,,,,,,,,,,,,,,,,,,,,,,,,,,,,,,,,,21653.000000,1692875524.725932,0.000000,0.000000,0.000000,0.000000,0.000000,0.000000
1692875524.758835,,,,,,,,,,,,,,,,,,,,,,,,,,,,,,,,,,,,,,,,,,,21654.000000,1692875524.735933,0.000000,0.000000,0.000000,0.000000,0.000000,0.000000
1692875524.765693,-0.080886,-0.025652,0.000018,-41.911359,0.001229,-0.000008,0.115920,0.002005,-0.000046,-0.016182,-1.479054,0.017437,-0.008091,1.722393,-0.000653,0.209760,-2.292839,0.000094,-0.860000,0.141000,0.002000,0.003275,0.493999,0.005909,-0.501000,0.205001,-0.012000,-0.022080,-0.000046,0.000138,-1.314286,0.000002,0.000038,11252.000000,1692875524.739060,0.841143,-1.569998,-0.000048,0.052571,0.000153,0.000048,,,,,,,,,
1692875524.765757,,,,,,,,,,,,,,,,,,,,,,,,,,,,,,,,,,,,,,,,,,,21655.000000,1692875524.746435,0.000000,0.000000,0.000000,0.000000,0.000000,0.000000
1692875524.771645,,,,,,,,,,,,,,,,,,,,,,,,,,,,,,,,,,,,,,,,,,,21656.000000,1692875524.755823,0.000000,0.000000,0.000000,0.000000,0.000000,0.000000
1692875524.779859,,,,,,,,,,,,,,,,,,,,,,,,,,,,,,,,,,,,,,,,,,,21657.000000,1692875524.765955,0.000000,0.000000,0.000000,0.000000,0.000000,0.000000
1692875524.787047,-0.129418,-0.025652,0.000018,-41.038206,0.001229,-0.000008,0.082800,0.002005,-0.000046,0.053940,-1.479212,-0.000950,-0.008091,1.722393,-0.000653,0.187680,-2.292839,0.000251,-0.860000,0.141590,0.002000,0.003275,0.493409,0.002954,-0.500000,0.206590,-0.007000,0.001840,-0.000046,0.000138,-1.366857,0.000002,0.000038,11253.000000,1692875524.759064,0.988343,-1.569998,-0.000048,0.057829,0.000153,0.000048,,,,,,,,,
1692875524.791162,,,,,,,,,,,,,,,,,,,,,,,,,,,,,,,,,,,,,,,,,,,21658.000000,1692875524.775900,0.000000,0.000000,0.000000,0.000000,0.000000,0.000000
1692875524.805573,0.097063,-0.025652,0.000018,-41.038206,0.001229,-0.000008,0.165600,0.002005,-0.000046,-0.062031,-1.479074,0.010470,-0.005394,1.722393,-0.000653,0.242880,-2.292839,0.000094,-0.857000,0.143772,0.006000,0.005732,0.492227,0.000000,-0.497000,0.208772,-0.007000,-0.009200,-0.000046,0.000138,-1.176286,0.000002,0.000038,11254.000000,1692875524.779084,0.883200,-1.569998,-0.000048,0.057829,0.000153,0.000048,,,,,,,,,
1692875524.805593,,,,,,,,,,,,,,,,,,,,,,,,,,,,,,,,,,,,,,,,,,,21660.000000,1692875524.796200,0.000000,0.000000,0.000000,0.000000,0.000000,0.000000
1692875524.825487,0.177949,-0.025652,0.000018,-41.329257,0.001230,0.000244,0.115920,0.002005,-0.000046,-0.005394,-1.479212,-0.007640,-0.002697,1.722393,-0.000653,0.276000,-2.292839,0.000094,-0.856000,0.144773,0.006000,0.000000,0.492227,-0.002363,-0.495000,0.210773,0.013000,-0.014720,-0.000046,0.000138,-1.248571,0.000002,0.000038,11255.000000,1692875524.799062,0.914743,-1.569998,-0.000048,0.015771,0.000153,0.000048,,,,,,,,,
1692875524.825526,,,,,,,,,,,,,,,,,,,,,,,,,,,,,,,,,,,,,,,,,,,21661.000000,1692875524.813313,0.000000,0.000000,0.000000,0.000000,0.000000,0.000000
1692875524.833020,,,,,,,,,,,,,,,,,,,,,,,,,,,,,,,,,,,,,,,,,,,21662.000000,1692875524.816292,0.000000,0.000000,0.000000,0.000000,0.000000,0.000000
1692875524.838612,,,,,,,,,,,,,,,,,,,,,,,,,,,,,,,,,,,,,,,,,,0.000000,,,,,,,,
1692875524.838619,,,,,,,,,,,,,,,,,,,,,,,,,,,,,,,,,,,,,,,,,,,21663.000000,1692875524.825831,0.000000,0.000000,0.000000,0.000000,0.000000,0.000000
1692875524.838627,-0.048532,-0.025652,0.000018,-41.038206,0.001230,0.000008,0.099360,0.002005,-0.000046,0.024273,-1.479153,-0.009421,-0.002697,1.722393,-0.000653,0.143520,-2.292839,0.001246,-0.856000,0.145364,0.009999,-0.000408,0.491636,-0.002363,-0.493000,0.211364,0.008000,-0.023920,-0.000046,0.000138,-1.136857,0.000002,0.000038,11256.000000,1692875524.819059,0.893714,-1.569998,-0.000048,0.031543,0.000153,0.000048,,,,,,,,,
1692875524.842215,,,,,,,,,,,,,,,,,,,,,,,,,,,,,,,,,,,,,,,,,,,21664.000000,1692875524.835876,0.000000,0.000000,0.000000,0.000000,0.000000,0.000000
1692875524.852178,-0.161772,-0.025268,-0.000105,-40.456104,0.001230,0.000318,0.082800,0.002005,-0.000046,-0.008091,-1.479054,0.019714,-0.008091,1.722393,-0.000653,0.033120,-2.292839,0.003822,-0.861000,0.142364,0.004999,0.002866,0.491636,-0.004727,-0.493000,0.211364,0.003000,0.014720,-0.000046,0.000138,-1.235429,0.000002,0.000038,11257.000000,1692875524.839060,0.941029,-1.569998,-0.000048,-0.036800,0.000153,0.000048,,,,,,,,,
1692875524.858456,,,,,,,,,,,,,,,,,,,,,,,,,,,,,,,,,,,,,,,,,,,21665.000000,1692875524.846223,0.000000,0.000000,0.000000,0.000000,0.000000,0.000000
1692875524.869248,-0.064709,-0.025652,-0.000018,-40.165053,0.001230,0.000008,0.099360,0.002005,-0.000046,0.008091,-1.479193,-0.004770,-0.008091,1.722393,-0.000653,0.220800,-2.292839,0.000094,-0.857000,0.143954,-0.004999,0.002046,0.491045,-0.007090,-0.486000,0.213954,0.010999,-0.007360,-0.000046,0.000138,-1.301143,0.000002,0.000038,11258.000000,1692875524.859062,0.914743,-1.569998,-0.000048,-0.047314,0.000153,0.000048,,,,,,,,,
1692875524.870385,,,,,,,,,,,,,,,,,,,,,,,,,,,,,,,,,,,,,,,,,,,21666.000000,1692875524.856102,0.000000,0.000000,0.000000,0.000000,0.000000,0.000000
1692875524.876852,,,,,,,,,,,,,,,,,,,,,,,,,,,,,,,,,,,,,,,,,,,21667.000000,1692875524.866045,0.000000,0.000000,0.000000,0.000000,0.000000,0.000000
1692875524.892638,,,,,,,,,,,,,,,,,,,,,,,,,,,,,,,,,,,,,,,,,,,21668.000000,1692875524.875793,0.000000,0.000000,0.000000,0.000000,0.000000,0.000000
1692875524.894335,0.048532,-0.025268,-0.000018,-40.165053,0.001230,0.000008,0.104880,0.002005,-0.000046,0.029667,-1.479133,-0.005937,-0.008091,1.722393,-0.000653,0.242880,-2.292839,0.000094,-0.857000,0.142955,0.000000,0.004091,0.491045,-0.007090,-0.488000,0.211955,0.009999,0.001840,-0.000046,0.000138,-1.288000,0.000002,0.000038,11259.000000,1692875524.879063,0.914743,-1.569998,-0.000048,0.047314,0.000153,0.000048,,,,,,,,,
1692875524.896785,,,,,,,,,,,,,,,,,,,,,,,,,,,,,,,,,,,,,,,,,,,21670.000000,1692875524.895850,0.000000,0.000000,0.000000,0.000000,0.000000,0.000000
1692875524.916071,-0.129418,-0.025652,-0.000018,-40.747155,0.001230,0.000237,0.082800,0.002005,-0.000046,-0.045849,-1.479054,0.018783,-0.008091,1.722393,-0.000653,0.209760,-2.292839,0.000261,-0.857000,0.142772,0.010999,0.002046,0.492227,-0.007090,-0.488000,0.210773,0.008999,-0.007360,-0.000046,0.000138,-1.182857,0.000002,0.000038,11260.000000,1692875524.899061,0.914743,-1.569992,0.000048,0.073600,0.000153,0.000048,,,,,,,,,
1692875524.916092,,,,,,,,,,,,,,,,,,,,,,,,,,,,,,,,,,,,,,,,,,,21671.000000,1692875524.905935,0.000000,0.000000,0.000000,0.000000,0.000000,0.000000
1692875524.926550,,,,,,,,,,,,,,,,,,,,,,,,,,,,,,,,,,,,,,,,,,,21672.000000,1692875524.915842,0.000000,0.000000,0.000000,0.000000,0.000000,0.000000
1692875524.933513,0.307367,-0.025652,0.000018,-40.456104,0.001230,0.000008,0.099360,0.002005,-0.000046,0.102486,-1.479212,-0.010708,-0.005394,1.722393,-0.000653,0.253920,-2.292839,0.000094,-0.870000,0.134772,-0.018999,0.000000,0.492227,0.001772,-0.490000,0.209773,0.008000,-0.038640,-0.000046,0.000138,-1.130286,0.000002,0.000038,11261.000000,1692875524.919060,0.972571,-1.569992,0.000048,0.063086,0.000153,0.000048,,,,,,,,,
1692875524.935527,,,,,,,,,,,,,,,,,,,,,,,,,,,,,,,,,,,,,,,,,,,21673.000000,1692875524.926119,0.000000,0.000000,0.000000,0.000000,0.000000,0.000000
1692875524.940274,,,,,,,,,,,,,,,,,,,,,,,,,,,,,,,,,,,,,,,,,,,21674.000000,1692875524.935976,0.000000,0.000000,0.000000,0.000000,0.000000,0.000000
1692875524.943121,,,,,,,,,,,,,,,,,,,,,,,,,,,,,,,,,,,,,,,,,,0.000000,,,,,,,,
1692875524.945583,0.355898,-0.025652,-0.000018,-40.747155,0.001230,0.000008,0.104880,0.002005,-0.000046,-0.075516,-1.479074,0.009441,-0.008091,1.722393,-0.000653,0.055200,-2.292849,-0.005864,-0.861000,0.141364,-0.027000,0.003275,0.491636,-0.003545,-0.492000,0.209363,-0.010999,-0.011040,-0.000046,0.000138,-1.288000,0.000002,0.000038,11262.000000,1692875524.939069,0.909486,-1.569992,0.000048,0.057829,0.000153,0.000048,,,,,,,,,
1692875524.960438,,,,,,,,,,,,,,,,,,,,,,,,,,,,,,,,,,,,,,,,,,,21675.000000,1692875524.946021,0.000000,0.000000,0.000000,0.000000,0.000000,0.000000
1692875524.973977,,,,,,,,,,,,,,,,,,,,,,,,,,,,,,,,,,,,,,,,,,,21676.000000,1692875524.956041,0.000000,0.000000,0.000000,0.000000,0.000000,0.000000
1692875524.976467,0.194126,-0.025652,-0.000018,-41.038206,0.001230,0.000008,0.154560,0.002005,-0.000046,0.013485,-1.479193,-0.003028,-0.002697,1.722393,-0.000653,0.165600,-2.292839,0.000094,-0.865000,0.140773,-0.014999,-0.000408,0.492227,-0.000590,-0.490000,0.210773,0.004000,-0.033120,-0.000046,0.000138,-1.281429,0.000002,0.000038,11263.000000,1692875524.959064,0.941029,-1.569992,0.000048,-0.057829,0.000153,0.000048,,,,,,,,,
1692875524.983485,,,,,,,,,,,,,,,,,,,,,,,,,,,,,,,,,,,,,,,,,,,21677.000000,1692875524.965847,0.000000,0.000000,0.000000,0.000000,0.000000,0.000000
1692875524.990416,,,,,,,,,,,,,,,,,,,,,,,,,,,,,,,,,,,,,,,,,,,21678.000000,1692875524.975842,0.000000,0.000000,0.000000,0.000000,0.000000,0.000000
1692875524.990425,0.436784,-0.026036,-0.000018,-41.038206,0.001230,0.000008,0.038640,0.002005,-0.000046,-0.002697,-1.479133,-0.006432,-0.008091,1.722393,-0.000653,0.198720,-2.292839,0.000094,-0.862000,0.142955,0.000000,0.006958,0.491045,-0.002954,-0.490000,0.210955,-0.001000,-0.011040,-0.000046,0.000138,-1.248571,0.000002,0.000038,11264.000000,1692875524.979064,0.920000,-1.569992,0.000048,0.068343,0.000153,0.000048,,,,,,,,,
1692875524.994752,,,,,,,,,,,,,,,,,,,,,,,,,,,,,,,,,,,,,,,,,,,21679.000000,1692875524.985933,0.000000,0.000000,0.000000,0.000000,0.000000,0.000000
1692875525.021353,,,,,,,,,,,,,,,,,,,,,,,,,,,,,,,,,,,,,,,,,,,21680.000000,1692875524.995950,0.000000,0.000000,0.000000,0.000000,0.000000,0.000000
1692875525.021860,0.727974,-0.025652,-0.000018,-42.493461,0.001230,0.000008,0.082800,0.002005,-0.000046,0.026970,-1.479193,-0.002870,0.000000,1.722393,-0.000653,0.242880,-2.292839,0.000094,-0.864000,0.142364,0.000000,0.009007,0.491636,-0.002363,-0.490000,0.210364,-0.001000,-0.034960,-0.000046,0.000138,-1.327429,0.000002,0.000038,11265.000000,1692875524.999067,0.946286,-1.569992,0.000048,0.094629,0.000153,0.000048,,,,,,,,,
1692875525.028435,,,,,,,,,,,,,,,,,,,,,,,,,,,,,,,,,,,,,,,,,,,21682.000000,1692875525.015998,0.000000,0.000000,0.000000,0.000000,0.000000,0.000000
1692875525.034125,1.876556,-0.026036,0.000561,-41.911359,0.001230,0.000008,0.110400,0.002005,-0.000046,0.005394,-1.479133,-0.005601,-0.002697,1.722393,-0.000653,0.165600,-2.292849,-0.007456,-0.861000,0.143954,0.004000,0.003275,0.491045,0.000590,-0.488000,0.211955,0.004000,0.005520,-0.000046,0.000138,-1.353714,0.000002,0.000038,11266.000000,1692875525.019069,0.914743,-1.569992,0.000048,0.078857,0.000153,0.000048,,,,,,,,,
1692875525.049037,,,,,,,,,,,,,,,,,,,,,,,,,,,,,,,,,,,,,,,,,,,21684.000000,1692875525.035797,0.000000,0.000000,0.000000,0.000000,0.000000,0.000000
1692875525.062192,1.067695,-0.026036,0.001959,-43.075564,0.001230,0.000008,0.044160,0.002005,-0.000046,-0.032364,-1.479094,0.016962,0.000000,1.722393,-0.000653,0.231840,-2.292839,0.000094,-0.865000,0.141955,-0.006000,0.000408,0.491045,-0.005318,-0.488000,0.211955,0.004000,-0.029440,-0.000046,0.000138,-1.301143,0.000002,0.000038,11267.000000,1692875525.039063,0.914743,-1.569992,0.000048,0.047314,0.000153,0.000612,,,,,,,,,
1692875525.070352,,,,,,,,,,,,,,,,,,,,,,,,,,,,,,,,,,,,,,,,,,0.000000,,,,,,,,
1692875525.070361,,,,,,,,,,,,,,,,,,,,,,,,,,,,,,,,,,,,,,,,,,,21685.000000,1692875525.046078,0.000000,0.000000,0.000000,0.000000,0.000000,0.000000
1692875525.083682,,,,,,,,,,,,,,,,,,,,,,,,,,,,,,,,,,,,,,,,,,,21687.000000,1692875525.065948,0.000000,0.000000,0.000000,0.000000,0.000000,0.000000
1692875525.087954,1.051518,-0.025652,-0.000018,-42.493461,0.001230,0.000008,-0.022080,0.002005,-0.000046,0.045849,-1.479212,-0.016943,0.000000,1.722393,-0.000653,0.209760,-2.292839,0.000094,-0.865000,0.141364,-0.006000,0.000408,0.491636,-0.007681,-0.488000,0.211364,0.004000,0.029440,-0.000046,0.000138,-1.255143,0.000002,0.000038,11268.000000,1692875525.059063,0.872686,-1.569992,0.000048,-0.005257,0.000153,0.000048,,,,,,,,,
1692875525.113281,,,,,,,,,,,,,,,,,,,,,,,,,,,,,,,,,,,,,,,,,,,21689.000000,1692875525.086709,0.000000,0.000000,0.000000,0.000000,0.000000,0.000000
1692875525.119817,1.973619,-0.025652,-0.000517,-42.493461,0.001230,0.000008,0.143520,0.002005,-0.000046,-0.094395,-1.479054,0.016844,0.000000,1.722393,-0.000653,0.209760,-2.292839,0.000251,-0.861000,0.143772,0.008999,0.002866,0.492227,0.001181,-0.490000,0.209773,-0.001000,-0.014720,-0.000046,0.000138,-1.228857,0.000002,0.000038,11269.000000,1692875525.079064,0.914743,-1.569992,0.000048,-0.010514,0.000153,0.000048,,,,,,,,,
1692875525.131504,,,,,,,,,,,,,,,,,,,,,,,,,,,,,,,,,,,,,,,,,,,21692.000000,1692875525.115813,0.000000,0.000000,0.000000,0.000000,0.000000,0.000000
1692875525.147496,1.795669,-0.025652,0.000028,-42.202410,0.001230,0.000023,0.055200,0.002005,-0.000046,0.072819,-1.479212,-0.004849,0.000000,1.722393,-0.000653,0.253920,-2.292839,0.000094,-0.861000,0.141955,0.017000,0.001637,0.491045,-0.004136,-0.488000,0.210955,-0.009999,-0.007360,-0.000046,0.000138,-1.360286,0.000002,0.000038,11271.000000,1692875525.119061,0.883200,-1.569992,0.000048,0.078857,0.000153,0.000048,,,,,,,,,
1692875525.162894,,,,,,,,,,,,,,,,,,,,,,,,,,,,,,,,,,,,,,,,,,,21694.000000,1692875525.135916,0.000000,0.000000,0.000000,0.000000,0.000000,0.000000
1692875525.170795,1.666252,-0.025652,0.000018,-41.620308,0.001229,-0.000525,0.099360,0.002005,-0.000046,-0.032364,-1.479133,-0.001860,-0.002697,1.722393,-0.000653,0.209760,-2.292839,0.000094,-0.865000,0.139954,-0.017000,0.002046,0.491045,-0.004136,-0.486000,0.211955,0.008999,0.007360,-0.000046,0.000138,-1.274857,-0.000003,-0.000038,11272.000000,1692875525.139083,1.051429,-1.569992,0.000048,0.084114,0.000153,0.000048,,,,,,,,,
1692875525.182727,,,,,,,,,,,,,,,,,,,,,,,,,,,,,,,,,,,,,,,,,,0.000000,,,,,,,,
1692875525.189208,0.760329,-0.025652,0.000131,-41.329257,0.001229,-0.000403,-0.011040,0.002005,-0.000046,-0.013485,-1.479074,0.018942,0.002697,1.722393,-0.000653,0.242880,-2.292839,0.000094,-0.867000,0.138954,-0.026000,0.000408,0.491045,-0.004136,-0.488000,0.210955,-0.001000,-0.001840,-0.000046,0.000138,-1.334000,-0.000003,-0.000038,11273.000000,1692875525.159060,0.820114,-1.569992,0.000048,0.099886,0.000153,0.000048,,,,,,,,,
1692875525.189226,,,,,,,,,,,,,,,,,,,,,,,,,,,,,,,,,,,,,,,,,,,21697.000000,1692875525.165963,0.000000,0.000000,0.000000,0.000000,0.000000,0.000000
1692875525.214065,,,,,,,,,,,,,,,,,,,,,,,,,,,,,,,,,,,,,,,,,,,21699.000000,1692875525.185951,0.000000,0.000000,0.000000,0.000000,0.000000,0.000000
1692875525.214081,0.388253,-0.025652,-0.001025,-41.329257,0.001230,0.000008,0.093840,0.002005,-0.000046,0.053940,-1.479193,-0.013677,-0.005394,1.722393,-0.000653,0.198720,-2.292849,-0.001151,-0.866000,0.139954,-0.004000,0.000408,0.491045,-0.004136,-0.488000,0.210955,-0.001000,-0.055200,-0.000046,0.000138,-1.012000,-0.000003,-0.000038,11274.000000,1692875525.179064,0.977829,-1.569992,0.000048,-0.021029,0.000153,0.000048,,,,,,,,,
1692875525.233098,,,,,,,,,,,,,,,,,,,,,,,,,,,,,,,,,,,,,,,,,,,21702.000000,1692875525.215931,0.000000,0.000000,0.000000,0.000000,0.000000,0.000000
1692875525.241603,1.423594,-0.025652,-0.000230,-41.329257,0.001230,0.000008,0.033120,0.002005,-0.000046,-0.102486,-1.479054,0.016646,0.000000,1.722393,-0.000653,0.198720,-2.292839,0.000094,-0.864000,0.141955,-0.013000,0.001225,0.491045,-0.004136,-0.488000,0.209954,0.004000,-0.003680,-0.000046,0.000138,-1.222286,-0.000003,-0.000038,11275.000000,1692875525.199065,0.862171,-1.569992,0.000048,0.031543,0.000153,0.000048,,,,,,,,,
1692875525.264097,,,,,,,,,,,,,,,,,,,,,,,,,,,,,,,,,,,,,,,,,,,21704.000000,1692875525.235975,0.000000,0.000000,0.000000,0.000000,0.000000,0.000000
1692875525.266230,0.792683,-0.025652,0.000018,-41.911359,0.001230,0.000008,0.099360,0.002005,-0.000046,-0.107880,-1.479074,0.011875,-0.002697,1.722393,-0.000653,0.132480,-2.292839,0.002911,-0.864000,0.141182,0.002000,0.010644,0.492818,-0.001181,-0.492000,0.209182,-0.004999,-0.029440,-0.000046,0.000138,-1.255143,-0.000003,-0.000038,11277.000000,1692875525.239063,0.920000,-1.569992,0.000048,0.015771,0.000153,0.002673,,,,,,,,,
1692875525.271829,,,,,,,,,,,,,,,,,,,,,,,,,,,,,,,,,,,,,,,,,,,21705.000000,1692875525.245959,0.000000,0.000000,0.000000,0.000000,0.000000,0.000000
1692875525.279010,,,,,,,,,,,,,,,,,,,,,,,,,,,,,,,,,,,,,,,,,,0.000000,,,,,,,,
1692875525.290138,1.682429,-0.025652,0.000018,-42.202410,0.001229,-0.000509,0.060720,0.002005,-0.000046,0.094395,-1.479212,-0.010530,-0.008091,1.722393,-0.000653,0.209760,-2.292839,0.000094,-0.870000,0.136590,-0.017999,0.000408,0.493409,0.007090,-0.492000,0.208591,0.000000,0.007360,-0.000046,0.000138,-1.242000,-0.000003,-0.000038,11278.000000,1692875525.259064,0.893714,-1.569992,0.000048,-0.036800,0.000153,0.000048,,,,,,,,,
1692875525.290376,,,,,,,,,,,,,,,,,,,,,,,,,,,,,,,,,,,,,,,,,,,21707.000000,1692875525.266113,0.000000,0.000000,0.000000,0.000000,0.000000,0.000000
1692875525.293136,,,,,,,,,,,,,,,,,,,,,,,,,,,,,,,,,,,,,,,,,,,21708.000000,1692875525.275842,0.000000,0.000000,0.000000,0.000000,0.000000,0.000000
1692875525.304542,,,,,,,,,,,,,,,,,,,,,,,,,,,,,,,,,,,,,,,,,,,21709.000000,1692875525.285829,0.000000,0.000000,0.000000,0.000000,0.000000,0.000000
1692875525.304549,,,,,,,,,,,,,,,,,,,,,,,,,,,,,,,,,,,,,,,,,,,21710.000000,1692875525.295924,0.000000,0.000000,0.000000,0.000000,0.000000,0.000000
1692875525.304593,1.763315,-0.025652,0.000793,-42.493461,0.001229,-0.000328,0.132480,0.002005,-0.000046,-0.051243,-1.479074,0.008847,-0.005394,1.722393,-0.000653,0.231840,-2.292839,0.000094,-0.866000,0.139591,-0.008000,0.000408,0.493409,0.007090,-0.490000,0.209591,0.004000,-0.005520,-0.000046,0.000138,-1.209143,-0.000003,-0.000038,11279.000000,1692875525.279078,0.893714,-1.569992,0.000048,0.052571,0.000153,0.000048,,,,,,,,,
1692875525.315236,0.210304,-0.025652,0.001431,-42.784513,0.001230,0.000162,0.093840,0.002005,-0.000046,0.048546,-1.479212,-0.009302,-0.005394,1.722393,-0.000653,0.077280,-2.292849,-0.000094,-0.865000,0.140773,-0.003000,0.002866,0.492227,0.004136,-0.486000,0.211772,0.013000,-0.001840,-0.000046,0.000138,-1.156571,-0.000003,-0.000038,11280.000000,1692875525.299065,0.856914,-1.569992,0.000048,0.047314,0.000153,0.000048,,,,,,,,,
1692875525.315343,,,,,,,,,,,,,,,,,,,,,,,,,,,,,,,,,,,,,,,,,,,21711.000000,1692875525.307318,0.000000,0.000000,0.000000,0.000000,0.000000,0.000000
1692875525.324954,,,,,,,,,,,,,,,,,,,,,,,,,,,,,,,,,,,,,,,,,,,21712.000000,1692875525.315865,0.000000,0.000000,0.000000,0.000000,0.000000,0.000000
1692875525.333242,0.647088,-0.025652,0.000018,-42.784513,0.001230,0.000008,0.055200,0.002005,-0.000046,0.008091,-1.479133,-0.005977,-0.002697,1.722393,-0.000653,0.132480,-2.292849,-0.000387,-0.862000,0.141773,-0.003000,0.004503,0.492227,0.001181,-0.486000,0.210773,-0.002000,-0.011040,-0.000046,0.000138,-1.281429,-0.000003,-0.000038,11281.000000,1692875525.319063,0.914743,-1.569992,0.000048,0.005257,0.000153,0.000048,,,,,,,,,
1692875525.336130,,,,,,,,,,,,,,,,,,,,,,,,,,,,,,,,,,,,,,,,,,,21713.000000,1692875525.326437,0.000000,0.000000,0.000000,0.000000,0.000000,0.000000
1692875525.346057,,,,,,,,,,,,,,,,,,,,,,,,,,,,,,,,,,,,,,,,,,,21714.000000,1692875525.336114,0.000000,0.000000,0.000000,0.000000,0.000000,0.000000
1692875525.348176,0.938278,-0.025652,0.000422,-43.075564,0.001230,0.000008,0.055200,0.002005,-0.000046,-0.013485,-1.479074,0.016883,-0.005394,1.722393,-0.000653,0.110400,-2.292849,-0.002062,-0.861000,0.142772,0.006000,0.000000,0.492227,0.001181,-0.490000,0.207772,-0.012000,-0.040480,-0.000046,0.000138,-1.307714,0.000002,0.000038,11282.000000,1692875525.339086,0.941029,-1.569992,0.000048,-0.021029,0.000153,0.000048,,,,,,,,,
1692875525.361736,,,,,,,,,,,,,,,,,,,,,,,,,,,,,,,,,,,,,,,,,,,21715.000000,1692875525.347131,0.000000,0.000000,0.000000,0.000000,0.000000,0.000000
1692875525.368650,,,,,,,,,,,,,,,,,,,,,,,,,,,,,,,,,,,,,,,,,,,21716.000000,1692875525.355884,0.000000,0.000000,0.000000,0.000000,0.000000,0.000000
1692875525.373822,2.442758,-0.025652,-0.000018,-42.202410,0.001230,0.000182,0.121440,0.002005,-0.000046,-0.026970,-1.479113,-0.000653,-0.005394,1.722393,-0.000653,0.231840,-2.292839,0.000094,-0.861000,0.141773,0.006000,0.000817,0.492227,0.001181,-0.490000,0.207772,-0.012000,-0.029440,-0.000046,0.000138,-1.169714,0.000002,0.000038,11283.000000,1692875525.359061,0.914743,-1.569992,0.000048,0.084114,0.000153,0.000048,,,,,,,,,
1692875525.377373,,,,,,,,,,,,,,,,,,,,,,,,,,,,,,,,,,,,,,,,,,,21717.000000,1692875525.365919,0.000000,0.000000,0.000000,0.000000,0.000000,0.000000
1692875525.381316,,,,,,,,,,,,,,,,,,,,,,,,,,,,,,,,,,,,,,,,,,0.000000,,,,,,,,
1692875525.385783,,,,,,,,,,,,,,,,,,,,,,,,,,,,,,,,,,,,,,,,,,,21718.000000,1692875525.375957,0.000000,0.000000,0.000000,0.000000,0.000000,0.000000
1692875525.393070,2.976605,-0.026036,0.000161,-42.784513,0.001230,0.000163,0.055200,0.002005,-0.000046,-0.016182,-1.479094,0.016349,-0.008091,1.722393,-0.000653,0.231840,-2.292839,0.000094,-0.860000,0.141955,0.001000,0.005320,0.491045,-0.001772,-0.488000,0.210955,-0.002000,-0.022080,-0.000046,0.000138,-1.143429,0.000002,0.000038,11284.000000,1692875525.379069,0.820114,-1.569992,0.000048,0.110400,0.000153,0.000048,,,,,,,,,
1692875525.400062,,,,,,,,,,,,,,,,,,,,,,,,,,,,,,,,,,,,,,,,,,,21719.000000,1692875525.386118,0.000000,0.000000,0.000000,0.000000,0.000000,0.000000
1692875525.410583,,,,,,,,,,,,,,,,,,,,,,,,,,,,,,,,,,,,,,,,,,,21720.000000,1692875525.395808,0.000000,0.000000,0.000000,0.000000,0.000000,0.000000
1692875525.419203,2.539821,-0.025652,0.000018,-42.202410,0.001230,0.000293,0.182160,0.002005,-0.000046,0.048546,-1.479212,-0.017992,-0.005394,1.722393,-0.000653,0.187680,-2.292839,0.000094,-0.855000,0.143954,0.006000,0.005732,0.491045,-0.009454,-0.488000,0.210955,-0.002000,-0.049680,-0.000046,0.000138,-1.334000,0.000002,0.000038,11285.000000,1692875525.399063,0.904229,-1.569992,0.000048,0.057829,0.000153,0.000048,,,,,,,,,
1692875525.425595,,,,,,,,,,,,,,,,,,,,,,,,,,,,,,,,,,,,,,,,,,,21722.000000,1692875525.415828,0.000000,0.000000,0.000000,0.000000,0.000000,0.000000
1692875525.428176,2.588352,-0.025652,0.000506,-41.911359,0.001230,0.000437,0.093840,0.002005,-0.000046,-0.091698,-1.479074,0.010747,-0.005394,1.722393,-0.000653,0.099360,-2.292839,0.000356,-0.855000,0.143954,0.009999,0.006958,0.491045,-0.003545,-0.490000,0.208954,-0.010999,-0.023920,-0.000046,0.000138,-1.307714,0.000002,0.000038,11286.000000,1692875525.419061,0.935771,-1.569992,0.000048,0.052571,0.000153,0.000048,,,,,,,,,
1692875525.438271,,,,,,,,,,,,,,,,,,,,,,,,,,,,,,,,,,,,,,,,,,,21723.000000,1692875525.425955,0.000000,0.000000,0.000000,0.000000,0.000000,0.000000
1692875525.450180,,,,,,,,,,,,,,,,,,,,,,,,,,,,,,,,,,,,,,,,,,,21724.000000,1692875525.436171,0.000000,0.000000,0.000000,0.000000,0.000000,0.000000
1692875525.450198,2.588352,-0.025652,0.000018,-40.747155,0.001230,0.000325,0.121440,0.002005,-0.000046,0.040455,-1.479193,-0.002968,0.000000,1.722393,-0.000653,0.242880,-2.292839,0.000094,-0.852000,0.144954,0.008999,0.004503,0.491045,-0.003545,-0.495000,0.205955,-0.019999,-0.044160,-0.000046,0.000138,-1.242000,0.000002,0.000038,11287.000000,1692875525.439064,0.956800,-1.569992,0.000048,0.073600,0.000153,0.000048,,,,,,,,,
1692875525.458249,,,,,,,,,,,,,,,,,,,,,,,,,,,,,,,,,,,,,,,,,,,21725.000000,1692875525.446104,0.000000,0.000000,0.000000,0.000000,0.000000,0.000000
1692875525.472567,0.727974,-0.025268,-0.000531,-39.291899,0.001230,0.000050,0.099360,0.002005,-0.000046,-0.021576,-1.479113,-0.001623,-0.008091,1.722393,-0.000653,0.209760,-2.292839,0.000094,-0.851000,0.145955,0.013000,0.002046,0.491045,-0.003545,-0.493000,0.207955,-0.021999,-0.047840,-0.000046,0.000138,-1.169714,0.000002,0.000038,11288.000000,1692875525.459060,0.983086,-1.569992,0.000048,0.021029,0.000153,0.000048,,,,,,,,,
1692875525.472591,,,,,,,,,,,,,,,,,,,,,,,,,,,,,,,,,,,,,,,,,,,21726.000000,1692875525.456034,0.000000,0.000000,0.000000,0.000000,0.000000,0.000000
1692875525.481005,,,,,,,,,,,,,,,,,,,,,,,,,,,,,,,,,,,,,,,,,,,21728.000000,1692875525.476612,0.000000,0.000000,0.000000,0.000000,0.000000,0.000000
1692875525.489454,,,,,,,,,,,,,,,,,,,,,,,,,,,,,,,,,,,,,,,,,,0.000000,,,,,,,,
1692875525.490365,1.617720,-0.025268,-0.000688,-41.038206,0.001230,0.000008,0.126960,0.002005,-0.000046,0.053940,-1.479193,-0.003543,-0.005394,1.722393,-0.000653,0.231840,-2.292839,0.000094,-0.852000,0.144182,0.013000,0.003275,0.492818,-0.003545,-0.493000,0.208181,-0.006000,-0.016560,-0.000046,0.000138,-1.150000,0.000002,0.000038,11289.000000,1692875525.479067,1.004114,-1.569992,0.000048,-0.042057,0.000153,0.000048,,,,,,,,,
1692875525.493081,,,,,,,,,,,,,,,,,,,,,,,,,,,,,,,,,,,,,,,,,,,21729.000000,1692875525.489972,0.000000,0.000000,0.000000,0.000000,0.000000,0.000000
1692875525.505483,,,,,,,,,,,,,,,,,,,,,,,,,,,,,,,,,,,,,,,,,,,21730.000000,1692875525.495910,0.000000,0.000000,0.000000,0.000000,0.000000,0.000000
1692875525.510031,1.002987,-0.025652,0.000109,-41.329257,0.001230,0.000008,0.220800,0.002005,-0.000046,0.005394,-1.479133,-0.005443,-0.002697,1.722393,-0.000653,0.187680,-2.292839,0.000115,-0.853000,0.143772,0.013000,0.006958,0.492227,0.002363,-0.492000,0.209773,-0.004999,-0.011040,-0.000046,0.000138,-1.202571,0.000002,0.000038,11290.000000,1692875525.499059,0.877943,-1.569992,0.000048,0.005257,0.000153,0.000134,,,,,,,,,
1692875525.514066,,,,,,,,,,,,,,,,,,,,,,,,,,,,,,,,,,,,,,,,,,,21731.000000,1692875525.506271,0.000000,0.000000,0.000000,0.000000,0.000000,0.000000
1692875525.527088,,,,,,,,,,,,,,,,,,,,,,,,,,,,,,,,,,,,,,,,,,,21732.000000,1692875525.515933,0.000000,0.000000,0.000000,0.000000,0.000000,0.000000
1692875525.532605,1.326531,-0.025652,0.000107,-41.038206,0.001230,0.000008,0.126960,0.002005,-0.000046,-0.097092,-1.479193,0.006155,-0.005394,1.722393,-0.000653,0.165600,-2.292849,-0.000764,-0.856000,0.141773,0.008000,0.002454,0.492227,0.002363,-0.493000,0.208772,0.000000,-0.022080,-0.000046,0.000138,-1.156571,0.000002,0.000038,11291.000000,1692875525.519061,0.946286,-1.569992,0.000048,-0.063086,0.000153,0.000048,,,,,,,,,
1692875525.546754,,,,,,,,,,,,,,,,,,,,,,,,,,,,,,,,,,,,,,,,,,,21733.000000,1692875525.525956,0.000000,0.000000,0.000000,0.000000,0.000000,0.000000
1692875525.559247,1.633897,-0.025652,0.000702,-41.911359,0.001230,0.000008,-0.005520,0.002005,-0.000046,0.040455,-1.479173,-0.011222,-0.002697,1.722393,-0.000653,0.198720,-2.292839,0.000094,-0.860000,0.140182,-0.002000,-0.000817,0.492818,-0.000590,-0.497000,0.206182,-0.008999,-0.005520,-0.000046,0.000138,-1.123714,0.000002,0.000038,11292.000000,1692875525.539066,0.930514,-1.569992,0.000048,-0.042057,0.000153,0.000048,,,,,,,,,
1692875525.560820,,,,,,,,,,,,,,,,,,,,,,,,,,,,,,,,,,,,,,,,,,,21734.000000,1692875525.535921,0.000000,0.000000,0.000000,0.000000,0.000000,0.000000
1692875525.562582,,,,,,,,,,,,,,,,,,,,,,,,,,,,,,,,,,,,,,,,,,,21735.000000,1692875525.546206,0.000000,0.000000,0.000000,0.000000,0.000000,0.000000
1692875525.571312,,,,,,,,,,,,,,,,,,,,,,,,,,,,,,,,,,,,,,,,,,,21736.000000,1692875525.555783,0.000000,0.000000,0.000000,0.000000,0.000000,0.000000
1692875525.576159,1.002987,-0.025652,0.000018,-41.038206,0.001230,0.000008,0.099360,0.002005,-0.000046,0.075516,-1.479212,-0.004691,-0.005394,1.722393,-0.000653,0.209760,-2.292839,0.000293,-0.860000,0.139773,-0.009999,0.004912,0.492227,0.002363,-0.495000,0.207772,-0.008999,-0.031280,-0.000046,0.000138,-1.248571,0.000002,0.000038,11293.000000,1692875525.559068,0.972571,-1.569992,0.000048,0.015771,0.000153,0.000048,,,,,,,,,
1692875525.579998,,,,,,,,,,,,,,,,,,,,,,,,,,,,,,,,,,,,,,,,,,,21737.000000,1692875525.566384,0.000000,0.000000,0.000000,0.000000,0.000000,0.000000
1692875525.581356,,,,,,,,,,,,,,,,,,,,,,,,,,,,,,,,,,,,,,,,,,,21738.000000,1692875525.576034,0.000000,0.000000,0.000000,0.000000,0.000000,0.000000
1692875525.592264,1.164759,-0.025652,0.000018,-41.620308,0.001230,0.000008,0.044160,0.002005,-0.000046,0.040455,-1.479193,-0.012509,-0.002697,1.722393,-0.000653,-0.033120,-2.292849,-0.001769,-0.861000,0.140001,0.000000,-0.000408,0.493999,0.004727,-0.500000,0.205001,-0.013000,-0.033120,-0.000046,0.000138,-1.406286,0.000002,0.000038,11294.000000,1692875525.579067,0.925257,-1.569992,0.000048,0.136686,0.000153,0.000048,,,,,,,,,
1692875525.594305,,,,,,,,,,,,,,,,,,,,,,,,,,,,,,,,,,,,,,,,,,,21739.000000,1692875525.586358,0.000000,0.000000,0.000000,0.000000,0.000000,0.000000
1692875525.594849,,,,,,,,,,,,,,,,,,,,,,,,,,,,,,,,,,,,,,,,,,0.000000,,,,,,,,
1692875525.604734,,,,,,,,,,,,,,,,,,,,,,,,,,,,,,,,,,,,,,,,,,,21740.000000,1692875525.595895,0.000000,0.000000,0.000000,0.000000,0.000000,0.000000
1692875525.615823,2.264808,-0.025268,-0.000333,-42.493461,0.001230,0.000008,0.038640,0.002005,-0.000046,-0.059334,-1.479054,0.013221,0.000000,1.722393,-0.000653,0.209760,-2.292839,0.000094,-0.856000,0.143181,0.004000,0.003683,0.492818,0.007090,-0.497000,0.208181,0.002000,-0.018400,-0.000046,0.000138,-1.209143,0.000002,0.000038,11295.000000,1692875525.599062,0.941029,-1.569992,0.000048,0.000000,0.000153,0.000048,,,,,,,,,
1692875525.624134,,,,,,,,,,,,,,,,,,,,,,,,,,,,,,,,,,,,,,,,,,,21741.000000,1692875525.605959,0.000000,0.000000,0.000000,0.000000,0.000000,0.000000
1692875525.626190,,,,,,,,,,,,,,,,,,,,,,,,,,,,,,,,,,,,,,,,,,,21742.000000,1692875525.618021,0.000000,0.000000,0.000000,0.000000,0.000000,0.000000
1692875525.626316,2.070682,-0.025652,0.000240,-42.202410,0.001230,0.000008,0.104880,0.002005,-0.000046,0.016182,-1.479232,-0.014369,0.000000,1.722393,-0.000653,0.088320,-2.292849,-0.006335,-0.861000,0.139182,0.003000,0.002866,0.492818,0.004136,-0.495000,0.210182,0.002000,-0.046000,-0.000046,0.000138,-1.281429,0.000002,0.000038,11296.000000,1692875525.619061,0.962057,-1.569992,0.000048,-0.036800,0.000153,0.000048,,,,,,,,,
1692875525.631086,,,,,,,,,,,,,,,,,,,,,,,,,,,,,,,,,,,,,,,,,,,21743.000000,1692875525.626045,0.000000,0.000000,0.000000,0.000000,0.000000,0.000000
1692875525.642313,,,,,,,,,,,,,,,,,,,,,,,,,,,,,,,,,,,,,,,,,,,21744.000000,1692875525.635829,0.000000,0.000000,0.000000,0.000000,0.000000,0.000000
1692875525.652954,,,,,,,,,,,,,,,,,,,,,,,,,,,,,,,,,,,,,,,,,,,21745.000000,1692875525.646326,0.000000,0.000000,0.000000,0.000000,0.000000,0.000000
1692875525.652990,2.200100,-0.025652,-0.000197,-42.202410,0.001230,0.000008,0.071760,0.002005,-0.000046,-0.043152,-1.479113,-0.000019,-0.005394,1.722393,-0.000653,0.242880,-2.292839,0.000094,-0.861000,0.140182,-0.007000,0.002046,0.492818,0.004136,-0.497000,0.208181,0.010999,0.003680,-0.000046,0.000138,-1.202571,0.000002,0.000038,11297.000000,1692875525.639061,0.862171,-1.569992,0.000048,0.047314,0.000153,0.000048,,,,,,,,,
1692875525.663242,,,,,,,,,,,,,,,,,,,,,,,,,,,,,,,,,,,,,,,,,,,21746.000000,1692875525.655953,0.000000,0.000000,0.000000,0.000000,0.000000,0.000000
1692875525.671567,0.210304,-0.025268,-0.001472,-43.366615,0.001230,0.000008,0.104880,0.002005,-0.000046,0.056637,-1.479212,-0.017160,-0.005394,1.722393,-0.000653,0.253920,-2.292839,0.000094,-0.856000,0.142772,0.003000,0.000817,0.492227,0.001181,-0.493000,0.209773,0.004999,-0.016560,-0.000046,0.000138,-1.248571,0.000002,0.000038,11298.000000,1692875525.659060,0.967314,-1.569992,0.000048,0.005257,0.000153,0.000048,,,,,,,,,
1692875525.680638,,,,,,,,,,,,,,,,,,,,,,,,,,,,,,,,,,,,,,,,,,,21747.000000,1692875525.665952,0.000000,0.000000,0.000000,0.000000,0.000000,0.000000
1692875525.683794,,,,,,,,,,,,,,,,,,,,,,,,,,,,,,,,,,,,,,,,,,,21748.000000,1692875525.676231,0.000000,0.000000,0.000000,0.000000,0.000000,0.000000
1692875525.686086,2.038328,-0.025652,0.000018,-42.784513,0.001230,0.000008,0.011040,0.002005,-0.000046,-0.029667,-1.479074,0.017734,-0.005394,1.722393,-0.000653,0.121440,-2.292839,0.001005,-0.851000,0.145545,-0.002000,0.005732,0.490454,-0.001772,-0.493000,0.210545,0.004999,-0.011040,-0.000046,0.000138,-1.288000,0.000002,0.000038,11299.000000,1692875525.679063,0.930514,-1.569992,0.000048,-0.015771,0.000153,0.000048,,,,,,,,,
1692875525.696329,,,,,,,,,,,,,,,,,,,,,,,,,,,,,,,,,,,,,,,,,,,21749.000000,1692875525.688549,0.000000,0.000000,0.000000,0.000000,0.000000,0.000000
1692875525.702632,,,,,,,,,,,,,,,,,,,,,,,,,,,,,,,,,,,,,,,,,,0.000000,,,,,,,,
1692875525.707880,,,,,,,,,,,,,,,,,,,,,,,,,,,,,,,,,,,,,,,,,,,21750.000000,1692875525.695957,0.000000,0.000000,0.000000,0.000000,0.000000,0.000000
1692875525.707892,1.569189,-0.025268,-0.001165,-43.075564,0.001230,0.000008,0.121440,0.002005,-0.000046,0.107880,-1.479212,-0.009540,-0.005394,1.722393,-0.000653,0.143520,-2.292849,-0.003979,-0.850000,0.146364,0.008000,0.003275,0.491636,-0.004136,-0.500000,0.205364,-0.014000,-0.025760,-0.000046,0.000138,-1.235429,0.000002,0.000038,11300.000000,1692875525.699059,0.904229,-1.569992,0.000048,0.094629,0.000153,0.000048,,,,,,,,,
1692875525.720426,,,,,,,,,,,,,,,,,,,,,,,,,,,,,,,,,,,,,,,,,,,21751.000000,1692875525.708566,0.000000,0.000000,0.000000,0.000000,0.000000,0.000000
1692875525.729875,0.760329,-0.025652,-0.000074,-41.329257,0.001229,-0.000265,0.126960,0.002005,-0.000046,0.005394,-1.479113,0.013954,-0.010788,1.722393,-0.000653,0.099360,-2.292849,-0.007456,-0.850000,0.145773,0.017000,0.000000,0.492227,0.001772,-0.500000,0.206773,-0.008000,0.001840,-0.000046,0.000138,-1.406286,0.000002,0.000038,11301.000000,1692875525.719063,0.956800,-1.569992,0.000048,0.042057,0.000153,0.000048,,,,,,,,,
1692875525.730453,,,,,,,,,,,,,,,,,,,,,,,,,,,,,,,,,,,,,,,,,,,21752.000000,1692875525.716137,0.000000,0.000000,0.000000,0.000000,0.000000,0.000000
1692875525.732824,,,,,,,,,,,,,,,,,,,,,,,,,,,,,,,,,,,,,,,,,,,21753.000000,1692875525.726139,0.000000,0.000000,0.000000,0.000000,0.000000,0.000000
1692875525.743037,,,,,,,,,,,,,,,,,,,,,,,,,,,,,,,,,,,,,,,,,,,21754.000000,1692875525.735928,0.000000,0.000000,0.000000,0.000000,0.000000,0.000000
1692875525.753447,0.113240,-0.025268,-0.001341,-41.329257,0.001230,0.000454,0.110400,0.002005,-0.000046,0.064728,-1.479212,-0.001246,-0.005394,1.722393,-0.000653,0.231840,-2.292839,0.000094,-0.842000,0.150773,0.041000,-0.000408,0.492227,0.001772,-0.497000,0.208772,0.002000,-0.034960,-0.000046,0.000138,-1.156571,0.000002,0.000038,11302.000000,1692875525.739066,0.930514,-1.569992,0.000048,0.036800,0.000153,0.000048,,,,,,,,,
1692875525.760160,,,,,,,,,,,,,,,,,,,,,,,,,,,,,,,,,,,,,,,,,,,21755.000000,1692875525.746048,0.000000,0.000000,0.000000,0.000000,0.000000,0.000000
1692875525.767311,,,,,,,,,,,,,,,,,,,,,,,,,,,,,,,,,,,,,,,,,,,21756.000000,1692875525.756014,0.000000,0.000000,0.000000,0.000000,0.000000,0.000000
1692875525.770632,0.533848,-0.026036,0.000708,-41.329257,0.001230,0.000362,0.060720,0.002005,-0.000046,-0.037758,-1.479074,0.019931,-0.005394,1.722393,-0.000653,0.220800,-2.292839,0.000094,-0.847000,0.145000,0.017999,0.005320,0.493999,0.007090,-0.500000,0.208001,0.006000,0.001840,-0.000046,0.000138,-1.255143,0.000002,0.000038,11303.000000,1692875525.759061,0.898971,-1.569992,0.000048,0.089371,0.000153,0.000048,,,,,,,,,
1692875525.788423,,,,,,,,,,,,,,,,,,,,,,,,,,,,,,,,,,,,,,,,,,,21757.000000,1692875525.766034,0.000000,0.000000,0.000000,0.000000,0.000000,0.000000
1692875525.795388,,,,,,,,,,,,,,,,,,,,,,,,,,,,,,,,,,,,,,,,,,,21758.000000,1692875525.775953,0.000000,0.000000,0.000000,0.000000,0.000000,0.000000
1692875525.798354,-0.129418,-0.025268,0.000018,-41.038206,0.001230,0.000008,0.110400,0.002005,-0.000046,0.056637,-1.479193,-0.013103,-0.008091,1.722393,-0.000653,0.264960,-2.292839,0.000094,-0.847000,0.146772,0.017999,0.005320,0.492227,0.006499,-0.497000,0.210773,0.009999,-0.029440,-0.000046,0.000138,-1.130286,0.000002,0.000038,11304.000000,1692875525.779068,0.867429,-1.569992,0.000048,-0.068343,0.000153,0.000048,,,,,,,,,
1692875525.803629,,,,,,,,,,,,,,,,,,,,,,,,,,,,,,,,,,,,,,,,,,,21759.000000,1692875525.786171,0.000000,0.000000,0.000000,0.000000,0.000000,0.000000
1692875525.806825,,,,,,,,,,,,,,,,,,,,,,,,,,,,,,,,,,,,,,,,,,,21760.000000,1692875525.795981,0.000000,0.000000,0.000000,0.000000,0.000000,0.000000
1692875525.808679,0.388253,-0.025652,-0.000018,-41.329257,0.001230,0.000008,0.082800,0.002005,-0.000046,0.070122,-1.479212,-0.003226,-0.005394,1.722393,-0.000653,0.044160,-2.292849,-0.000911,-0.842000,0.150182,0.037000,0.004912,0.492818,0.005909,-0.497000,0.210182,0.000000,-0.016560,-0.000046,0.000138,-1.182857,0.000002,0.000038,11305.000000,1692875525.799066,0.925257,-1.569992,0.000048,0.005257,0.000153,0.000048,,,,,,,,,
1692875525.812049,,,,,,,,,,,,,,,,,,,,,,,,,,,,,,,,,,,,,,,,,,0.000000,,,,,,,,
1692875525.812058,,,,,,,,,,,,,,,,,,,,,,,,,,,,,,,,,,,,,,,,,,,21761.000000,1692875525.805923,0.000000,0.000000,0.000000,0.000000,0.000000,0.000000
1692875525.820588,,,,,,,,,,,,,,,,,,,,,,,,,,,,,,,,,,,,,,,,,,,21762.000000,1692875525.815911,0.000000,0.000000,0.000000,0.000000,0.000000,0.000000
1692875525.833771,1.002987,-0.025652,-0.000034,-41.911359,0.001230,0.000008,0.187680,0.002005,-0.000046,0.045849,-1.479212,-0.015775,-0.008091,1.722393,-0.000653,0.242880,-2.292839,0.000094,-0.843000,0.146590,0.029999,0.000817,0.493409,0.002954,-0.497000,0.208591,0.009999,-0.038640,-0.000046,0.000138,-1.288000,0.000002,0.000038,11306.000000,1692875525.819067,0.898971,-1.569992,0.000048,0.073600,0.000153,0.000048,,,,,,,,,
1692875525.838324,,,,,,,,,,,,,,,,,,,,,,,,,,,,,,,,,,,,,,,,,,,21763.000000,1692875525.825966,0.000000,0.000000,0.000000,0.000000,0.000000,0.000000
1692875525.847138,,,,,,,,,,,,,,,,,,,,,,,,,,,,,,,,,,,,,,,,,,,21764.000000,1692875525.835742,0.000000,0.000000,0.000000,0.000000,0.000000,0.000000
1692875525.847148,1.423594,-0.025652,0.000018,-42.202410,0.001230,0.000008,0.110400,0.002005,-0.000046,-0.072819,-1.479074,0.009302,-0.005394,1.722393,-0.000653,0.187680,-2.292839,0.000167,-0.847000,0.145000,0.018999,0.002046,0.493999,0.005318,-0.500000,0.208001,0.004999,-0.012880,-0.000046,0.000138,-1.347143,0.000002,0.000038,11307.000000,1692875525.839068,0.962057,-1.569992,0.000048,0.052571,0.000153,0.000048,,,,,,,,,
1692875525.856094,,,,,,,,,,,,,,,,,,,,,,,,,,,,,,,,,,,,,,,,,,,21765.000000,1692875525.847226,0.000000,0.000000,0.000000,0.000000,0.000000,0.000000
1692875525.867467,,,,,,,,,,,,,,,,,,,,,,,,,,,,,,,,,,,,,,,,,,,21766.000000,1692875525.856272,0.000000,0.000000,0.000000,0.000000,0.000000,0.000000
1692875525.867988,0.808860,-0.025652,0.000906,-42.202410,0.001230,0.000008,0.093840,0.002005,-0.000046,-0.037758,-1.479153,0.004275,-0.002697,1.722393,-0.000653,0.066240,-2.292849,-0.000450,-0.850000,0.143001,0.004000,0.002046,0.493999,0.007681,-0.504000,0.206000,0.004999,-0.007360,-0.000046,0.000138,-1.412857,0.000002,0.000038,11308.000000,1692875525.859083,0.788571,-1.569992,0.000048,0.052571,0.000153,0.000048,,,,,,,,,
1692875525.886191,,,,,,,,,,,,,,,,,,,,,,,,,,,,,,,,,,,,,,,,,,,21767.000000,1692875525.866249,0.000000,0.000000,0.000000,0.000000,0.000000,0.000000
1692875525.888726,,,,,,,,,,,,,,,,,,,,,,,,,,,,,,,,,,,,,,,,,,,21768.000000,1692875525.875920,0.000000,0.000000,0.000000,0.000000,0.000000,0.000000
1692875525.890472,0.501493,-0.025652,-0.000018,-42.493461,0.001230,0.000008,0.082800,0.002005,-0.000046,0.026970,-1.479153,-0.008867,-0.008091,1.722393,-0.000653,0.220800,-2.292839,0.000094,-0.848000,0.144773,0.004000,0.005732,0.492227,0.001772,-0.501000,0.207772,-0.004999,-0.020240,-0.000046,0.000138,-1.143429,0.000002,0.000038,11309.000000,1692875525.879069,0.904229,-1.569992,0.000048,0.078857,0.000153,0.000048,,,,,,,,,
1692875525.898302,,,,,,,,,,,,,,,,,,,,,,,,,,,,,,,,,,,,,,,,,,,21769.000000,1692875525.886003,0.000000,0.000000,0.000000,0.000000,0.000000,0.000000
1692875525.906079,,,,,,,,,,,,,,,,,,,,,,,,,,,,,,,,,,,,,,,,,,,21770.000000,1692875525.896768,0.000000,0.000000,0.000000,0.000000,0.000000,0.000000
1692875525.910761,0.032354,-0.025652,-0.000179,-42.202410,0.001230,0.000008,0.088320,0.002005,-0.000046,-0.010788,-1.479094,0.017418,-0.005394,1.722393,-0.000653,0.143520,-2.292839,0.000429,-0.843000,0.146955,0.004000,0.001225,0.491045,-0.003545,-0.501000,0.206955,-0.004999,-0.025760,-0.000046,0.000138,-1.274857,-0.000003,-0.002010,11310.000000,1692875525.899060,0.998857,-1.569992,0.000048,0.068343,0.000153,0.000048,,,,,,,,,
1692875525.918669,,,,,,,,,,,,,,,,,,,,,,,,,,,,,,,,,,,,,,,,,,,21771.000000,1692875525.906769,0.000000,0.000000,0.000000,0.000000,0.000000,0.000000
1692875525.921488,,,,,,,,,,,,,,,,,,,,,,,,,,,,,,,,,,,,,,,,,,0.000000,,,,,,,,
1692875525.934802,-0.129418,-0.025268,-0.000018,-41.620308,0.001230,0.000552,0.071760,0.002005,-0.000046,-0.075516,-1.479153,0.011935,-0.002697,1.722393,-0.000653,-0.022080,-2.292839,0.004324,-0.843000,0.146364,0.003000,0.001637,0.491636,-0.008272,-0.499000,0.209363,-0.014000,-0.022080,-0.000046,0.000138,-1.248571,-0.000003,-0.000038,11311.000000,1692875525.919067,0.804343,-1.569992,0.000048,0.026286,0.000153,0.000048,,,,,,,,,
1692875525.935023,,,,,,,,,,,,,,,,,,,,,,,,,,,,,,,,,,,,,,,,,,,21772.000000,1692875525.915851,0.000000,0.000000,0.000000,0.000000,0.000000,0.000000
1692875525.939340,,,,,,,,,,,,,,,,,,,,,,,,,,,,,,,,,,,,,,,,,,,21773.000000,1692875525.926099,0.000000,0.000000,0.000000,0.000000,0.000000,0.000000
1692875525.944732,,,,,,,,,,,,,,,,,,,,,,,,,,,,,,,,,,,,,,,,,,,21774.000000,1692875525.935835,0.000000,0.000000,0.000000,0.000000,0.000000,0.000000
1692875525.948730,-0.242658,-0.025268,-0.000785,-42.493461,0.001229,-0.000175,0.115920,0.002005,-0.000046,0.040455,-1.479212,-0.016507,-0.008091,1.722393,-0.000653,0.242880,-2.292839,0.000094,-0.851000,0.141182,0.002000,0.002454,0.492818,0.000590,-0.499000,0.209182,0.009999,-0.018400,-0.000046,0.000138,-1.248571,-0.000003,-0.000038,11312.000000,1692875525.939062,0.898971,-1.569992,0.000048,0.026286,0.000153,0.000048,,,,,,,,,
