__time,/hsrb/wrist_wrench/compensated/header/seq,/hsrb/wrist_wrench/compensated/header/stamp,/hsrb/wrist_wrench/compensated/wrench/force/x,/hsrb/wrist_wrench/compensated/wrench/force/y,/hsrb/wrist_wrench/compensated/wrench/force/z,/hsrb/wrist_wrench/compensated/wrench/torque/x,/hsrb/wrist_wrench/compensated/wrench/torque/y,/hsrb/wrist_wrench/compensated/wrench/torque/z,/rosout/header/seq,/rosout/header/stamp,/rosout/level,/rosout/line,/rosout_agg/header/seq,/rosout_agg/header/stamp,/rosout_agg/level,/rosout_agg/line
1697105439.770101,,,,,,,,,538.000000,1697105439.769853,2.000000,30.000000,,,,
1697105439.782617,,,,,,,,,539.000000,1697105439.782119,2.000000,30.000000,,,,
1697105439.784099,,,,,,,,,,,,,1522.000000,1697105439.769853,2.000000,30.000000
1697105439.806386,,,,,,,,,,,,,1523.000000,1697105439.782119,2.000000,30.000000
1697105439.806820,,,,,,,,,540.000000,1697105439.806563,2.000000,30.000000,,,,
1697105439.817626,,,,,,,,,,,,,1524.000000,1697105439.806563,2.000000,30.000000
1697105439.820036,,,,,,,,,541.000000,1697105439.819746,2.000000,30.000000,,,,
1697105439.829185,,,,,,,,,,,,,1525.000000,1697105439.819746,2.000000,30.000000
1697105439.838354,,,,,,,,,542.000000,1697105439.838201,2.000000,209.000000,,,,
1697105439.865846,,,,,,,,,543.000000,1697105439.865576,2.000000,30.000000,,,,
1697105439.867423,,,,,,,,,,,,,1526.000000,1697105439.838201,2.000000,209.000000
1697105439.877096,,,,,,,,,,,,,1527.000000,1697105439.865576,2.000000,30.000000
1697105439.877451,,,,,,,,,544.000000,1697105439.877292,4.000000,34.000000,,,,
1697105439.888556,,,,,,,,,,,,,1528.000000,1697105439.877292,4.000000,34.000000
1697105439.890667,,,,,,,,,545.000000,1697105439.890471,4.000000,34.000000,,,,
1697105439.910012,,,,,,,,,,,,,1529.000000,1697105439.890471,4.000000,34.000000
1697105441.983111,,,,,,,,,546.000000,1697105441.982805,2.000000,30.000000,,,,
1697105442.024054,,,,,,,,,,,,,1530.000000,1697105441.982805,2.000000,30.000000
1697105442.024668,,,,,,,,,547.000000,1697105442.024367,2.000000,30.000000,,,,
1697105442.047791,,,,,,,,,,,,,1531.000000,1697105442.024367,2.000000,30.000000
1697105442.048704,,,,,,,,,548.000000,1697105442.048243,2.000000,30.000000,,,,
1697105442.070113,,,,,,,,,549.000000,1697105442.069803,2.000000,30.000000,,,,
1697105442.070680,,,,,,,,,,,,,1532.000000,1697105442.048243,2.000000,30.000000
1697105442.082140,,,,,,,,,,,,,1533.000000,1697105442.069803,2.000000,30.000000
1697105442.084212,,,,,,,,,550.000000,1697105442.083219,2.000000,30.000000,,,,
1697105442.102104,,,,,,,,,,,,,1534.000000,1697105442.083219,2.000000,30.000000
1697105442.144834,,,,,,,,,551.000000,1697105442.144586,2.000000,30.000000,,,,
1697105442.162401,,,,,,,,,,,,,1535.000000,1697105442.144586,2.000000,30.000000
1697105442.163283,,,,,,,,,552.000000,1697105442.163028,2.000000,30.000000,,,,
1697105442.177824,,,,,,,,,,,,,1536.000000,1697105442.163028,2.000000,30.000000
1697105442.178251,,,,,,,,,553.000000,1697105442.177958,2.000000,30.000000,,,,
1697105442.200979,,,,,,,,,,,,,1537.000000,1697105442.177958,2.000000,30.000000
1697105442.201689,,,,,,,,,554.000000,1697105442.201515,2.000000,30.000000,,,,
1697105442.223318,,,,,,,,,,,,,1538.000000,1697105442.201515,2.000000,30.000000
1697105442.331119,,,,,,,,,555.000000,1697105442.330876,2.000000,30.000000,,,,
1697105442.340432,,,,,,,,,,,,,1539.000000,1697105442.330876,2.000000,30.000000
1697105442.340811,,,,,,,,,556.000000,1697105442.340597,2.000000,30.000000,,,,
1697105442.355367,,,,,,,,,,,,,1540.000000,1697105442.340597,2.000000,30.000000
1697105442.356473,,,,,,,,,557.000000,1697105442.355690,2.000000,30.000000,,,,
1697105442.373677,,,,,,,,,,,,,1541.000000,1697105442.355690,2.000000,30.000000
1697105442.376433,,,,,,,,,558.000000,1697105442.375625,2.000000,30.000000,,,,
1697105442.394192,,,,,,,,,,,,,1542.000000,1697105442.375625,2.000000,30.000000
1697105442.394830,,,,,,,,,559.000000,1697105442.394412,2.000000,30.000000,,,,
1697105442.418158,,,,,,,,,,,,,1543.000000,1697105442.394412,2.000000,30.000000
1697105442.749274,,,,,,,,,560.000000,1697105442.748597,2.000000,30.000000,,,,
1697105442.774637,,,,,,,,,561.000000,1697105442.774094,2.000000,30.000000,,,,
1697105442.775893,,,,,,,,,,,,,1544.000000,1697105442.748597,2.000000,30.000000
1697105442.793612,,,,,,,,,,,,,1545.000000,1697105442.774094,2.000000,30.000000
1697105442.802456,,,,,,,,,562.000000,1697105442.802033,2.000000,30.000000,,,,
1697105442.822574,,,,,,,,,,,,,1546.000000,1697105442.802033,2.000000,30.000000
1697105443.266671,,,,,,,,,563.000000,1697105443.266318,2.000000,30.000000,,,,
1697105443.289801,,,,,,,,,,,,,1547.000000,1697105443.266318,2.000000,30.000000
1697105443.290209,,,,,,,,,564.000000,1697105443.289905,2.000000,30.000000,,,,
1697105443.304339,,,,,,,,,,,,,1548.000000,1697105443.289905,2.000000,30.000000
1697105443.318118,,,,,,,,,28.000000,1697105443.306613,4.000000,357.000000,,,,
1697105443.318203,,,,,,,,,,,,,1549.000000,1697105443.306613,4.000000,357.000000
1697105443.320450,,,,,,,,,565.000000,1697105443.320103,2.000000,30.000000,,,,
1697105443.341876,,,,,,,,,,,,,1550.000000,1697105443.320103,2.000000,30.000000
1697105443.341957,,,,,,,,,29.000000,1697105443.327948,4.000000,82.000000,,,,
1697105443.342052,,,,,,,,,,,,,1551.000000,1697105443.327948,4.000000,82.000000
1697105443.342422,,,,,,,,,566.000000,1697105443.342180,2.000000,30.000000,,,,
1697105443.372865,,,,,,,,,,,,,1552.000000,1697105443.342180,2.000000,30.000000
1697105444.189483,,,,,,,,,567.000000,1697105444.189224,2.000000,30.000000,,,,
1697105444.208479,,,,,,,,,,,,,1553.000000,1697105444.189224,2.000000,30.000000
1697105444.228875,,,,,,,,,568.000000,1697105444.228488,2.000000,30.000000,,,,
1697105444.257670,,,,,,,,,,,,,1554.000000,1697105444.228488,2.000000,30.000000
1697105444.258352,,,,,,,,,569.000000,1697105444.258172,4.000000,34.000000,,,,
1697105444.275453,,,,,,,,,,,,,1555.000000,1697105444.258172,4.000000,34.000000
1697105444.277431,,,,,,,,,570.000000,1697105444.276976,4.000000,34.000000,,,,
1697105444.297418,,,,,,,,,,,,,1556.000000,1697105444.276976,4.000000,34.000000
1697105444.298025,,,,,,,,,571.000000,1697105444.297850,4.000000,34.000000,,,,
1697105444.330362,,,,,,,,,572.000000,1697105444.329950,4.000000,34.000000,,,,
1697105444.330476,,,,,,,,,,,,,1557.000000,1697105444.297850,4.000000,34.000000
1697105444.366781,,,,,,,,,,,,,1558.000000,1697105444.329950,4.000000,34.000000
1697105444.367297,,,,,,,,,573.000000,1697105444.366510,2.000000,30.000000,,,,
1697105444.391081,,,,,,,,,,,,,1559.000000,1697105444.366510,2.000000,30.000000
1697105444.392734,,,,,,,,,574.000000,1697105444.391214,4.000000,34.000000,,,,
1697105444.409810,,,,,,,,,,,,,1560.000000,1697105444.391214,4.000000,34.000000
1697105446.417412,,,,,,,,,575.000000,1697105446.417084,2.000000,30.000000,,,,
1697105446.437284,,,,,,,,,,,,,1561.000000,1697105446.417084,2.000000,30.000000
1697105446.437920,,,,,,,,,576.000000,1697105446.437433,2.000000,30.000000,,,,
1697105446.456254,,,,,,,,,,,,,1562.000000,1697105446.437433,2.000000,30.000000
1697105446.456619,,,,,,,,,577.000000,1697105446.456406,2.000000,30.000000,,,,
1697105446.472182,,,,,,,,,,,,,1563.000000,1697105446.456406,2.000000,30.000000
1697105446.472474,,,,,,,,,578.000000,1697105446.472325,2.000000,30.000000,,,,
1697105446.488994,,,,,,,,,,,,,1564.000000,1697105446.472325,2.000000,30.000000
1697105446.491720,,,,,,,,,579.000000,1697105446.491094,2.000000,30.000000,,,,
1697105446.514485,,,,,,,,,,,,,1565.000000,1697105446.491094,2.000000,30.000000
1697105446.518849,,,,,,,,,580.000000,1697105446.518447,2.000000,30.000000,,,,
1697105446.540207,,,,,,,,,,,,,1566.000000,1697105446.518447,2.000000,30.000000
1697105446.541013,,,,,,,,,581.000000,1697105446.540660,4.000000,34.000000,,,,
1697105446.560519,,,,,,,,,,,,,1567.000000,1697105446.540660,4.000000,34.000000
1697105446.578245,,,,,,,,,582.000000,1697105446.576750,4.000000,34.000000,,,,
1697105446.633381,,,,,,,,,,,,,1568.000000,1697105446.576750,4.000000,34.000000
1697105558.838374,224850.000000,1697105558.823400,0.000000,0.000000,0.000000,0.000000,0.000000,0.000000,,,,,,,,
1697105558.847819,224851.000000,1697105558.833447,0.000000,0.000000,0.000000,0.000000,0.000000,0.000000,,,,,,,,
1697105558.869176,224852.000000,1697105558.843693,0.000000,0.000000,0.000000,0.000000,0.000000,0.000000,,,,,,,,
1697105558.871707,224854.000000,1697105558.863343,0.000000,0.000000,0.000000,0.000000,0.000000,0.000000,,,,,,,,
1697105558.888567,224855.000000,1697105558.873445,0.000000,0.000000,0.000000,0.000000,0.000000,0.000000,,,,,,,,
1697105558.901758,224856.000000,1697105558.883626,0.000000,0.000000,0.000000,0.000000,0.000000,0.000000,,,,,,,,
1697105558.902990,224857.000000,1697105558.893515,0.000000,0.000000,0.000000,0.000000,0.000000,0.000000,,,,,,,,
1697105558.913491,224858.000000,1697105558.903453,0.000000,0.000000,0.000000,0.000000,0.000000,0.000000,,,,,,,,
1697105558.926389,224859.000000,1697105558.913615,0.000000,0.000000,0.000000,0.000000,0.000000,0.000000,,,,,,,,
1697105558.936252,224860.000000,1697105558.923684,0.000000,0.000000,0.000000,0.000000,0.000000,0.000000,,,,,,,,
1697105558.954977,224861.000000,1697105558.933414,0.000000,0.000000,0.000000,0.000000,0.000000,0.000000,,,,,,,,
1697105558.963947,224863.000000,1697105558.953601,0.000000,0.000000,0.000000,0.000000,0.000000,0.000000,,,,,,,,
1697105558.974069,224864.000000,1697105558.963587,0.000000,0.000000,0.000000,0.000000,0.000000,0.000000,,,,,,,,
1697105558.983684,224865.000000,1697105558.973438,0.000000,0.000000,0.000000,0.000000,0.000000,0.000000,,,,,,,,
1697105558.994519,224866.000000,1697105558.983570,0.000000,0.000000,0.000000,0.000000,0.000000,0.000000,,,,,,,,
1697105559.006972,224867.000000,1697105558.993371,0.000000,0.000000,0.000000,0.000000,0.000000,0.000000,,,,,,,,
1697105559.020208,224868.000000,1697105559.003423,0.000000,0.000000,0.000000,0.000000,0.000000,0.000000,,,,,,,,
1697105559.029549,224869.000000,1697105559.013460,0.000000,0.000000,0.000000,0.000000,0.000000,0.000000,,,,,,,,
1697105559.037362,224870.000000,1697105559.023574,0.000000,0.000000,0.000000,0.000000,0.000000,0.000000,,,,,,,,
1697105559.051392,224871.000000,1697105559.034150,0.000000,0.000000,0.000000,0.000000,0.000000,0.000000,,,,,,,,
1697105559.058879,224872.000000,1697105559.043420,0.000000,0.000000,0.000000,0.000000,0.000000,0.000000,,,,,,,,
1697105559.070073,224873.000000,1697105559.053596,0.000000,0.000000,0.000000,0.000000,0.000000,0.000000,,,,,,,,
1697105559.079226,224874.000000,1697105559.063457,0.000000,0.000000,0.000000,0.000000,0.000000,0.000000,,,,,,,,
1697105559.086750,224875.000000,1697105559.073452,0.000000,0.000000,0.000000,0.000000,0.000000,0.000000,,,,,,,,
1697105559.096782,224876.000000,1697105559.083758,0.000000,0.000000,0.000000,0.000000,0.000000,0.000000,,,,,,,,
1697105559.106452,224877.000000,1697105559.093578,0.000000,0.000000,0.000000,0.000000,0.000000,0.000000,,,,,,,,
1697105559.119948,224878.000000,1697105559.106121,0.000000,0.000000,0.000000,0.000000,0.000000,0.000000,,,,,,,,
1697105559.127679,224879.000000,1697105559.113366,0.000000,0.000000,0.000000,0.000000,0.000000,0.000000,,,,,,,,
1697105559.137147,224880.000000,1697105559.123629,0.000000,0.000000,0.000000,0.000000,0.000000,0.000000,,,,,,,,
1697105559.146304,224881.000000,1697105559.133629,0.000000,0.000000,0.000000,0.000000,0.000000,0.000000,,,,,,,,
1697105559.160668,224882.000000,1697105559.143438,0.000000,0.000000,0.000000,0.000000,0.000000,0.000000,,,,,,,,
1697105559.170927,224883.000000,1697105559.154561,0.000000,0.000000,0.000000,0.000000,0.000000,0.000000,,,,,,,,
1697105559.182142,224884.000000,1697105559.163741,0.000000,0.000000,0.000000,0.000000,0.000000,0.000000,,,,,,,,
1697105559.193010,224885.000000,1697105559.173462,0.000000,0.000000,0.000000,0.000000,0.000000,0.000000,,,,,,,,
1697105559.196201,224886.000000,1697105559.185831,0.000000,0.000000,0.000000,0.000000,0.000000,0.000000,,,,,,,,
1697105559.204150,224887.000000,1697105559.194206,0.000000,0.000000,0.000000,0.000000,0.000000,0.000000,,,,,,,,
1697105559.215410,224888.000000,1697105559.203457,0.000000,0.000000,0.000000,0.000000,0.000000,0.000000,,,,,,,,
1697105559.230173,224889.000000,1697105559.219586,0.000000,0.000000,0.000000,0.000000,0.000000,0.000000,,,,,,,,
1697105559.242859,224890.000000,1697105559.223845,0.000000,0.000000,0.000000,0.000000,0.000000,0.000000,,,,,,,,
1697105559.264865,224892.000000,1697105559.243457,0.000000,0.000000,0.000000,0.000000,0.000000,0.000000,,,,,,,,
1697105559.278173,224894.000000,1697105559.263574,0.000000,0.000000,0.000000,0.000000,0.000000,0.000000,,,,,,,,
1697105559.288251,224895.000000,1697105559.273435,0.000000,0.000000,0.000000,0.000000,0.000000,0.000000,,,,,,,,
1697105559.302064,224896.000000,1697105559.283661,0.000000,0.000000,0.000000,0.000000,0.000000,0.000000,,,,,,,,
1697105559.316970,224897.000000,1697105559.293602,0.000000,0.000000,0.000000,0.000000,0.000000,0.000000,,,,,,,,
1697105559.328046,224899.000000,1697105559.313446,0.000000,0.000000,0.000000,0.000000,0.000000,0.000000,,,,,,,,
1697105559.341518,224900.000000,1697105559.323494,0.000000,0.000000,0.000000,0.000000,0.000000,0.000000,,,,,,,,
1697105559.355492,224901.000000,1697105559.333658,0.000000,0.000000,0.000000,0.000000,0.000000,0.000000,,,,,,,,
1697105559.366236,224903.000000,1697105559.353894,0.000000,0.000000,0.000000,0.000000,0.000000,0.000000,,,,,,,,
1697105559.376708,224904.000000,1697105559.363878,0.000000,0.000000,0.000000,0.000000,0.000000,0.000000,,,,,,,,
1697105559.391168,224905.000000,1697105559.377231,0.000000,0.000000,0.000000,0.000000,0.000000,0.000000,,,,,,,,
1697105559.405383,224906.000000,1697105559.384530,0.000000,0.000000,0.000000,0.000000,0.000000,0.000000,,,,,,,,
1697105559.413239,224908.000000,1697105559.403667,0.000000,0.000000,0.000000,0.000000,0.000000,0.000000,,,,,,,,
1697105559.428237,224909.000000,1697105559.416281,0.000000,0.000000,0.000000,0.000000,0.000000,0.000000,,,,,,,,
1697105559.442273,224910.000000,1697105559.423435,0.000000,0.000000,0.000000,0.000000,0.000000,0.000000,,,,,,,,
1697105559.453175,224911.000000,1697105559.433658,0.000000,0.000000,0.000000,0.000000,0.000000,0.000000,,,,,,,,
1697105559.459985,224912.000000,1697105559.443792,0.000000,0.000000,0.000000,0.000000,0.000000,0.000000,,,,,,,,
1697105559.472154,224913.000000,1697105559.454473,0.000000,0.000000,0.000000,0.000000,0.000000,0.000000,,,,,,,,
1697105559.481251,224914.000000,1697105559.464273,0.000000,0.000000,0.000000,0.000000,0.000000,0.000000,,,,,,,,
1697105559.494033,224915.000000,1697105559.473623,0.000000,0.000000,0.000000,0.000000,0.000000,0.000000,,,,,,,,
1697105559.504639,224916.000000,1697105559.484204,0.000000,0.000000,0.000000,0.000000,0.000000,0.000000,,,,,,,,
1697105559.513776,224917.000000,1697105559.493640,0.000000,0.000000,0.000000,0.000000,0.000000,0.000000,,,,,,,,
1697105559.515772,224918.000000,1697105559.503696,0.000000,0.000000,0.000000,0.000000,0.000000,0.000000,,,,,,,,
1697105559.524303,224919.000000,1697105559.513321,0.000000,0.000000,0.000000,0.000000,0.000000,0.000000,,,,,,,,
1697105559.533470,224920.000000,1697105559.523943,0.000000,0.000000,0.000000,0.000000,0.000000,0.000000,,,,,,,,
1697105559.543776,224921.000000,1697105559.535542,0.000000,0.000000,0.000000,0.000000,0.000000,0.000000,,,,,,,,
1697105559.555215,224922.000000,1697105559.543594,0.000000,0.000000,0.000000,0.000000,0.000000,0.000000,,,,,,,,
1697105559.566231,224923.000000,1697105559.553446,0.000000,0.000000,0.000000,0.000000,0.000000,0.000000,,,,,,,,
1697105559.579590,224924.000000,1697105559.563567,0.000000,0.000000,0.000000,0.000000,0.000000,0.000000,,,,,,,,
1697105559.587914,224925.000000,1697105559.573560,0.000000,0.000000,0.000000,0.000000,0.000000,0.000000,,,,,,,,
1697105559.595606,224926.000000,1697105559.583349,0.000000,0.000000,0.000000,0.000000,0.000000,0.000000,,,,,,,,
1697105559.606860,224927.000000,1697105559.593702,0.000000,0.000000,0.000000,0.000000,0.000000,0.000000,,,,,,,,
1697105559.618038,224928.000000,1697105559.603450,0.000000,0.000000,0.000000,0.000000,0.000000,0.000000,,,,,,,,
1697105559.628240,224929.000000,1697105559.613593,0.000000,0.000000,0.000000,0.000000,0.000000,0.000000,,,,,,,,
1697105559.642174,224930.000000,1697105559.623569,0.000000,0.000000,0.000000,0.000000,0.000000,0.000000,,,,,,,,
1697105559.654320,224932.000000,1697105559.643569,0.000000,0.000000,0.000000,0.000000,0.000000,0.000000,,,,,,,,
1697105559.668877,224933.000000,1697105559.653444,0.000000,0.000000,0.000000,0.000000,0.000000,0.000000,,,,,,,,
1697105559.675735,224934.000000,1697105559.663445,0.000000,0.000000,0.000000,0.000000,0.000000,0.000000,,,,,,,,
1697105559.691334,224935.000000,1697105559.673692,0.000000,0.000000,0.000000,0.000000,0.000000,0.000000,,,,,,,,
1697105559.698643,224936.000000,1697105559.683573,0.000000,0.000000,0.000000,0.000000,0.000000,0.000000,,,,,,,,
1697105559.714372,224937.000000,1697105559.693440,0.000000,0.000000,0.000000,0.000000,0.000000,0.000000,,,,,,,,
1697105559.718519,224938.000000,1697105559.703572,0.000000,0.000000,0.000000,0.000000,0.000000,0.000000,,,,,,,,
1697105559.727820,224939.000000,1697105559.713567,0.000000,0.000000,0.000000,0.000000,0.000000,0.000000,,,,,,,,
1697105559.732911,224940.000000,1697105559.723345,0.000000,0.000000,0.000000,0.000000,0.000000,0.000000,,,,,,,,
1697105559.753570,224941.000000,1697105559.733387,0.000000,0.000000,0.000000,0.000000,0.000000,0.000000,,,,,,,,
1697105559.763600,224943.000000,1697105559.753572,0.000000,0.000000,0.000000,0.000000,0.000000,0.000000,,,,,,,,
1697105559.774375,224944.000000,1697105559.763580,0.000000,0.000000,0.000000,0.000000,0.000000,0.000000,,,,,,,,
1697105559.785694,224945.000000,1697105559.775323,0.000000,0.000000,0.000000,0.000000,0.000000,0.000000,,,,,,,,
1697105559.791732,224946.000000,1697105559.783581,0.000000,0.000000,0.000000,0.000000,0.000000,0.000000,,,,,,,,
1697105559.802936,224947.000000,1697105559.793594,0.000000,0.000000,0.000000,0.000000,0.000000,0.000000,,,,,,,,
1697105559.813403,224948.000000,1697105559.803711,0.000000,0.000000,0.000000,0.000000,0.000000,0.000000,,,,,,,,
1697105559.824183,224949.000000,1697105559.813990,0.000000,0.000000,0.000000,0.000000,0.000000,0.000000,,,,,,,,
1697105559.840237,224950.000000,1697105559.824218,0.000000,0.000000,0.000000,0.000000,0.000000,0.000000,,,,,,,,
1697105559.846996,224951.000000,1697105559.833565,0.000000,0.000000,0.000000,0.000000,0.000000,0.000000,,,,,,,,
1697105559.854349,224952.000000,1697105559.843363,0.000000,0.000000,0.000000,0.000000,0.000000,0.000000,,,,,,,,
1697105559.864280,224953.000000,1697105559.853935,0.000000,0.000000,0.000000,0.000000,0.000000,0.000000,,,,,,,,
1697105559.877550,224954.000000,1697105559.864100,0.000000,0.000000,0.000000,0.000000,0.000000,0.000000,,,,,,,,
1697105559.890571,224955.000000,1697105559.873614,0.000000,0.000000,0.000000,0.000000,0.000000,0.000000,,,,,,,,
1697105559.895425,224956.000000,1697105559.883692,0.000000,0.000000,0.000000,0.000000,0.000000,0.000000,,,,,,,,
1697105559.904888,224957.000000,1697105559.893570,0.000000,0.000000,0.000000,0.000000,0.000000,0.000000,,,,,,,,
1697105559.915721,224958.000000,1697105559.903435,0.000000,0.000000,0.000000,0.000000,0.000000,0.000000,,,,,,,,
1697105559.925673,224959.000000,1697105559.913361,0.000000,0.000000,0.000000,0.000000,0.000000,0.000000,,,,,,,,
1697105559.936964,224960.000000,1697105559.923579,0.000000,0.000000,0.000000,0.000000,0.000000,0.000000,,,,,,,,
1697105559.947417,224961.000000,1697105559.933445,0.000000,0.000000,0.000000,0.000000,0.000000,0.000000,,,,,,,,
1697105559.955471,224962.000000,1697105559.943432,0.000000,0.000000,0.000000,0.000000,0.000000,0.000000,,,,,,,,
1697105559.964366,224963.000000,1697105559.953707,0.000000,0.000000,0.000000,0.000000,0.000000,0.000000,,,,,,,,
1697105559.975525,224964.000000,1697105559.963714,0.000000,0.000000,0.000000,0.000000,0.000000,0.000000,,,,,,,,
1697105559.989120,224965.000000,1697105559.973569,0.000000,0.000000,0.000000,0.000000,0.000000,0.000000,,,,,,,,
1697105559.997798,224966.000000,1697105559.983591,0.000000,0.000000,0.000000,0.000000,0.000000,0.000000,,,,,,,,
1697105560.006341,224967.000000,1697105559.993557,0.000000,0.000000,0.000000,0.000000,0.000000,0.000000,,,,,,,,
1697105560.024128,224968.000000,1697105560.003438,0.000000,0.000000,0.000000,0.000000,0.000000,0.000000,,,,,,,,
1697105560.036812,224970.000000,1697105560.023584,0.000000,0.000000,0.000000,0.000000,0.000000,0.000000,,,,,,,,
1697105560.045308,224971.000000,1697105560.033336,0.000000,0.000000,0.000000,0.000000,0.000000,0.000000,,,,,,,,
1697105560.057556,224972.000000,1697105560.043435,0.000000,0.000000,0.000000,0.000000,0.000000,0.000000,,,,,,,,
1697105560.068855,224973.000000,1697105560.053483,0.000000,0.000000,0.000000,0.000000,0.000000,0.000000,,,,,,,,
1697105560.082459,224974.000000,1697105560.063592,0.000000,0.000000,0.000000,0.000000,0.000000,0.000000,,,,,,,,
1697105560.093207,224975.000000,1697105560.074809,0.000000,0.000000,0.000000,0.000000,0.000000,0.000000,,,,,,,,
1697105560.099167,224976.000000,1697105560.083667,0.000000,0.000000,0.000000,0.000000,0.000000,0.000000,,,,,,,,
1697105560.109150,224977.000000,1697105560.094434,0.000000,0.000000,0.000000,0.000000,0.000000,0.000000,,,,,,,,
1697105560.119616,224978.000000,1697105560.103332,-0.000197,0.000145,-0.000003,-0.000004,0.000001,-0.000000,,,,,,,,
1697105560.128955,224979.000000,1697105560.113635,-0.000927,0.000675,-0.000021,-0.000020,0.000004,-0.000001,,,,,,,,
1697105560.134284,224980.000000,1697105560.123571,0.000000,0.000000,0.000000,0.000000,0.000000,0.000000,,,,,,,,
1697105560.148746,224981.000000,1697105560.133459,0.000000,0.000000,0.000000,0.000000,0.000000,0.000000,,,,,,,,
1697105560.156752,224982.000000,1697105560.143461,0.000000,0.000000,0.000000,0.000000,0.000000,0.000000,,,,,,,,
1697105560.171256,224983.000000,1697105560.161173,0.000000,0.000000,0.000000,0.000000,0.000000,0.000000,,,,,,,,
1697105560.180557,224984.000000,1697105560.165725,0.000000,0.000000,0.000000,0.000000,0.000000,0.000000,,,,,,,,
1697105560.193264,224985.000000,1697105560.173348,0.000000,0.000000,0.000000,0.000000,0.000000,0.000000,,,,,,,,
1697105560.197467,224986.000000,1697105560.183565,0.000000,0.000000,0.000000,0.000000,0.000000,0.000000,,,,,,,,
1697105560.206097,224987.000000,1697105560.193626,0.000000,0.000000,0.000000,0.000000,0.000000,0.000000,,,,,,,,
1697105560.216624,224988.000000,1697105560.203432,0.000000,0.000000,0.000000,0.000000,0.000000,0.000000,,,,,,,,
1697105560.226634,224989.000000,1697105560.213561,0.000000,0.000000,0.000000,0.000000,0.000000,0.000000,,,,,,,,
1697105560.235604,224990.000000,1697105560.224716,0.000000,0.000000,0.000000,0.000000,0.000000,0.000000,,,,,,,,
1697105560.247191,224991.000000,1697105560.233567,0.000000,0.000000,0.000000,0.000000,0.000000,0.000000,,,,,,,,
1697105560.256942,224992.000000,1697105560.243308,0.000000,0.000000,0.000000,0.000000,0.000000,0.000000,,,,,,,,
1697105560.268609,224993.000000,1697105560.253629,0.000000,0.000000,0.000000,0.000000,0.000000,0.000000,,,,,,,,
1697105560.273208,224994.000000,1697105560.264071,0.000000,0.000000,0.000000,0.000000,0.000000,0.000000,,,,,,,,
1697105560.283111,224995.000000,1697105560.273550,0.000000,0.000000,0.000000,0.000000,0.000000,0.000000,,,,,,,,
1697105560.302245,224996.000000,1697105560.283647,0.000000,0.000000,0.000000,0.000000,0.000000,0.000000,,,,,,,,
1697105560.312847,224997.000000,1697105560.293523,0.000000,0.000000,0.000000,0.000000,0.000000,0.000000,,,,,,,,
1697105560.325802,224998.000000,1697105560.303597,0.000000,0.000000,0.000000,0.000000,0.000000,0.000000,,,,,,,,
1697105560.331940,224999.000000,1697105560.313287,0.000000,0.000000,0.000000,0.000000,0.000000,0.000000,,,,,,,,
1697105560.337193,225000.000000,1697105560.323497,0.000000,0.000000,0.000000,0.000000,0.000000,0.000000,,,,,,,,
1697105560.352432,225001.000000,1697105560.333483,0.000000,0.000000,0.000000,0.000000,0.000000,0.000000,,,,,,,,
1697105560.356567,225002.000000,1697105560.343575,0.000000,0.000000,0.000000,0.000000,0.000000,0.000000,,,,,,,,
1697105560.370198,225003.000000,1697105560.357316,0.000000,0.000000,0.000000,0.000000,0.000000,0.000000,,,,,,,,
1697105560.375593,225004.000000,1697105560.363844,0.000000,0.000000,0.000000,0.000000,0.000000,0.000000,,,,,,,,
1697105560.392117,225005.000000,1697105560.373974,0.000000,0.000000,0.000000,0.000000,0.000000,0.000000,,,,,,,,
1697105560.404783,225007.000000,1697105560.393468,0.000000,0.000000,0.000000,0.000000,0.000000,0.000000,,,,,,,,
1697105560.417171,225008.000000,1697105560.403712,0.000000,0.000000,0.000000,0.000000,0.000000,0.000000,,,,,,,,
1697105560.431187,225009.000000,1697105560.413449,0.000000,0.000000,0.000000,0.000000,0.000000,0.000000,,,,,,,,
1697105560.440200,225010.000000,1697105560.423661,0.000000,0.000000,0.000000,0.000000,0.000000,0.000000,,,,,,,,
1697105560.456654,225011.000000,1697105560.433555,0.000000,0.000000,0.000000,0.000000,0.000000,0.000000,,,,,,,,
1697105560.461655,225012.000000,1697105560.443563,0.000000,0.000000,0.000000,0.000000,0.000000,0.000000,,,,,,,,
1697105560.467454,225013.000000,1697105560.453744,0.000000,0.000000,0.000000,0.000000,0.000000,0.000000,,,,,,,,
1697105560.479519,225014.000000,1697105560.463585,0.000000,0.000000,0.000000,0.000000,0.000000,0.000000,,,,,,,,
1697105560.499093,225016.000000,1697105560.483463,0.000000,0.000000,0.000000,0.000000,0.000000,0.000000,,,,,,,,
1697105560.511261,225017.000000,1697105560.493380,0.000000,0.000000,0.000000,0.000000,0.000000,0.000000,,,,,,,,
1697105560.521177,225018.000000,1697105560.503546,0.000000,0.000000,0.000000,0.000000,0.000000,0.000000,,,,,,,,
1697105560.523869,225019.000000,1697105560.513562,0.000000,0.000000,0.000000,0.000000,0.000000,0.000000,,,,,,,,
1697105560.544640,225020.000000,1697105560.523571,0.000000,0.000000,0.000000,0.000000,0.000000,0.000000,,,,,,,,
1697105560.549188,225021.000000,1697105560.533384,0.000000,0.000000,0.000000,0.000000,0.000000,0.000000,,,,,,,,
1697105560.557533,225022.000000,1697105560.543597,0.000000,0.000000,0.000000,0.000000,0.000000,0.000000,,,,,,,,
1697105560.565636,225023.000000,1697105560.555189,0.000000,0.000000,0.000000,0.000000,0.000000,0.000000,,,,,,,,
1697105560.575994,225024.000000,1697105560.563453,0.000000,0.000000,0.000000,0.000000,0.000000,0.000000,,,,,,,,
1697105560.588455,225025.000000,1697105560.573474,0.000000,0.000000,0.000000,0.000000,0.000000,0.000000,,,,,,,,
1697105560.594854,225026.000000,1697105560.583571,0.000000,0.000000,0.000000,0.000000,0.000000,0.000000,,,,,,,,
1697105560.606188,225027.000000,1697105560.595512,0.000000,0.000000,0.000000,0.000000,0.000000,0.000000,,,,,,,,
1697105560.614001,225028.000000,1697105560.603814,0.000000,0.000000,0.000000,0.000000,0.000000,0.000000,,,,,,,,
1697105560.626778,225029.000000,1697105560.613594,0.000000,0.000000,0.000000,0.000000,0.000000,0.000000,,,,,,,,
1697105560.635686,225030.000000,1697105560.623580,0.000000,0.000000,0.000000,0.000000,0.000000,0.000000,,,,,,,,
1697105560.643439,225031.000000,1697105560.633746,0.000000,0.000000,0.000000,0.000000,0.000000,0.000000,,,,,,,,
1697105560.652911,225032.000000,1697105560.644262,-0.000901,0.000656,-0.000251,-0.000019,0.000003,-0.000001,,,,,,,,
1697105560.675803,225033.000000,1697105560.657952,-0.002343,0.001715,-0.000696,-0.000050,0.000008,-0.000003,,,,,,,,
1697105560.682047,225035.000000,1697105560.673425,-0.005582,0.004152,-0.001851,-0.000120,0.000020,-0.000005,,,,,,,,
1697105560.695265,225036.000000,1697105560.683756,-0.006732,0.005054,-0.002336,-0.000145,0.000025,-0.000006,,,,,,,,
1697105560.707797,225037.000000,1697105560.693350,-0.006645,0.005048,-0.002403,-0.000145,0.000026,-0.000005,,,,,,,,
1697105560.722247,225038.000000,1697105560.703427,-0.005306,0.004082,-0.001988,-0.000117,0.000022,-0.000003,,,,,,,,
1697105560.727250,225039.000000,1697105560.713400,-0.003426,0.002668,-0.001329,-0.000076,0.000014,-0.000002,,,,,,,,
1697105560.731669,225040.000000,1697105560.723569,-0.001115,0.000879,-0.000448,-0.000025,0.000005,-0.000000,,,,,,,,
1697105560.743219,225041.000000,1697105560.733418,0.000000,0.000000,0.000000,0.000000,0.000000,0.000000,,,,,,,,
1697105560.754621,225042.000000,1697105560.743413,0.000000,0.000000,0.000000,0.000000,0.000000,0.000000,,,,,,,,
1697105560.767450,225043.000000,1697105560.754246,0.000000,0.000000,0.000000,0.000000,0.000000,0.000000,,,,,,,,
1697105560.781052,225044.000000,1697105560.763435,0.000000,0.000000,0.000000,0.000000,0.000000,0.000000,,,,,,,,
1697105560.794140,225045.000000,1697105560.773429,-0.000491,0.000394,-0.000213,-0.000011,0.000002,-0.000000,,,,,,,,
1697105560.800453,225046.000000,1697105560.783394,-0.003867,0.003093,-0.001664,-0.000087,0.000017,-0.000001,,,,,,,,
1697105560.811723,225047.000000,1697105560.798717,-0.006294,0.005025,-0.002658,-0.000140,0.000026,-0.000001,,,,,,,,
1697105560.822759,225049.000000,1697105560.813570,-0.009470,0.007619,-0.003839,-0.000208,0.000038,-0.000003,,,,,,,,
1697105560.837053,225050.000000,1697105560.823573,-0.010033,0.008162,-0.003978,-0.000221,0.000040,-0.000004,,,,,,,,
1697105560.846408,225051.000000,1697105560.834186,-0.009893,0.008162,-0.003831,-0.000219,0.000040,-0.000005,,,,,,,,
1697105560.853786,225052.000000,1697105560.843440,-0.009120,0.007639,-0.003445,-0.000203,0.000038,-0.000005,,,,,,,,
1697105560.867764,225053.000000,1697105560.853441,-0.007428,0.006311,-0.002734,-0.000166,0.000032,-0.000005,,,,,,,,
1697105560.878372,225054.000000,1697105560.865095,-0.004517,0.003872,-0.001613,-0.000102,0.000020,-0.000003,,,,,,,,
1697105560.886747,225055.000000,1697105560.873462,-0.000581,0.000499,-0.000200,-0.000013,0.000003,-0.000000,,,,,,,,
1697105560.899679,225056.000000,1697105560.883423,0.000000,0.000000,0.000000,0.000000,0.000000,0.000000,,,,,,,,
1697105560.915150,225057.000000,1697105560.894217,0.000000,0.000000,0.000000,0.000000,0.000000,0.000000,,,,,,,,
1697105560.922041,225058.000000,1697105560.906261,0.000000,0.000000,0.000000,0.000000,0.000000,0.000000,,,,,,,,
1697105560.931855,225059.000000,1697105560.918872,0.000000,0.000000,0.000000,0.000000,0.000000,0.000000,,,,,,,,
1697105560.943686,225060.000000,1697105560.923700,0.000000,0.000000,0.000000,0.000000,0.000000,0.000000,,,,,,,,
1697105560.954123,225061.000000,1697105560.933465,0.000000,0.000000,0.000000,0.000000,0.000000,0.000000,,,,,,,,
1697105560.956275,225062.000000,1697105560.943566,0.000000,0.000000,0.000000,0.000000,0.000000,0.000000,,,,,,,,
1697105560.970321,225063.000000,1697105560.953548,0.000000,0.000000,0.000000,0.000000,0.000000,0.000000,,,,,,,,
1697105560.980639,225064.000000,1697105560.963553,0.000000,0.000000,0.000000,0.000000,0.000000,0.000000,,,,,,,,
1697105560.987822,225065.000000,1697105560.973441,0.000000,0.000000,0.000000,0.000000,0.000000,0.000000,,,,,,,,
1697105561.002934,225066.000000,1697105560.983579,0.000000,0.000000,0.000000,0.000000,0.000000,0.000000,,,,,,,,
1697105561.012759,225068.000000,1697105561.003388,0.000000,0.000000,0.000000,0.000000,0.000000,0.000000,,,,,,,,
1697105561.028920,225069.000000,1697105561.013559,0.000000,0.000000,0.000000,0.000000,0.000000,0.000000,,,,,,,,
1697105561.046376,225070.000000,1697105561.027910,0.000000,0.000000,0.000000,0.000000,0.000000,0.000000,,,,,,,,
1697105561.055974,225071.000000,1697105561.033545,0.000000,0.000000,0.000000,0.000000,0.000000,0.000000,,,,,,,,
1697105561.058966,225072.000000,1697105561.043607,0.000000,0.000000,0.000000,0.000000,0.000000,0.000000,,,,,,,,
1697105561.070273,225073.000000,1697105561.053445,0.000000,0.000000,0.000000,0.000000,0.000000,0.000000,,,,,,,,
1697105561.077509,225074.000000,1697105561.064529,0.000000,0.000000,0.000000,0.000000,0.000000,0.000000,,,,,,,,
1697105561.086372,225075.000000,1697105561.074045,0.000000,0.000000,0.000000,0.000000,0.000000,0.000000,,,,,,,,
1697105561.103047,225076.000000,1697105561.083552,0.000000,0.000000,0.000000,0.000000,0.000000,0.000000,,,,,,,,
1697105561.108456,225077.000000,1697105561.093657,0.000000,0.000000,0.000000,0.000000,0.000000,0.000000,,,,,,,,
1697105561.114052,225078.000000,1697105561.103578,0.000000,0.000000,0.000000,0.000000,0.000000,0.000000,,,,,,,,
1697105561.128909,225079.000000,1697105561.113392,0.000000,0.000000,0.000000,0.000000,0.000000,0.000000,,,,,,,,
1697105561.138295,225080.000000,1697105561.123429,0.000000,0.000000,0.000000,0.000000,0.000000,0.000000,,,,,,,,
1697105561.148941,225081.000000,1697105561.133887,0.000000,0.000000,0.000000,0.000000,0.000000,0.000000,,,,,,,,
1697105561.161367,225082.000000,1697105561.143438,0.000000,0.000000,0.000000,0.000000,0.000000,0.000000,,,,,,,,
1697105561.173384,225083.000000,1697105561.153424,0.000000,0.000000,0.000000,0.000000,0.000000,0.000000,,,,,,,,
1697105561.177269,225084.000000,1697105561.163419,0.000000,0.000000,0.000000,0.000000,0.000000,0.000000,,,,,,,,
1697105561.193869,225085.000000,1697105561.174740,0.000000,0.000000,0.000000,0.000000,0.000000,0.000000,,,,,,,,
1697105561.210687,225087.000000,1697105561.193581,0.000000,0.000000,0.000000,0.000000,0.000000,0.000000,,,,,,,,
1697105561.221215,225088.000000,1697105561.203616,0.000000,0.000000,0.000000,0.000000,0.000000,0.000000,,,,,,,,
1697105561.237955,225089.000000,1697105561.213346,0.000000,0.000000,0.000000,0.000000,0.000000,0.000000,,,,,,,,
1697105561.247662,225090.000000,1697105561.223402,0.000000,0.000000,0.000000,0.000000,0.000000,0.000000,,,,,,,,
1697105561.254519,225091.000000,1697105561.233563,0.000000,0.000000,0.000000,0.000000,0.000000,0.000000,,,,,,,,
1697105561.264779,225092.000000,1697105561.243547,0.000000,0.000000,0.000000,0.000000,0.000000,0.000000,,,,,,,,
1697105561.269744,225093.000000,1697105561.253548,0.000000,0.000000,0.000000,0.000000,0.000000,0.000000,,,,,,,,
1697105561.283238,225094.000000,1697105561.263551,0.000000,0.000000,0.000000,0.000000,0.000000,0.000000,,,,,,,,
1697105561.294666,225096.000000,1697105561.283328,0.000000,0.000000,0.000000,0.000000,0.000000,0.000000,,,,,,,,
1697105561.308157,225097.000000,1697105561.293413,0.000000,0.000000,0.000000,0.000000,0.000000,0.000000,,,,,,,,
1697105561.322757,225098.000000,1697105561.303565,0.000000,0.000000,0.000000,0.000000,0.000000,0.000000,,,,,,,,
1697105561.330565,225099.000000,1697105561.313549,0.000000,0.000000,0.000000,0.000000,0.000000,0.000000,,,,,,,,
1697105561.348013,225100.000000,1697105561.323438,0.000000,0.000000,0.000000,0.000000,0.000000,0.000000,,,,,,,,
1697105561.355585,225102.000000,1697105561.343689,0.000000,0.000000,0.000000,0.000000,0.000000,0.000000,,,,,,,,
1697105561.369694,225103.000000,1697105561.353344,0.000000,0.000000,0.000000,0.000000,0.000000,0.000000,,,,,,,,
1697105561.388484,225104.000000,1697105561.363424,0.000000,0.000000,0.000000,0.000000,0.000000,0.000000,,,,,,,,
1697105561.392429,225105.000000,1697105561.373414,0.000000,0.000000,0.000000,0.000000,0.000000,0.000000,,,,,,,,
1697105561.407000,225106.000000,1697105561.383550,0.000000,0.000000,0.000000,0.000000,0.000000,0.000000,,,,,,,,
1697105561.417995,225108.000000,1697105561.404670,0.000000,0.000000,0.000000,0.000000,0.000000,0.000000,,,,,,,,
1697105561.434006,225109.000000,1697105561.413603,0.000000,0.000000,0.000000,0.000000,0.000000,0.000000,,,,,,,,
1697105561.450392,225111.000000,1697105561.433432,0.000000,0.000000,0.000000,0.000000,0.000000,0.000000,,,,,,,,
1697105561.467321,225112.000000,1697105561.443397,0.000000,0.000000,0.000000,0.000000,0.000000,0.000000,,,,,,,,
1697105561.472973,225113.000000,1697105561.453942,0.000000,0.000000,0.000000,0.000000,0.000000,0.000000,,,,,,,,
1697105561.490061,225114.000000,1697105561.464592,0.000000,0.000000,0.000000,0.000000,0.000000,0.000000,,,,,,,,
1697105561.498271,225115.000000,1697105561.473521,0.000000,0.000000,0.000000,0.000000,0.000000,0.000000,,,,,,,,
1697105561.512411,225116.000000,1697105561.483974,0.000000,0.000000,0.000000,0.000000,0.000000,0.000000,,,,,,,,
1697105561.518576,225117.000000,1697105561.494109,0.000000,0.000000,0.000000,0.000000,0.000000,0.000000,,,,,,,,
1697105561.530847,225119.000000,1697105561.513335,0.000000,0.000000,0.000000,0.000000,0.000000,0.000000,,,,,,,,
1697105561.543241,225120.000000,1697105561.523539,0.000000,0.000000,0.000000,0.000000,0.000000,0.000000,,,,,,,,
1697105561.566888,225122.000000,1697105561.543616,0.000000,0.000000,0.000000,0.000000,0.000000,0.000000,,,,,,,,
1697105561.571782,225123.000000,1697105561.553586,0.000000,0.000000,0.000000,0.000000,0.000000,0.000000,,,,,,,,
1697105561.597110,225125.000000,1697105561.573428,0.000000,0.000000,0.000000,0.000000,0.000000,0.000000,,,,,,,,
1697105561.616735,225127.000000,1697105561.593429,0.000000,0.000000,0.000000,0.000000,0.000000,0.000000,,,,,,,,
1697105561.627579,225129.000000,1697105561.613573,0.000000,0.000000,0.000000,0.000000,0.000000,0.000000,,,,,,,,
1697105561.635374,225130.000000,1697105561.625238,0.000000,0.000000,0.000000,0.000000,0.000000,0.000000,,,,,,,,
1697105561.646166,225131.000000,1697105561.633785,0.000000,0.000000,0.000000,0.000000,0.000000,0.000000,,,,,,,,
1697105561.659838,225132.000000,1697105561.643569,0.000000,0.000000,0.000000,0.000000,0.000000,0.000000,,,,,,,,
1697105561.666351,225133.000000,1697105561.653675,0.000000,0.000000,0.000000,0.000000,0.000000,0.000000,,,,,,,,
1697105561.676993,225134.000000,1697105561.663555,0.000000,0.000000,0.000000,0.000000,0.000000,0.000000,,,,,,,,
1697105561.687299,225135.000000,1697105561.673527,0.000000,0.000000,0.000000,0.000000,0.000000,0.000000,,,,,,,,
1697105561.697355,225136.000000,1697105561.683419,0.000000,0.000000,0.000000,0.000000,0.000000,0.000000,,,,,,,,
1697105561.702672,225137.000000,1697105561.693526,0.000000,0.000000,0.000000,0.000000,0.000000,0.000000,,,,,,,,
1697105561.715882,225138.000000,1697105561.703455,0.000000,0.000000,0.000000,0.000000,0.000000,0.000000,,,,,,,,
1697105561.733120,225139.000000,1697105561.713441,0.000000,0.000000,0.000000,0.000000,0.000000,0.000000,,,,,,,,
1697105561.742931,225140.000000,1697105561.724105,0.000000,0.000000,0.000000,0.000000,0.000000,0.000000,,,,,,,,
1697105561.745326,225141.000000,1697105561.735309,0.000000,0.000000,0.000000,0.000000,0.000000,0.000000,,,,,,,,
1697105561.756144,225142.000000,1697105561.743441,0.000000,0.000000,0.000000,0.000000,0.000000,0.000000,,,,,,,,
1697105561.765406,225143.000000,1697105561.753668,0.000000,0.000000,0.000000,0.000000,0.000000,0.000000,,,,,,,,
1697105561.774305,225144.000000,1697105561.763967,0.000000,0.000000,0.000000,0.000000,0.000000,0.000000,,,,,,,,
1697105561.789259,225145.000000,1697105561.774310,0.000000,0.000000,0.000000,0.000000,0.000000,0.000000,,,,,,,,
1697105561.805466,225146.000000,1697105561.783435,0.000000,0.000000,0.000000,0.000000,0.000000,0.000000,,,,,,,,
1697105561.811879,225147.000000,1697105561.793677,0.000000,0.000000,0.000000,0.000000,0.000000,0.000000,,,,,,,,
1697105561.821527,225148.000000,1697105561.803332,0.000000,0.000000,0.000000,0.000000,0.000000,0.000000,,,,,,,,
1697105561.838140,225149.000000,1697105561.813411,0.000000,0.000000,0.000000,0.000000,0.000000,0.000000,,,,,,,,
1697105561.842404,225150.000000,1697105561.825778,0.000000,0.000000,0.000000,0.000000,0.000000,0.000000,,,,,,,,
1697105561.848264,225151.000000,1697105561.833560,0.000000,0.000000,0.000000,0.000000,0.000000,0.000000,,,,,,,,
1697105561.860621,225152.000000,1697105561.843448,0.000000,0.000000,0.000000,0.000000,0.000000,0.000000,,,,,,,,
1697105561.869145,225153.000000,1697105561.853427,0.000000,0.000000,0.000000,0.000000,0.000000,0.000000,,,,,,,,
1697105561.879713,225154.000000,1697105561.864124,0.000000,0.000000,0.000000,0.000000,0.000000,0.000000,,,,,,,,
1697105561.895180,225155.000000,1697105561.874021,0.000000,0.000000,0.000000,0.000000,0.000000,0.000000,,,,,,,,
1697105561.907132,225157.000000,1697105561.893540,0.000000,0.000000,0.000000,0.000000,0.000000,0.000000,,,,,,,,
1697105561.919439,225158.000000,1697105561.903603,0.000000,0.000000,0.000000,0.000000,0.000000,0.000000,,,,,,,,
1697105561.932633,225159.000000,1697105561.913396,0.000000,0.000000,0.000000,0.000000,0.000000,0.000000,,,,,,,,
1697105561.946989,225160.000000,1697105561.924091,0.000000,0.000000,0.000000,0.000000,0.000000,0.000000,,,,,,,,
1697105561.951499,225162.000000,1697105561.943316,0.000000,0.000000,0.000000,0.000000,0.000000,0.000000,,,,,,,,
1697105561.965703,225163.000000,1697105561.953729,0.000000,0.000000,0.000000,0.000000,0.000000,0.000000,,,,,,,,
1697105561.974526,225164.000000,1697105561.963551,0.000000,0.000000,0.000000,0.000000,0.000000,0.000000,,,,,,,,
1697105561.983528,225165.000000,1697105561.973457,0.000000,0.000000,0.000000,0.000000,0.000000,0.000000,,,,,,,,
1697105561.995039,225166.000000,1697105561.983362,0.000000,0.000000,0.000000,0.000000,0.000000,0.000000,,,,,,,,
1697105562.004468,225167.000000,1697105561.993550,0.000000,0.000000,0.000000,0.000000,0.000000,0.000000,,,,,,,,
1697105562.011194,225168.000000,1697105562.003575,0.000000,0.000000,0.000000,0.000000,0.000000,0.000000,,,,,,,,
1697105562.021613,225169.000000,1697105562.013332,0.000000,0.000000,0.000000,0.000000,0.000000,0.000000,,,,,,,,
1697105562.030463,225170.000000,1697105562.024410,0.000000,0.000000,0.000000,0.000000,0.000000,0.000000,,,,,,,,
1697105562.040159,225171.000000,1697105562.033428,0.000000,0.000000,0.000000,0.000000,0.000000,0.000000,,,,,,,,
1697105562.050184,225172.000000,1697105562.043798,0.000000,0.000000,0.000000,0.000000,0.000000,0.000000,,,,,,,,
1697105562.061200,225173.000000,1697105562.053461,0.000000,0.000000,0.000000,0.000000,0.000000,0.000000,,,,,,,,
1697105562.074735,225174.000000,1697105562.063821,0.000000,0.000000,0.000000,0.000000,0.000000,0.000000,,,,,,,,
1697105562.083171,225175.000000,1697105562.073907,0.000000,0.000000,0.000000,0.000000,0.000000,0.000000,,,,,,,,
1697105562.093403,225176.000000,1697105562.083313,0.000000,0.000000,0.000000,0.000000,0.000000,0.000000,,,,,,,,
1697105562.100629,225177.000000,1697105562.093359,0.000000,0.000000,0.000000,0.000000,0.000000,0.000000,,,,,,,,
1697105562.113362,225178.000000,1697105562.103578,0.000000,0.000000,0.000000,0.000000,0.000000,0.000000,,,,,,,,
1697105562.125539,225179.000000,1697105562.113546,0.000000,0.000000,0.000000,0.000000,0.000000,0.000000,,,,,,,,
1697105562.137628,225180.000000,1697105562.124094,0.000000,0.000000,0.000000,0.000000,0.000000,0.000000,,,,,,,,
1697105562.145176,225181.000000,1697105562.133750,0.000000,0.000000,0.000000,0.000000,0.000000,0.000000,,,,,,,,
1697105562.155494,225182.000000,1697105562.143547,0.000000,0.000000,0.000000,0.000000,0.000000,0.000000,,,,,,,,
1697105562.163104,225183.000000,1697105562.153313,0.000000,0.000000,0.000000,0.000000,0.000000,0.000000,,,,,,,,
1697105562.170623,225184.000000,1697105562.163426,0.000000,0.000000,0.000000,0.000000,0.000000,0.000000,,,,,,,,
1697105562.182909,225185.000000,1697105562.174054,0.000000,0.000000,0.000000,0.000000,0.000000,0.000000,,,,,,,,
1697105562.194479,225186.000000,1697105562.183542,0.000000,0.000000,0.000000,0.000000,0.000000,0.000000,,,,,,,,
1697105562.204515,225187.000000,1697105562.193549,0.000000,0.000000,0.000000,0.000000,0.000000,0.000000,,,,,,,,
1697105562.212489,225188.000000,1697105562.203418,0.000000,0.000000,0.000000,0.000000,0.000000,0.000000,,,,,,,,
1697105562.225634,225189.000000,1697105562.213533,0.000000,0.000000,0.000000,0.000000,0.000000,0.000000,,,,,,,,
1697105562.234186,225190.000000,1697105562.224092,0.000000,0.000000,0.000000,0.000000,0.000000,0.000000,,,,,,,,
1697105562.249472,225191.000000,1697105562.233636,0.000000,0.000000,0.000000,0.000000,0.000000,0.000000,,,,,,,,
1697105562.261159,225192.000000,1697105562.243717,0.000000,0.000000,0.000000,0.000000,0.000000,0.000000,,,,,,,,
1697105562.269869,225193.000000,1697105562.253415,0.000000,0.000000,0.000000,0.000000,0.000000,0.000000,,,,,,,,
1697105562.285281,225194.000000,1697105562.263940,0.000000,0.000000,0.000000,0.000000,0.000000,0.000000,,,,,,,,
1697105562.298316,225195.000000,1697105562.273419,0.000000,0.000000,0.000000,0.000000,0.000000,0.000000,,,,,,,,
1697105562.302417,225196.000000,1697105562.283625,0.000000,0.000000,0.000000,0.000000,0.000000,0.000000,,,,,,,,
1697105562.309696,225197.000000,1697105562.293535,0.000000,0.000000,0.000000,0.000000,0.000000,0.000000,,,,,,,,
1697105562.322595,225198.000000,1697105562.307421,0.000000,0.000000,0.000000,0.000000,0.000000,0.000000,,,,,,,,
1697105562.344390,225199.000000,1697105562.314942,0.000000,0.000000,0.000000,0.000000,0.000000,0.000000,,,,,,,,
1697105562.351384,225200.000000,1697105562.326319,0.000000,0.000000,0.000000,0.000000,0.000000,0.000000,,,,,,,,
1697105562.355075,225202.000000,1697105562.343622,0.000000,0.000000,0.000000,0.000000,0.000000,0.000000,,,,,,,,
1697105562.364179,225203.000000,1697105562.353587,0.000000,0.000000,0.000000,0.000000,0.000000,0.000000,,,,,,,,
1697105562.374156,225204.000000,1697105562.363425,0.000000,0.000000,0.000000,0.000000,0.000000,0.000000,,,,,,,,
1697105562.384164,225205.000000,1697105562.373420,0.000000,0.000000,0.000000,0.000000,0.000000,0.000000,,,,,,,,
1697105562.393810,225206.000000,1697105562.383579,0.000000,0.000000,0.000000,0.000000,0.000000,0.000000,,,,,,,,
1697105562.419154,225207.000000,1697105562.393335,0.000000,0.000000,0.000000,0.000000,0.000000,0.000000,,,,,,,,
1697105562.430872,225209.000000,1697105562.413535,0.000000,0.000000,0.000000,0.000000,0.000000,0.000000,,,,,,,,
1697105562.442410,225210.000000,1697105562.423529,0.000000,0.000000,0.000000,0.000000,0.000000,0.000000,,,,,,,,
1697105562.454505,225211.000000,1697105562.433529,0.000000,0.000000,0.000000,0.000000,0.000000,0.000000,,,,,,,,
1697105562.462588,225212.000000,1697105562.444947,0.000000,0.000000,0.000000,0.000000,0.000000,0.000000,,,,,,,,
1697105562.473611,225213.000000,1697105562.453584,0.000000,0.000000,0.000000,0.000000,0.000000,0.000000,,,,,,,,
1697105562.483618,225214.000000,1697105562.463348,0.000000,0.000000,0.000000,0.000000,0.000000,0.000000,,,,,,,,
1697105562.489335,225215.000000,1697105562.473543,0.000000,0.000000,0.000000,0.000000,0.000000,0.000000,,,,,,,,
1697105562.496243,225216.000000,1697105562.483525,0.000000,0.000000,0.000000,0.000000,0.000000,0.000000,,,,,,,,
1697105562.505897,225217.000000,1697105562.493502,0.000000,0.000000,0.000000,0.000000,0.000000,0.000000,,,,,,,,
1697105562.516464,225218.000000,1697105562.503537,0.000000,0.000000,0.000000,0.000000,0.000000,0.000000,,,,,,,,
1697105562.531616,225219.000000,1697105562.513549,0.000000,0.000000,0.000000,0.000000,0.000000,0.000000,,,,,,,,
1697105562.539696,225220.000000,1697105562.523700,0.000000,0.000000,0.000000,0.000000,0.000000,0.000000,,,,,,,,
1697105562.545507,225221.000000,1697105562.533310,0.000000,0.000000,0.000000,0.000000,0.000000,0.000000,,,,,,,,
1697105562.559886,225222.000000,1697105562.543526,0.000000,0.000000,0.000000,0.000000,0.000000,0.000000,,,,,,,,
1697105562.568467,225223.000000,1697105562.553563,0.000000,0.000000,0.000000,0.000000,0.000000,0.000000,,,,,,,,
1697105562.578244,225224.000000,1697105562.566674,0.000000,0.000000,0.000000,0.000000,0.000000,0.000000,,,,,,,,
1697105562.664115,225225.000000,1697105562.575421,0.000000,0.000000,0.000000,0.000000,0.000000,0.000000,,,,,,,,
1697105562.685489,225230.000000,1697105562.623709,0.000000,0.000000,0.000000,0.000000,0.000000,0.000000,,,,,,,,
1697105562.689162,225234.000000,1697105562.663583,0.000000,0.000000,0.000000,0.000000,0.000000,0.000000,,,,,,,,
1697105562.696311,225236.000000,1697105562.683556,0.000000,0.000000,0.000000,0.000000,0.000000,0.000000,,,,,,,,
1697105562.701016,225237.000000,1697105562.694694,0.000000,0.000000,0.000000,0.000000,0.000000,0.000000,,,,,,,,
1697105562.715319,225238.000000,1697105562.703853,0.000000,0.000000,0.000000,0.000000,0.000000,0.000000,,,,,,,,
1697105562.729633,225239.000000,1697105562.713393,0.000000,0.000000,0.000000,0.000000,0.000000,0.000000,,,,,,,,
1697105562.744205,225240.000000,1697105562.723544,0.000000,0.000000,0.000000,0.000000,0.000000,0.000000,,,,,,,,
1697105562.750810,225242.000000,1697105562.743424,0.000000,0.000000,0.000000,0.000000,0.000000,0.000000,,,,,,,,
1697105562.763008,225243.000000,1697105562.753532,0.000000,0.000000,0.000000,0.000000,0.000000,0.000000,,,,,,,,
1697105562.776128,225244.000000,1697105562.763537,0.000000,0.000000,0.000000,0.000000,0.000000,0.000000,,,,,,,,
1697105562.785231,225245.000000,1697105562.773529,0.000000,0.000000,0.000000,0.000000,0.000000,0.000000,,,,,,,,
1697105562.794538,225246.000000,1697105562.783397,0.000000,0.000000,0.000000,0.000000,0.000000,0.000000,,,,,,,,
1697105562.802524,225247.000000,1697105562.793542,0.000000,0.000000,0.000000,0.000000,0.000000,0.000000,,,,,,,,
1697105562.814920,225248.000000,1697105562.803650,0.000000,0.000000,0.000000,0.000000,0.000000,0.000000,,,,,,,,
1697105562.829537,225249.000000,1697105562.814329,0.000000,0.000000,0.000000,0.000000,0.000000,0.000000,,,,,,,,
1697105562.843637,225250.000000,1697105562.823411,0.000000,0.000000,0.000000,0.000000,0.000000,0.000000,,,,,,,,
1697105562.856635,225252.000000,1697105562.844135,0.000000,0.000000,0.000000,0.000000,0.000000,0.000000,,,,,,,,
1697105562.862271,225253.000000,1697105562.853549,0.000000,0.000000,0.000000,0.000000,0.000000,0.000000,,,,,,,,
1697105562.873730,225254.000000,1697105562.863554,0.000000,0.000000,0.000000,0.000000,0.000000,0.000000,,,,,,,,
1697105562.890708,225255.000000,1697105562.873565,0.000000,0.000000,0.000000,0.000000,0.000000,0.000000,,,,,,,,
1697105562.900569,225256.000000,1697105562.883548,0.000000,0.000000,0.000000,0.000000,0.000000,0.000000,,,,,,,,
1697105562.911065,225257.000000,1697105562.893405,0.000000,0.000000,0.000000,0.000000,0.000000,0.000000,,,,,,,,
1697105562.921516,225258.000000,1697105562.903995,0.000000,0.000000,0.000000,0.000000,0.000000,0.000000,,,,,,,,
1697105562.927527,225259.000000,1697105562.913429,0.000000,0.000000,0.000000,0.000000,0.000000,0.000000,,,,,,,,
1697105562.938631,225260.000000,1697105562.923944,0.000000,0.000000,0.000000,0.000000,0.000000,0.000000,,,,,,,,
1697105562.947054,225261.000000,1697105562.933728,0.000000,0.000000,0.000000,0.000000,0.000000,0.000000,,,,,,,,
1697105562.956507,225262.000000,1697105562.943514,0.000000,0.000000,0.000000,0.000000,0.000000,0.000000,,,,,,,,
1697105562.968621,225263.000000,1697105562.953530,0.000000,0.000000,0.000000,0.000000,0.000000,0.000000,,,,,,,,
1697105562.978731,225264.000000,1697105562.963655,0.000000,0.000000,0.000000,0.000000,0.000000,0.000000,,,,,,,,
1697105562.988251,225265.000000,1697105562.973569,0.000000,0.000000,0.000000,0.000000,0.000000,0.000000,,,,,,,,
1697105562.996641,225266.000000,1697105562.983411,0.000000,0.000000,0.000000,0.000000,0.000000,0.000000,,,,,,,,
1697105563.012311,225267.000000,1697105562.993411,0.000000,0.000000,0.000000,0.000000,0.000000,0.000000,,,,,,,,
1697105563.022328,225268.000000,1697105563.003391,0.000000,0.000000,0.000000,0.000000,0.000000,0.000000,,,,,,,,
1697105563.024669,225269.000000,1697105563.013529,0.000000,0.000000,0.000000,0.000000,0.000000,0.000000,,,,,,,,
1697105563.039152,225270.000000,1697105563.023711,0.000000,0.000000,0.000000,0.000000,0.000000,0.000000,,,,,,,,
1697105563.052039,225271.000000,1697105563.034986,0.000000,0.000000,0.000000,0.000000,0.000000,0.000000,,,,,,,,
1697105563.058035,225272.000000,1697105563.043811,0.000000,0.000000,0.000000,0.000000,0.000000,0.000000,,,,,,,,
1697105563.068341,225273.000000,1697105563.053756,0.000000,0.000000,0.000000,0.000000,0.000000,0.000000,,,,,,,,
1697105563.077321,225274.000000,1697105563.063590,0.000000,0.000000,0.000000,0.000000,0.000000,0.000000,,,,,,,,
1697105563.092442,225275.000000,1697105563.073528,0.000000,0.000000,0.000000,0.000000,0.000000,0.000000,,,,,,,,
1697105563.103451,225276.000000,1697105563.083655,0.000000,0.000000,0.000000,0.000000,0.000000,0.000000,,,,,,,,
1697105563.116356,225278.000000,1697105563.103549,0.000000,0.000000,0.000000,0.000000,0.000000,0.000000,,,,,,,,
1697105563.129870,225279.000000,1697105563.113944,0.000000,0.000000,0.000000,0.000000,0.000000,0.000000,,,,,,,,
1697105563.139965,225280.000000,1697105563.123477,0.000000,0.000000,0.000000,0.000000,0.000000,0.000000,,,,,,,,
1697105563.153562,225281.000000,1697105563.133471,0.000000,0.000000,0.000000,0.000000,0.000000,0.000000,,,,,,,,
1697105563.168725,225283.000000,1697105563.153533,0.000000,0.000000,0.000000,0.000000,0.000000,0.000000,,,,,,,,
1697105563.178607,225284.000000,1697105563.163554,0.000000,0.000000,0.000000,0.000000,0.000000,0.000000,,,,,,,,
1697105563.184069,225285.000000,1697105563.173556,0.000000,0.000000,0.000000,0.000000,0.000000,0.000000,,,,,,,,
1697105563.204019,225286.000000,1697105563.186236,0.000000,0.000000,0.000000,0.000000,0.000000,0.000000,,,,,,,,
1697105563.209822,225288.000000,1697105563.203719,0.000000,0.000000,0.000000,0.000000,0.000000,0.000000,,,,,,,,
1697105563.226530,225289.000000,1697105563.213522,0.000000,0.000000,0.000000,0.000000,0.000000,0.000000,,,,,,,,
1697105563.234197,225290.000000,1697105563.223421,0.000000,0.000000,0.000000,0.000000,0.000000,0.000000,,,,,,,,
1697105563.249018,225291.000000,1697105563.233516,0.000000,0.000000,0.000000,0.000000,0.000000,0.000000,,,,,,,,
1697105563.258031,225292.000000,1697105563.244130,0.000000,0.000000,0.000000,0.000000,0.000000,0.000000,,,,,,,,
1697105563.263098,225293.000000,1697105563.253648,0.000000,0.000000,0.000000,0.000000,0.000000,0.000000,,,,,,,,
1697105563.274871,225294.000000,1697105563.263416,0.000000,0.000000,0.000000,0.000000,0.000000,0.000000,,,,,,,,
1697105563.284992,225295.000000,1697105563.273407,0.000000,0.000000,0.000000,0.000000,0.000000,0.000000,,,,,,,,
1697105563.298520,225296.000000,1697105563.283518,0.000000,0.000000,0.000000,0.000000,0.000000,0.000000,,,,,,,,
1697105563.306412,225297.000000,1697105563.293386,0.000000,0.000000,0.000000,0.000000,0.000000,0.000000,,,,,,,,
1697105563.315796,225298.000000,1697105563.303513,0.000000,0.000000,0.000000,0.000000,0.000000,0.000000,,,,,,,,
1697105563.327151,225299.000000,1697105563.313522,0.000000,0.000000,0.000000,0.000000,0.000000,0.000000,,,,,,,,
1697105563.337794,225300.000000,1697105563.323527,0.000000,0.000000,0.000000,0.000000,0.000000,0.000000,,,,,,,,
1697105563.352948,225301.000000,1697105563.336159,0.000000,0.000000,0.000000,0.000000,0.000000,0.000000,,,,,,,,
1697105563.366266,225303.000000,1697105563.353525,0.000000,0.000000,0.000000,0.000000,0.000000,0.000000,,,,,,,,
1697105563.377723,225304.000000,1697105563.363521,0.000000,0.000000,0.000000,0.000000,0.000000,0.000000,,,,,,,,
1697105563.384838,225305.000000,1697105563.373531,0.000000,0.000000,0.000000,0.000000,0.000000,0.000000,,,,,,,,
1697105563.394879,225306.000000,1697105563.383526,0.000000,0.000000,0.000000,0.000000,0.000000,0.000000,,,,,,,,
1697105563.405157,225307.000000,1697105563.394602,0.000000,0.000000,0.000000,0.000000,0.000000,0.000000,,,,,,,,
1697105563.415073,225308.000000,1697105563.403303,0.000000,0.000000,0.000000,0.000000,0.000000,0.000000,,,,,,,,
1697105563.431695,225309.000000,1697105563.413399,0.000000,0.000000,0.000000,0.000000,0.000000,0.000000,,,,,,,,
1697105563.446500,225311.000000,1697105563.433536,0.000000,0.000000,0.000000,0.000000,0.000000,0.000000,,,,,,,,
1697105563.462923,225312.000000,1697105563.443945,0.000000,0.000000,0.000000,0.000000,0.000000,0.000000,,,,,,,,
1697105563.476375,225313.000000,1697105563.453536,0.000000,0.000000,0.000000,0.000000,0.000000,0.000000,,,,,,,,
1697105563.486866,225314.000000,1697105563.463538,0.000000,0.000000,0.000000,0.000000,0.000000,0.000000,,,,,,,,
1697105563.497933,225316.000000,1697105563.483420,0.000000,0.000000,0.000000,0.000000,0.000000,0.000000,,,,,,,,
1697105563.517800,225317.000000,1697105563.493664,0.000000,0.000000,0.000000,0.000000,0.000000,0.000000,,,,,,,,
1697105563.527919,225318.000000,1697105563.503413,0.000000,0.000000,0.000000,0.000000,0.000000,0.000000,,,,,,,,
1697105563.534861,225319.000000,1697105563.513397,0.000000,0.000000,0.000000,0.000000,0.000000,0.000000,,,,,,,,
1697105563.541335,225320.000000,1697105563.523519,0.000000,0.000000,0.000000,0.000000,0.000000,0.000000,,,,,,,,
1697105563.557852,225321.000000,1697105563.534615,0.000000,0.000000,0.000000,0.000000,0.000000,0.000000,,,,,,,,
1697105563.568968,225323.000000,1697105563.553533,0.000000,0.000000,0.000000,0.000000,0.000000,0.000000,,,,,,,,
1697105563.582366,225324.000000,1697105563.563663,0.000000,0.000000,0.000000,0.000000,0.000000,0.000000,,,,,,,,
1697105563.593444,225325.000000,1697105563.574871,0.000000,0.000000,0.000000,0.000000,0.000000,0.000000,,,,,,,,
1697105563.593778,225326.000000,1697105563.583424,0.000000,0.000000,0.000000,0.000000,0.000000,0.000000,,,,,,,,
1697105563.605144,225327.000000,1697105563.593530,0.000000,0.000000,0.000000,0.000000,0.000000,0.000000,,,,,,,,
1697105563.616971,225328.000000,1697105563.603610,0.000000,0.000000,0.000000,0.000000,0.000000,0.000000,,,,,,,,
1697105563.632512,225329.000000,1697105563.613522,0.000000,0.000000,0.000000,0.000000,0.000000,0.000000,,,,,,,,
1697105563.640919,225330.000000,1697105563.623404,0.000000,0.000000,0.000000,0.000000,0.000000,0.000000,,,,,,,,
1697105563.653040,225331.000000,1697105563.633650,0.000000,0.000000,0.000000,0.000000,0.000000,0.000000,,,,,,,,
1697105563.655207,225332.000000,1697105563.643649,0.000000,0.000000,0.000000,0.000000,0.000000,0.000000,,,,,,,,
1697105563.682149,225333.000000,1697105563.653525,0.000000,0.000000,0.000000,0.000000,0.000000,0.000000,,,,,,,,
1697105563.692392,225335.000000,1697105563.673637,0.000000,0.000000,0.000000,0.000000,0.000000,0.000000,,,,,,,,
1697105563.705263,225336.000000,1697105563.683543,0.000000,0.000000,0.000000,0.000000,0.000000,0.000000,,,,,,,,
1697105563.708328,225337.000000,1697105563.693406,0.000000,0.000000,0.000000,0.000000,0.000000,0.000000,,,,,,,,
1697105563.711751,225338.000000,1697105563.703570,0.000000,0.000000,0.000000,0.000000,0.000000,0.000000,,,,,,,,
1697105563.793014,225341.000000,1697105563.733505,0.000000,0.000000,0.000000,0.000000,0.000000,0.000000,,,,,,,,
1697105563.803865,225345.000000,1697105563.776484,0.000000,0.000000,0.000000,0.000000,0.000000,0.000000,,,,,,,,
1697105563.803880,225346.000000,1697105563.783320,0.000000,0.000000,0.000000,0.000000,0.000000,0.000000,,,,,,,,
1697105563.804389,225347.000000,1697105563.793519,0.000000,0.000000,0.000000,0.000000,0.000000,0.000000,,,,,,,,
1697105563.812236,225348.000000,1697105563.805510,0.000000,0.000000,0.000000,0.000000,0.000000,0.000000,,,,,,,,
1697105563.818399,225349.000000,1697105563.814662,0.000000,0.000000,0.000000,0.000000,0.000000,0.000000,,,,,,,,
1697105563.829038,225350.000000,1697105563.823534,0.000000,0.000000,0.000000,0.000000,0.000000,0.000000,,,,,,,,
1697105563.843595,225351.000000,1697105563.833532,0.000000,0.000000,0.000000,0.000000,0.000000,0.000000,,,,,,,,
1697105563.853335,225352.000000,1697105563.843655,0.000000,0.000000,0.000000,0.000000,0.000000,0.000000,,,,,,,,
1697105563.874152,225353.000000,1697105563.853341,0.000000,0.000000,0.000000,0.000000,0.000000,0.000000,,,,,,,,
1697105563.878845,225354.000000,1697105563.863511,0.000000,0.000000,0.000000,0.000000,0.000000,0.000000,,,,,,,,
1697105563.889046,225355.000000,1697105563.873658,0.000000,0.000000,0.000000,0.000000,0.000000,0.000000,,,,,,,,
1697105563.896914,225356.000000,1697105563.883527,0.000000,0.000000,0.000000,0.000000,0.000000,0.000000,,,,,,,,
1697105563.911487,225357.000000,1697105563.893539,0.000000,0.000000,0.000000,0.000000,0.000000,0.000000,,,,,,,,
1697105563.921773,225358.000000,1697105563.903621,0.000000,0.000000,0.000000,0.000000,0.000000,0.000000,,,,,,,,
1697105563.936843,225359.000000,1697105563.913554,0.000000,0.000000,0.000000,0.000000,0.000000,0.000000,,,,,,,,
1697105563.942114,225360.000000,1697105563.923533,0.000000,0.000000,0.000000,0.000000,0.000000,0.000000,,,,,,,,
1697105563.942902,225361.000000,1697105563.933513,0.000000,0.000000,0.000000,0.000000,0.000000,0.000000,,,,,,,,
1697105563.951587,225362.000000,1697105563.943745,0.000000,0.000000,0.000000,0.000000,0.000000,0.000000,,,,,,,,
1697105563.977294,225363.000000,1697105563.953526,0.000000,0.000000,0.000000,0.000000,0.000000,0.000000,,,,,,,,
1697105563.986824,225364.000000,1697105563.963578,0.000000,0.000000,0.000000,0.000000,0.000000,0.000000,,,,,,,,
1697105563.992112,225365.000000,1697105563.973410,0.000000,0.000000,0.000000,0.000000,0.000000,0.000000,,,,,,,,
