__time,/kms40_driver/wrench/header/seq,/kms40_driver/wrench/header/stamp,/kms40_driver/wrench/wrench/force/x,/kms40_driver/wrench/wrench/force/y,/kms40_driver/wrench/wrench/force/z,/kms40_driver/wrench/wrench/torque/x,/kms40_driver/wrench/wrench/torque/y,/kms40_driver/wrench/wrench/torque/z,/wrench/header/seq,/wrench/header/stamp,/wrench/wrench/force/x,/wrench/wrench/force/y,/wrench/wrench/force/z,/wrench/wrench/torque/x,/wrench/wrench/torque/y,/wrench/wrench/torque/z
1696594427.356751,741802.000000000,1696594427.355704784,-0.009000000,0.003000000,0.038000000,0.000000000,0.000000000,0.000000000,,,,,,,,
1696594427.358562,,,,,,,,,217150.000000000,1696594427.357270718,32.749773102,-6.424483174,4.724739992,-1.903110840,-7.364010721,1.010706425
1696594427.358963,741803.000000000,1696594427.357275486,-0.009000000,0.004000000,0.034000000,0.000000000,0.000000000,0.000000000,,,,,,,,
1696594427.360386,741804.000000000,1696594427.359284639,-0.009000000,0.005000000,0.030000000,0.000000000,0.000000000,0.000000000,,,,,,,,
1696594427.362309,741805.000000000,1696594427.361279249,-0.008000000,0.006000000,0.025000000,0.000000000,0.000000000,0.000000000,,,,,,,,
1696594427.364224,741806.000000000,1696594427.363262653,-0.008000000,0.007000000,0.021000000,0.000000000,0.000000000,0.000000000,,,,,,,,
1696594427.366240,741807.000000000,1696594427.365280628,-0.008000000,0.008000000,0.016000000,0.000000000,0.000000000,0.000000000,,,,,,,,
1696594427.367108,,,,,,,,,217151.000000000,1696594427.365289927,32.702845929,-6.630053891,5.335049003,-1.899432757,-7.483388983,0.916071127
1696594427.368928,741808.000000000,1696594427.367304087,-0.007000000,0.009000000,0.010000000,0.000000000,0.000000000,0.000000000,,,,,,,,
1696594427.370236,741809.000000000,1696594427.369284391,-0.007000000,0.011000000,0.004000000,0.000000000,0.000000000,0.000000000,,,,,,,,
1696594427.372202,741810.000000000,1696594427.371266127,-0.007000000,0.012000000,-0.002000000,0.000000000,0.000000000,0.000000000,,,,,,,,
1696594427.374290,741811.000000000,1696594427.373273373,-0.007000000,0.013000000,-0.007000000,0.000000000,0.000000000,0.000000000,,,,,,,,
1696594427.374798,,,,,,,,,217152.000000000,1696594427.373266697,32.641881928,-6.190201331,4.733906211,-1.694632239,-7.347070290,0.994311913
1696594427.376249,741812.000000000,1696594427.375295401,-0.008000000,0.014000000,-0.014000000,0.000000000,0.000000000,0.000000000,,,,,,,,
1696594427.378275,741813.000000000,1696594427.377271414,-0.009000000,0.015000000,-0.018000000,0.000000000,0.000000000,0.000000000,,,,,,,,
1696594427.380243,741814.000000000,1696594427.379267216,-0.009000000,0.015000000,-0.025000000,0.000000000,0.000000000,0.000000000,,,,,,,,
1696594427.382315,741815.000000000,1696594427.381294250,-0.008000000,0.016000000,-0.029000000,0.000000000,0.000000000,0.000000000,,,,,,,,
1696594427.382710,,,,,,,,,217153.000000000,1696594427.381311417,33.177039798,-6.621023622,4.716070605,-1.880664067,-7.801393767,0.945943251
1696594427.384376,741816.000000000,1696594427.383288860,-0.007000000,0.017000000,-0.035000000,0.000000000,0.000000000,0.000000000,,,,,,,,
1696594427.386613,741817.000000000,1696594427.385278225,-0.006000000,0.018000000,-0.039000000,0.000000000,0.000000000,0.000000000,,,,,,,,
1696594427.389066,741818.000000000,1696594427.387268543,-0.005000000,0.019000000,-0.044000000,0.000000000,0.000000000,0.000000000,,,,,,,,
1696594427.390316,,,,,,,,,217154.000000000,1696594427.389301777,32.892004893,-6.582308767,4.718445588,-1.850572239,-7.483313688,0.861641428
1696594427.390653,741819.000000000,1696594427.389320850,-0.004000000,0.019000000,-0.047000000,0.000000000,0.000000000,0.000000000,,,,,,,,
1696594427.392310,741820.000000000,1696594427.391278028,-0.003000000,0.020000000,-0.051000000,0.000000000,0.000000000,0.001000000,,,,,,,,
1696594427.394865,741821.000000000,1696594427.393291473,-0.003000000,0.021000000,-0.054000000,0.000000000,0.000000000,0.001000000,,,,,,,,
1696594427.396385,741822.000000000,1696594427.395291567,-0.003000000,0.021000000,-0.059000000,0.000000000,0.000000000,0.001000000,,,,,,,,
1696594427.398311,741823.000000000,1696594427.397273540,-0.004000000,0.021000000,-0.061000000,0.000000000,0.000000000,0.001000000,,,,,,,,
1696594427.398923,,,,,,,,,217155.000000000,1696594427.397311211,32.774294884,-5.394602722,4.549765402,-1.446900958,-7.403123904,0.932921028
1696594427.400312,741824.000000000,1696594427.399271250,-0.004000000,0.021000000,-0.064000000,0.000000000,0.000000000,0.001000000,,,,,,,,
1696594427.402287,741825.000000000,1696594427.401274443,-0.003000000,0.021000000,-0.066000000,0.000000000,0.000000000,0.001000000,,,,,,,,
1696594427.404249,741826.000000000,1696594427.403262615,-0.003000000,0.021000000,-0.065000000,0.000000000,0.000000000,0.001000000,,,,,,,,
1696594427.406291,741827.000000000,1696594427.405276775,-0.002000000,0.021000000,-0.066000000,0.000000000,0.000000000,0.001000000,,,,,,,,
1696594427.406649,,,,,,,,,217156.000000000,1696594427.405440331,32.390115131,-5.560128024,5.250065497,-1.566265763,-7.335149017,0.959896302
1696594427.408658,741828.000000000,1696594427.407291174,-0.001000000,0.021000000,-0.065000000,0.000000000,0.000000000,0.001000000,,,,,,,,
1696594427.410228,741829.000000000,1696594427.409266949,0.000000000,0.020000000,-0.063000000,0.000000000,0.000000000,0.001000000,,,,,,,,
1696594427.412247,741830.000000000,1696594427.411294460,0.000000000,0.020000000,-0.061000000,0.000000000,0.000000000,0.001000000,,,,,,,,
1696594427.414648,741831.000000000,1696594427.413312197,0.000000000,0.020000000,-0.059000000,0.000000000,0.000000000,0.001000000,,,,,,,,
1696594427.415617,,,,,,,,,217157.000000000,1696594427.413330555,33.196891398,-6.297372135,4.653471117,-1.733898531,-7.665702075,1.011892778
1696594427.416281,741832.000000000,1696594427.415283680,0.001000000,0.019000000,-0.057000000,0.000000000,0.000000000,0.001000000,,,,,,,,
1696594427.418238,741833.000000000,1696594427.417268991,0.001000000,0.018000000,-0.055000000,0.000000000,0.000000000,0.001000000,,,,,,,,
1696594427.420398,741834.000000000,1696594427.419289827,0.000000000,0.018000000,-0.051000000,0.000000000,0.000000000,0.001000000,,,,,,,,
1696594427.422208,741835.000000000,1696594427.421270370,0.000000000,0.016000000,-0.048000000,0.000000000,0.000000000,0.000000000,,,,,,,,
1696594427.422600,,,,,,,,,217158.000000000,1696594427.421325445,32.912971549,-6.244648701,4.364204440,-1.727464478,-7.599608474,0.968710849
1696594427.424300,741836.000000000,1696594427.423268318,0.000000000,0.016000000,-0.044000000,0.000000000,0.000000000,0.000000000,,,,,,,,
1696594427.426235,741837.000000000,1696594427.425270557,0.000000000,0.015000000,-0.039000000,0.000000000,0.000000000,0.000000000,,,,,,,,
1696594427.428997,741838.000000000,1696594427.427250862,0.000000000,0.014000000,-0.034000000,0.000000000,0.000000000,0.000000000,,,,,,,,
1696594427.430319,741839.000000000,1696594427.429284334,0.000000000,0.013000000,-0.029000000,0.000000000,0.000000000,0.000000000,,,,,,,,
1696594427.430910,,,,,,,,,217159.000000000,1696594427.429473400,33.150464615,-6.020893098,4.886928214,-1.648604090,-7.614042945,0.885470161
1696594427.432621,741840.000000000,1696594427.431262970,0.000000000,0.012000000,-0.023000000,0.000000000,0.000000000,0.000000000,,,,,,,,
1696594427.434288,741841.000000000,1696594427.433293104,0.000000000,0.011000000,-0.017000000,0.000000000,0.000000000,0.000000000,,,,,,,,
1696594427.436433,741842.000000000,1696594427.435268879,0.000000000,0.011000000,-0.011000000,0.000000000,0.000000000,0.000000000,,,,,,,,
1696594427.438335,741843.000000000,1696594427.437280178,0.000000000,0.010000000,-0.006000000,0.000000000,0.000000000,0.000000000,,,,,,,,
1696594427.439023,,,,,,,,,217160.000000000,1696594427.437268257,33.780463487,-6.075360366,4.575782192,-1.698116334,-8.204271391,1.067926372
1696594427.440262,741844.000000000,1696594427.439274549,0.000000000,0.009000000,-0.001000000,0.000000000,0.000000000,0.000000000,,,,,,,,
1696594427.442364,741845.000000000,1696594427.441352129,-0.001000000,0.008000000,0.004000000,0.000000000,0.000000000,0.000000000,,,,,,,,
1696594427.444353,741846.000000000,1696594427.443325758,-0.002000000,0.007000000,0.008000000,0.000000000,0.000000000,0.000000000,,,,,,,,
1696594427.446623,741847.000000000,1696594427.445336819,-0.003000000,0.006000000,0.013000000,0.000000000,0.000000000,0.000000000,,,,,,,,
1696594427.447502,,,,,,,,,217161.000000000,1696594427.445270777,32.983250849,-6.369965460,5.048814227,-1.761833736,-7.561841546,0.777743766
1696594427.449177,741848.000000000,1696594427.447329044,-0.004000000,0.006000000,0.018000000,0.000000000,0.000000000,0.000000000,,,,,,,,
1696594427.450339,741849.000000000,1696594427.449326277,-0.004000000,0.005000000,0.023000000,0.000000000,0.000000000,0.000000000,,,,,,,,
1696594427.453150,741850.000000000,1696594427.451320410,-0.005000000,0.004000000,0.028000000,0.000000000,0.000000000,0.000000000,,,,,,,,
1696594427.459228,741851.000000000,1696594427.453337908,-0.004000000,0.004000000,0.032000000,0.000000000,0.000000000,0.000000000,,,,,,,,
1696594427.461377,,,,,,,,,217162.000000000,1696594427.453274727,33.274744947,-6.250439669,4.501264211,-1.703205282,-7.765124918,0.888161175
1696594427.461411,741852.000000000,1696594427.455336094,-0.004000000,0.003000000,0.037000000,0.000000000,0.000000000,0.000000000,,,,,,,,
1696594427.461488,741853.000000000,1696594427.457337141,-0.004000000,0.003000000,0.041000000,0.000000000,0.000000000,-0.001000000,,,,,,,,
1696594427.461752,741854.000000000,1696594427.459317207,-0.005000000,0.003000000,0.045000000,0.000000000,0.000000000,-0.001000000,,,,,,,,
1696594427.463751,741855.000000000,1696594427.461329937,-0.005000000,0.002000000,0.047000000,0.000000000,0.000000000,-0.001000000,,,,,,,,
1696594427.464430,,,,,,,,,217163.000000000,1696594427.461328506,32.346302492,-5.882217867,5.096657770,-1.642188586,-7.451894977,0.811330509
1696594427.465264,741856.000000000,1696594427.463319540,-0.006000000,0.002000000,0.049000000,0.000000000,0.000000000,-0.001000000,,,,,,,,
1696594427.466328,741857.000000000,1696594427.465333462,-0.008000000,0.001000000,0.052000000,0.000000000,0.000000000,-0.001000000,,,,,,,,
1696594427.469170,741858.000000000,1696594427.467319965,-0.008000000,0.001000000,0.053000000,0.000000000,0.000000000,-0.001000000,,,,,,,,
1696594427.470353,741859.000000000,1696594427.469329834,-0.009000000,0.001000000,0.054000000,0.000000000,0.000000000,-0.001000000,,,,,,,,
1696594427.470731,,,,,,,,,217164.000000000,1696594427.469259501,32.623889655,-6.178191316,4.447440251,-1.687660141,-7.267852240,0.870394346
1696594427.472422,741860.000000000,1696594427.471347570,-0.010000000,0.001000000,0.057000000,0.000000000,0.000000000,-0.001000000,,,,,,,,
1696594427.474327,741861.000000000,1696594427.473337650,-0.010000000,0.000000000,0.058000000,0.000000000,0.000000000,-0.001000000,,,,,,,,
1696594427.476301,741862.000000000,1696594427.475322485,-0.009000000,0.000000000,0.058000000,0.000000000,0.000000000,-0.001000000,,,,,,,,
1696594427.478676,741863.000000000,1696594427.477340937,-0.009000000,0.000000000,0.060000000,0.000000000,0.000000000,-0.001000000,,,,,,,,
1696594427.479044,,,,,,,,,217165.000000000,1696594427.477309227,32.593743880,-5.347977234,4.454543151,-1.374982021,-7.373403469,0.931568753
1696594427.480349,741864.000000000,1696594427.479343891,-0.008000000,0.000000000,0.061000000,0.000000000,0.000000000,-0.001000000,,,,,,,,
1696594427.482609,741865.000000000,1696594427.481308699,-0.008000000,0.000000000,0.061000000,0.000000000,0.000000000,-0.001000000,,,,,,,,
1696594427.484338,741866.000000000,1696594427.483326674,-0.008000000,0.000000000,0.061000000,0.000000000,0.000000000,-0.001000000,,,,,,,,
1696594427.486504,741867.000000000,1696594427.485337019,-0.008000000,0.000000000,0.060000000,0.000000000,0.000000000,-0.001000000,,,,,,,,
1696594427.486517,,,,,,,,,217166.000000000,1696594427.485273838,32.716587119,-6.049469718,4.679445782,-1.685410845,-7.450384571,1.034683892
1696594427.488948,741868.000000000,1696594427.487321854,-0.008000000,0.000000000,0.059000000,0.000000000,0.000000000,-0.001000000,,,,,,,,
1696594427.490343,741869.000000000,1696594427.489325523,-0.009000000,0.000000000,0.059000000,0.000000000,0.000000000,-0.001000000,,,,,,,,
1696594427.492306,741870.000000000,1696594427.491327524,-0.009000000,0.000000000,0.058000000,0.000000000,0.000000000,-0.001000000,,,,,,,,
1696594427.494788,,,,,,,,,217167.000000000,1696594427.493290424,33.084563882,-6.334690663,4.592576587,-1.747725499,-7.657963053,0.929164697
1696594427.494977,741871.000000000,1696594427.493350506,-0.009000000,0.000000000,0.057000000,0.000000000,0.000000000,-0.001000000,,,,,,,,
1696594427.496383,741872.000000000,1696594427.495325089,-0.009000000,0.000000000,0.058000000,0.000000000,0.000000000,-0.001000000,,,,,,,,
1696594427.498353,741873.000000000,1696594427.497304201,-0.008000000,0.000000000,0.057000000,0.000000000,0.000000000,-0.001000000,,,,,,,,
1696594427.500268,741874.000000000,1696594427.499311209,-0.007000000,0.000000000,0.057000000,0.000000000,0.000000000,-0.001000000,,,,,,,,
1696594427.502564,741875.000000000,1696594427.501375914,-0.006000000,0.000000000,0.058000000,0.000000000,0.000000000,-0.001000000,,,,,,,,
1696594427.503103,,,,,,,,,217168.000000000,1696594427.501262903,32.400587964,-5.910188681,4.494905229,-1.619167851,-7.235516640,1.004310303
1696594427.504833,741876.000000000,1696594427.503297567,-0.005000000,0.000000000,0.057000000,0.000000000,0.000000000,-0.001000000,,,,,,,,
1696594427.506280,741877.000000000,1696594427.505274296,-0.004000000,0.000000000,0.056000000,0.000000000,0.000000000,-0.001000000,,,,,,,,
1696594427.508650,741878.000000000,1696594427.507284880,-0.004000000,0.000000000,0.056000000,0.000000000,0.000000000,-0.001000000,,,,,,,,
1696594427.510371,741879.000000000,1696594427.509313107,-0.004000000,0.000000000,0.054000000,0.000000000,0.000000000,-0.001000000,,,,,,,,
1696594427.510767,,,,,,,,,217169.000000000,1696594427.509468555,33.085844140,-5.916250462,4.045041187,-1.662002822,-7.648008764,0.994172889
1696594427.512308,741880.000000000,1696594427.511318207,-0.004000000,0.000000000,0.054000000,0.000000000,0.000000000,-0.001000000,,,,,,,,
1696594427.514288,741881.000000000,1696594427.513308764,-0.004000000,0.000000000,0.053000000,0.000000000,0.000000000,-0.001000000,,,,,,,,
1696594427.516253,741882.000000000,1696594427.515265942,-0.004000000,0.000000000,0.053000000,0.000000000,0.000000000,-0.001000000,,,,,,,,
1696594427.518328,741883.000000000,1696594427.517315388,-0.004000000,0.000000000,0.053000000,0.000000000,0.000000000,-0.001000000,,,,,,,,
1696594427.518696,,,,,,,,,217170.000000000,1696594427.517358541,32.588279227,-5.924333733,4.526258775,-1.651158683,-7.243344094,0.991663765
1696594427.520284,741884.000000000,1696594427.519285917,-0.003000000,0.000000000,0.053000000,0.000000000,0.000000000,-0.001000000,,,,,,,,
1696594427.522356,741885.000000000,1696594427.521327734,-0.001000000,0.000000000,0.053000000,0.000000000,0.000000000,-0.001000000,,,,,,,,
1696594427.524256,741886.000000000,1696594427.523276567,0.000000000,0.000000000,0.053000000,0.000000000,0.000000000,-0.001000000,,,,,,,,
1696594427.526344,741887.000000000,1696594427.525325298,0.000000000,0.000000000,0.053000000,0.000000000,0.000000000,-0.001000000,,,,,,,,
1696594427.526681,,,,,,,,,217171.000000000,1696594427.525302410,33.291455369,-6.454041973,4.809649648,-1.819688003,-7.761510393,0.958794612
1696594427.529137,741888.000000000,1696594427.527291298,0.001000000,0.001000000,0.053000000,0.000000000,0.000000000,-0.001000000,,,,,,,,
1696594427.530221,741889.000000000,1696594427.529273272,0.001000000,0.001000000,0.053000000,0.000000000,0.000000000,-0.001000000,,,,,,,,
1696594427.532218,741890.000000000,1696594427.531259060,0.002000000,0.001000000,0.052000000,0.000000000,0.000000000,-0.001000000,,,,,,,,
1696594427.534325,,,,,,,,,217172.000000000,1696594427.533295393,33.187575713,-6.425018833,4.106189007,-1.804941293,-7.651800983,0.916757941
1696594427.534481,741891.000000000,1696594427.533324718,0.001000000,0.001000000,0.052000000,0.000000000,0.000000000,-0.001000000,,,,,,,,
1696594427.536468,741892.000000000,1696594427.535297394,0.001000000,0.001000000,0.051000000,0.000000000,0.000000000,-0.001000000,,,,,,,,
1696594427.538215,741893.000000000,1696594427.537261009,0.001000000,0.002000000,0.050000000,0.000000000,0.000000000,0.000000000,,,,,,,,
1696594427.540217,741894.000000000,1696594427.539242029,0.002000000,0.002000000,0.050000000,0.000000000,0.000000000,0.000000000,,,,,,,,
1696594427.542507,741895.000000000,1696594427.541270018,0.003000000,0.002000000,0.050000000,0.000000000,0.000000000,0.000000000,,,,,,,,
1696594427.543023,,,,,,,,,217173.000000000,1696594427.541287422,32.752162751,-6.021184951,4.755130038,-1.647524634,-7.425082188,0.979630938
1696594427.544291,741896.000000000,1696594427.543298244,0.004000000,0.003000000,0.049000000,0.000000000,0.000000000,0.000000000,,,,,,,,
1696594427.546412,741897.000000000,1696594427.545300245,0.005000000,0.003000000,0.050000000,0.000000000,0.000000000,-0.001000000,,,,,,,,
1696594427.550398,741898.000000000,1696594427.547292709,0.006000000,0.004000000,0.050000000,0.000000000,0.000000000,0.000000000,,,,,,,,
1696594427.550959,741899.000000000,1696594427.549256802,0.007000000,0.004000000,0.050000000,0.000000000,0.000000000,0.000000000,,,,,,,,
1696594427.551234,,,,,,,,,217174.000000000,1696594427.549322844,32.835829760,-6.376979424,5.003278610,-1.806547938,-7.577794096,0.996983076
1696594427.552267,741900.000000000,1696594427.551266193,0.008000000,0.005000000,0.049000000,0.000000000,0.000000000,0.000000000,,,,,,,,
1696594427.554335,741901.000000000,1696594427.553263187,0.008000000,0.005000000,0.048000000,0.000000000,0.000000000,0.000000000,,,,,,,,
1696594427.556423,741902.000000000,1696594427.555364609,0.008000000,0.005000000,0.048000000,0.000000000,0.000000000,0.000000000,,,,,,,,
1696594427.558309,741903.000000000,1696594427.557266474,0.007000000,0.005000000,0.047000000,0.000000000,0.000000000,0.000000000,,,,,,,,
1696594427.558686,,,,,,,,,217175.000000000,1696594427.557327509,32.646411200,-5.833329340,4.093995616,-1.589392604,-7.340079077,0.922422337
1696594427.560338,741904.000000000,1696594427.559304714,0.007000000,0.006000000,0.046000000,0.000000000,0.000000000,0.000000000,,,,,,,,
1696594427.562381,741905.000000000,1696594427.561325073,0.008000000,0.006000000,0.045000000,0.000000000,0.000000000,0.000000000,,,,,,,,
1696594427.564272,741906.000000000,1696594427.563270092,0.008000000,0.006000000,0.045000000,0.000000000,0.000000000,0.000000000,,,,,,,,
1696594427.566384,741907.000000000,1696594427.565351963,0.009000000,0.006000000,0.045000000,0.000000000,0.000000000,0.000000000,,,,,,,,
1696594427.566412,,,,,,,,,217176.000000000,1696594427.565259695,31.704606548,-6.699512172,4.808589387,-1.891693357,-6.882889904,0.952750872
1696594427.568874,741908.000000000,1696594427.567294836,0.010000000,0.007000000,0.044000000,0.000000000,0.000000000,0.000000000,,,,,,,,
1696594427.570426,741909.000000000,1696594427.569293261,0.011000000,0.007000000,0.044000000,0.000000000,0.000000000,0.000000000,,,,,,,,
1696594427.572345,741910.000000000,1696594427.571278095,0.012000000,0.008000000,0.043000000,0.000000000,0.000000000,0.000000000,,,,,,,,
1696594427.574343,741911.000000000,1696594427.573298216,0.012000000,0.008000000,0.043000000,0.000000000,0.000000000,0.000000000,,,,,,,,
1696594427.574894,,,,,,,,,217177.000000000,1696594427.573318243,32.902228031,-5.625404924,4.164033344,-1.473958716,-7.511601963,0.880656822
1696594427.576323,741912.000000000,1696594427.575275183,0.012000000,0.008000000,0.042000000,0.000000000,0.000000000,0.000000000,,,,,,,,
1696594427.578333,741913.000000000,1696594427.577328205,0.012000000,0.009000000,0.042000000,0.000000000,0.000000000,0.000000000,,,,,,,,
1696594427.580233,741914.000000000,1696594427.579264402,0.012000000,0.009000000,0.040000000,0.000000000,0.000000000,0.000000000,,,,,,,,
1696594427.582248,741915.000000000,1696594427.581278324,0.011000000,0.009000000,0.040000000,0.000000000,0.000000000,0.000000000,,,,,,,,
1696594427.582835,,,,,,,,,217178.000000000,1696594427.581432104,32.766755603,-5.430578281,4.612389965,-1.460798256,-7.447399189,0.919456314
1696594427.585016,741916.000000000,1696594427.583285809,0.010000000,0.009000000,0.039000000,0.000000000,0.000000000,0.000000000,,,,,,,,
1696594427.586394,741917.000000000,1696594427.585379362,0.010000000,0.009000000,0.039000000,0.000000000,0.000000000,0.000000000,,,,,,,,
1696594427.588885,741918.000000000,1696594427.587299109,0.010000000,0.009000000,0.039000000,0.000000000,0.000000000,0.000000000,,,,,,,,
1696594427.590431,741919.000000000,1696594427.589264870,0.011000000,0.010000000,0.039000000,0.000000000,0.000000000,0.000000000,,,,,,,,
1696594427.590967,,,,,,,,,217179.000000000,1696594427.589485884,33.009364983,-6.155080265,4.732989099,-1.696907055,-7.593489366,1.037144181
1696594427.592253,741920.000000000,1696594427.591271400,0.011000000,0.010000000,0.040000000,0.000000000,0.000000000,0.000000000,,,,,,,,
1696594427.594497,741921.000000000,1696594427.593304157,0.012000000,0.010000000,0.039000000,0.000000000,0.000000000,0.000000000,,,,,,,,
1696594427.596240,741922.000000000,1696594427.595272303,0.012000000,0.011000000,0.039000000,0.000000000,0.000000000,0.000000000,,,,,,,,
1696594427.598292,741923.000000000,1696594427.597292662,0.011000000,0.011000000,0.040000000,0.000000000,0.000000000,0.000000000,,,,,,,,
1696594427.598767,,,,,,,,,217180.000000000,1696594427.597266912,33.092889933,-6.800467827,5.571730297,-1.948879005,-7.664225445,0.864628324
1696594427.600255,741924.000000000,1696594427.599271536,0.010000000,0.011000000,0.039000000,0.000000000,0.000000000,0.000000000,,,,,,,,
1696594427.602308,741925.000000000,1696594427.601289749,0.009000000,0.011000000,0.038000000,0.000000000,0.000000000,0.000000000,,,,,,,,
1696594427.604339,741926.000000000,1696594427.603279591,0.008000000,0.011000000,0.038000000,0.000000000,0.000000000,0.000000000,,,,,,,,
1696594427.606317,741927.000000000,1696594427.605278015,0.007000000,0.011000000,0.038000000,0.000000000,0.000000000,0.000000000,,,,,,,,
1696594427.606769,,,,,,,,,217181.000000000,1696594427.605466604,33.185342739,-5.982773049,4.226895632,-1.673109139,-7.686780222,0.940296637
1696594427.608808,741928.000000000,1696594427.607253790,0.005000000,0.012000000,0.039000000,0.000000000,0.000000000,0.000000000,,,,,,,,
1696594427.610447,741929.000000000,1696594427.609306097,0.005000000,0.012000000,0.040000000,0.000000000,0.000000000,0.000000000,,,,,,,,
1696594427.612331,741930.000000000,1696594427.611277342,0.005000000,0.012000000,0.039000000,0.000000000,0.000000000,0.000000000,,,,,,,,
1696594427.614412,741931.000000000,1696594427.613293171,0.005000000,0.013000000,0.040000000,0.000000000,0.000000000,0.000000000,,,,,,,,
1696594427.614967,,,,,,,,,217182.000000000,1696594427.613327503,32.863515128,-5.811584457,4.123236433,-1.624003283,-7.505128716,0.964593735
1696594427.616312,741932.000000000,1696594427.615274191,0.005000000,0.013000000,0.041000000,0.000000000,0.000000000,0.000000000,,,,,,,,
1696594427.618318,741933.000000000,1696594427.617300987,0.004000000,0.014000000,0.040000000,0.000000000,0.000000000,0.000000000,,,,,,,,
1696594427.620388,741934.000000000,1696594427.619283676,0.004000000,0.014000000,0.040000000,0.000000000,0.000000000,0.000000000,,,,,,,,
1696594427.622366,741935.000000000,1696594427.621289492,0.003000000,0.014000000,0.040000000,0.000000000,0.000000000,0.000000000,,,,,,,,
1696594427.622745,,,,,,,,,217183.000000000,1696594427.621295691,32.822684454,-5.699930017,4.235543865,-1.514687800,-7.453644065,0.908401214
1696594427.624329,741936.000000000,1696594427.623269796,0.002000000,0.015000000,0.038000000,0.000000000,0.000000000,0.000000000,,,,,,,,
1696594427.626260,741937.000000000,1696594427.625263453,0.000000000,0.015000000,0.038000000,0.000000000,0.000000000,0.000000000,,,,,,,,
1696594427.629320,741938.000000000,1696594427.627358437,-0.001000000,0.016000000,0.038000000,0.000000000,0.000000000,0.000000000,,,,,,,,
1696594427.630416,741939.000000000,1696594427.629324198,-0.002000000,0.016000000,0.035000000,0.000000000,0.000000000,0.000000000,,,,,,,,
1696594427.630612,,,,,,,,,217184.000000000,1696594427.629275084,32.560973325,-6.079893616,4.856878067,-1.641218993,-7.318482551,0.910430740
1696594427.632427,741940.000000000,1696594427.631349325,-0.003000000,0.016000000,0.035000000,0.000000000,0.000000000,0.000000000,,,,,,,,
1696594427.634911,741941.000000000,1696594427.633313179,-0.003000000,0.017000000,0.034000000,0.000000000,0.000000000,0.000000000,,,,,,,,
1696594427.636441,741942.000000000,1696594427.635425806,-0.003000000,0.018000000,0.033000000,0.000000000,0.000000000,0.000000000,,,,,,,,
1696594427.638413,741943.000000000,1696594427.637329102,-0.003000000,0.019000000,0.032000000,0.000000000,0.000000000,0.000000000,,,,,,,,
1696594427.639020,,,,,,,,,217185.000000000,1696594427.637295961,32.283121914,-6.172138900,4.960795992,-1.718156148,-7.361763252,0.964797033
1696594427.640301,741944.000000000,1696594427.639304638,-0.003000000,0.020000000,0.031000000,0.000000000,0.000000000,0.000000000,,,,,,,,
1696594427.642235,741945.000000000,1696594427.641282797,-0.004000000,0.020000000,0.029000000,0.000000000,0.000000000,0.000000000,,,,,,,,
1696594427.644496,741946.000000000,1696594427.643430233,-0.005000000,0.021000000,0.027000000,0.000000000,0.000000000,0.000000000,,,,,,,,
1696594427.647492,741947.000000000,1696594427.645523787,-0.006000000,0.022000000,0.024000000,0.000000000,0.000000000,0.000000000,,,,,,,,
1696594427.647504,,,,,,,,,217186.000000000,1696594427.645304918,33.330213896,-6.292670229,4.335593308,-1.798281348,-7.612093942,0.902571766
1696594427.652302,741948.000000000,1696594427.647639036,-0.007000000,0.023000000,0.023000000,0.000000000,0.000000000,0.000000000,,,,,,,,
1696594427.652311,741949.000000000,1696594427.649255991,-0.008000000,0.023000000,0.019000000,0.000000000,0.000000000,0.000000000,,,,,,,,
1696594427.652429,741950.000000000,1696594427.651289701,-0.009000000,0.023000000,0.016000000,0.000000000,0.000000000,0.000000000,,,,,,,,
1696594427.654464,741951.000000000,1696594427.653360367,-0.010000000,0.024000000,0.014000000,0.000000000,0.000000000,0.000000000,,,,,,,,
1696594427.654676,,,,,,,,,217187.000000000,1696594427.653305054,33.089229343,-5.414414175,4.254898685,-1.438938667,-7.525803607,0.893492412
1696594427.656328,741952.000000000,1696594427.655301094,-0.010000000,0.025000000,0.011000000,0.000000000,0.000000000,0.000000000,,,,,,,,
1696594427.658294,741953.000000000,1696594427.657303095,-0.010000000,0.026000000,0.010000000,0.000000000,0.000000000,0.000000000,,,,,,,,
1696594427.660368,741954.000000000,1696594427.659306526,-0.010000000,0.027000000,0.008000000,0.000000000,0.000000000,0.000000000,,,,,,,,
1696594427.662295,741955.000000000,1696594427.661322355,-0.010000000,0.028000000,0.006000000,0.000000000,0.000000000,0.000000000,,,,,,,,
1696594427.662447,,,,,,,,,217188.000000000,1696594427.661277771,32.885057586,-6.579891016,4.718809910,-1.878133811,-7.554579196,0.806598472
1696594427.664456,741956.000000000,1696594427.663270473,-0.010000000,0.029000000,0.003000000,0.000000000,0.000000000,0.000000000,,,,,,,,
1696594427.666269,741957.000000000,1696594427.665302038,-0.010000000,0.029000000,0.001000000,0.000000000,0.000000000,0.000000000,,,,,,,,
1696594427.668803,741958.000000000,1696594427.667294741,-0.011000000,0.029000000,-0.001000000,0.000000000,0.000000000,0.000000000,,,,,,,,
1696594427.670284,,,,,,,,,217189.000000000,1696594427.669296265,32.672938127,-6.254503803,4.785063238,-1.731822802,-7.368090412,0.898821828
1696594427.670467,741959.000000000,1696594427.669360876,-0.011000000,0.030000000,-0.004000000,0.000000000,0.000000000,0.000000000,,,,,,,,
1696594427.672259,741960.000000000,1696594427.671292067,-0.012000000,0.031000000,-0.005000000,0.000000000,0.000000000,0.000000000,,,,,,,,
1696594427.674373,741961.000000000,1696594427.673315287,-0.013000000,0.031000000,-0.008000000,0.000000000,0.000000000,0.000000000,,,,,,,,
1696594427.676264,741962.000000000,1696594427.675308704,-0.014000000,0.031000000,-0.009000000,0.000000000,0.000000000,0.000000000,,,,,,,,
1696594427.678331,741963.000000000,1696594427.677359104,-0.014000000,0.032000000,-0.010000000,0.000000000,0.000000000,0.000000000,,,,,,,,
1696594427.678894,,,,,,,,,217190.000000000,1696594427.677296162,32.743737547,-6.876337576,4.598884463,-1.984353696,-7.459662330,0.932225128
1696594427.680266,741964.000000000,1696594427.679308653,-0.014000000,0.032000000,-0.012000000,0.000000000,0.000000000,0.000000000,,,,,,,,
1696594427.682237,741965.000000000,1696594427.681285381,-0.013000000,0.032000000,-0.012000000,0.000000000,0.000000000,0.000000000,,,,,,,,
1696594427.684328,741966.000000000,1696594427.683361292,-0.012000000,0.032000000,-0.012000000,0.000000000,0.000000000,0.000000000,,,,,,,,
1696594427.687636,741967.000000000,1696594427.685458899,-0.012000000,0.033000000,-0.011000000,0.000000000,0.000000000,0.000000000,,,,,,,,
1696594427.688043,,,,,,,,,217191.000000000,1696594427.685279846,32.656405837,-6.233772521,4.351753182,-1.750562378,-7.456960173,1.008521980
1696594427.689113,741968.000000000,1696594427.687290192,-0.011000000,0.033000000,-0.012000000,0.000000000,0.000000000,0.000000000,,,,,,,,
1696594427.691182,741969.000000000,1696594427.689354897,-0.012000000,0.033000000,-0.011000000,0.000000000,0.000000000,0.000000000,,,,,,,,
1696594427.692254,741970.000000000,1696594427.691300392,-0.012000000,0.032000000,-0.011000000,0.000000000,0.000000000,0.000000000,,,,,,,,
1696594427.694841,741971.000000000,1696594427.693405628,-0.012000000,0.032000000,-0.010000000,0.000000000,0.000000000,0.000000000,,,,,,,,
1696594427.695191,,,,,,,,,217192.000000000,1696594427.693285227,33.262959440,-6.098203562,4.106102535,-1.700853594,-7.740948449,0.900489301
1696594427.696589,741972.000000000,1696594427.695313931,-0.013000000,0.031000000,-0.010000000,0.000000000,0.000000000,0.000000000,,,,,,,,
1696594427.698325,741973.000000000,1696594427.697325468,-0.014000000,0.031000000,-0.008000000,0.000000000,0.000000000,0.000000000,,,,,,,,
1696594427.700243,741974.000000000,1696594427.699273825,-0.014000000,0.030000000,-0.006000000,0.000000000,0.000000000,0.000000000,,,,,,,,
1696594427.702286,741975.000000000,1696594427.701297998,-0.013000000,0.030000000,-0.004000000,0.000000000,0.000000000,0.000000000,,,,,,,,
1696594427.702849,,,,,,,,,217193.000000000,1696594427.701290607,32.644395913,-6.686233205,4.528671928,-1.941689192,-7.331288710,0.902522414
1696594427.704603,741976.000000000,1696594427.703328609,-0.012000000,0.029000000,0.000000000,0.000000000,0.000000000,0.000000000,,,,,,,,
1696594427.706270,741977.000000000,1696594427.705290079,-0.011000000,0.029000000,0.001000000,0.000000000,0.000000000,0.000000000,,,,,,,,
1696594427.709039,741978.000000000,1696594427.707280397,-0.010000000,0.028000000,0.004000000,0.000000000,0.000000000,0.000000000,,,,,,,,
1696594427.710416,741979.000000000,1696594427.709304333,-0.010000000,0.027000000,0.006000000,0.000000000,0.000000000,0.000000000,,,,,,,,
1696594427.711930,,,,,,,,,217194.000000000,1696594427.709283352,32.401580785,-6.943277974,4.145095216,-2.073476967,-7.201862741,0.848568775
1696594427.712600,741980.000000000,1696594427.711305141,-0.009000000,0.026000000,0.009000000,0.000000000,0.000000000,0.000000000,,,,,,,,
1696594427.714387,741981.000000000,1696594427.713290453,-0.009000000,0.026000000,0.011000000,0.000000000,0.000000000,0.000000000,,,,,,,,
1696594427.716370,741982.000000000,1696594427.715293407,-0.009000000,0.024000000,0.014000000,0.000000000,0.000000000,0.000000000,,,,,,,,
1696594427.718500,741983.000000000,1696594427.717317343,-0.010000000,0.023000000,0.017000000,0.000000000,0.000000000,0.000000000,,,,,,,,
1696594427.718812,,,,,,,,,217195.000000000,1696594427.717287779,32.856652107,-7.062964766,5.187115521,-2.000008086,-7.519284957,0.961967257
1696594427.720383,741984.000000000,1696594427.719361544,-0.010000000,0.022000000,0.019000000,0.000000000,0.000000000,0.000000000,,,,,,,,
1696594427.722358,741985.000000000,1696594427.721310616,-0.010000000,0.021000000,0.021000000,0.000000000,0.000000000,0.000000000,,,,,,,,
1696594427.724289,741986.000000000,1696594427.723298550,-0.009000000,0.020000000,0.026000000,0.000000000,0.000000000,0.000000000,,,,,,,,
1696594427.726569,741987.000000000,1696594427.725348711,-0.008000000,0.019000000,0.028000000,0.000000000,0.000000000,0.000000000,,,,,,,,
1696594427.726812,,,,,,,,,217196.000000000,1696594427.725274801,32.623405944,-6.766189943,4.729714117,-1.959162522,-7.443002680,0.889379926
1696594427.729784,741988.000000000,1696594427.727322817,-0.007000000,0.019000000,0.032000000,0.000000000,0.000000000,0.000000000,,,,,,,,
1696594427.730338,741989.000000000,1696594427.729310036,-0.005000000,0.018000000,0.035000000,0.000000000,0.000000000,0.000000000,,,,,,,,
1696594427.732318,741990.000000000,1696594427.731289387,-0.004000000,0.017000000,0.037000000,0.000000000,0.000000000,0.000000000,,,,,,,,
1696594427.734777,741991.000000000,1696594427.733346462,-0.004000000,0.017000000,0.041000000,0.000000000,0.000000000,0.000000000,,,,,,,,
1696594427.735505,,,,,,,,,217197.000000000,1696594427.733289003,32.465310357,-6.761059028,4.986691666,-1.957184903,-7.259916700,0.833528683
1696594427.736650,741992.000000000,1696594427.735407829,-0.004000000,0.016000000,0.041000000,0.000000000,0.000000000,0.000000000,,,,,,,,
1696594427.738346,741993.000000000,1696594427.737300158,-0.003000000,0.015000000,0.042000000,0.000000000,0.000000000,0.000000000,,,,,,,,
1696594427.740276,741994.000000000,1696594427.739296675,-0.004000000,0.014000000,0.044000000,0.000000000,0.000000000,0.000000000,,,,,,,,
1696594427.742366,741995.000000000,1696594427.741338730,-0.004000000,0.013000000,0.046000000,0.000000000,0.000000000,0.000000000,,,,,,,,
1696594427.742987,,,,,,,,,217198.000000000,1696594427.741264582,32.938592816,-6.628116833,5.138277090,-1.911445594,-7.558947267,0.944769508
1696594427.744394,741996.000000000,1696594427.743313551,-0.005000000,0.013000000,0.047000000,0.000000000,0.000000000,0.000000000,,,,,,,,
1696594427.746306,741997.000000000,1696594427.745297909,-0.004000000,0.012000000,0.048000000,0.000000000,0.000000000,0.000000000,,,,,,,,
1696594427.748983,741998.000000000,1696594427.747303009,-0.003000000,0.011000000,0.050000000,0.000000000,0.000000000,0.000000000,,,,,,,,
1696594427.750331,741999.000000000,1696594427.749321461,-0.002000000,0.011000000,0.052000000,0.000000000,0.000000000,0.000000000,,,,,,,,
1696594427.750799,,,,,,,,,217199.000000000,1696594427.749317169,32.944650965,-5.865923319,4.602889283,-1.618645856,-7.569726425,1.047977152
1696594427.752304,742000.000000000,1696594427.751294613,-0.001000000,0.011000000,0.053000000,0.000000000,0.000000000,0.000000000,,,,,,,,
1696594427.754344,742001.000000000,1696594427.753321648,0.000000000,0.011000000,0.054000000,0.000000000,0.000000000,-0.001000000,,,,,,,,
1696594427.756426,742002.000000000,1696594427.755378246,0.000000000,0.011000000,0.054000000,0.000000000,0.000000000,0.000000000,,,,,,,,
1696594427.758334,,,,,,,,,217200.000000000,1696594427.757289171,33.202458356,-5.907870811,4.533711410,-1.579253205,-7.744208259,0.870985974
1696594427.758502,742003.000000000,1696594427.757303715,0.000000000,0.011000000,0.055000000,0.000000000,0.000000000,-0.001000000,,,,,,,,
1696594427.760279,742004.000000000,1696594427.759273767,0.000000000,0.010000000,0.054000000,0.000000000,0.000000000,0.000000000,,,,,,,,
1696594427.762381,742005.000000000,1696594427.761387110,0.000000000,0.010000000,0.054000000,0.000000000,0.000000000,0.000000000,,,,,,,,
1696594427.764276,742006.000000000,1696594427.763316154,-0.001000000,0.010000000,0.055000000,0.000000000,0.000000000,0.000000000,,,,,,,,
1696594427.766364,742007.000000000,1696594427.765308857,-0.001000000,0.010000000,0.055000000,0.000000000,0.000000000,0.000000000,,,,,,,,
1696594427.767452,,,,,,,,,217201.000000000,1696594427.765285492,32.407447856,-6.249779217,5.429098130,-1.734151446,-7.330861463,0.911148752
1696594427.769211,742008.000000000,1696594427.767292500,-0.002000000,0.010000000,0.055000000,0.000000000,0.000000000,0.000000000,,,,,,,,
1696594427.770262,742009.000000000,1696594427.769297361,-0.001000000,0.010000000,0.055000000,0.000000000,0.000000000,0.000000000,,,,,,,,
1696594427.772291,742010.000000000,1696594427.771281958,-0.001000000,0.010000000,0.056000000,0.000000000,0.000000000,0.000000000,,,,,,,,
1696594427.774299,742011.000000000,1696594427.773288965,0.000000000,0.010000000,0.057000000,0.000000000,0.000000000,-0.001000000,,,,,,,,
1696594427.774877,,,,,,,,,217202.000000000,1696594427.773282528,32.229876053,-6.798903310,4.588247889,-1.927409217,-7.164034372,0.860137381
1696594427.776200,742012.000000000,1696594427.775259495,0.000000000,0.010000000,0.056000000,0.000000000,0.000000000,0.000000000,,,,,,,,
1696594427.778256,742013.000000000,1696594427.777308702,0.000000000,0.010000000,0.057000000,0.000000000,0.000000000,0.000000000,,,,,,,,
1696594427.780205,742014.000000000,1696594427.779255867,0.000000000,0.011000000,0.056000000,0.000000000,0.000000000,0.000000000,,,,,,,,
1696594427.783041,742015.000000000,1696594427.781270504,0.000000000,0.011000000,0.056000000,0.000000000,0.000000000,0.000000000,,,,,,,,
1696594427.783407,,,,,,,,,217203.000000000,1696594427.781428099,32.418477576,-6.471999644,4.783296708,-1.781154669,-7.118916644,0.899440648
1696594427.784331,742016.000000000,1696594427.783300638,0.000000000,0.010000000,0.055000000,0.000000000,0.000000000,0.000000000,,,,,,,,
1696594427.786281,742017.000000000,1696594427.785312176,0.000000000,0.010000000,0.055000000,0.000000000,0.000000000,0.000000000,,,,,,,,
1696594427.788984,742018.000000000,1696594427.787283182,-0.001000000,0.010000000,0.054000000,0.000000000,0.000000000,0.000000000,,,,,,,,
1696594427.790394,742019.000000000,1696594427.789293766,-0.002000000,0.010000000,0.054000000,0.000000000,0.000000000,0.000000000,,,,,,,,
1696594427.790886,,,,,,,,,217204.000000000,1696594427.789315462,32.630927448,-6.223344895,4.212905976,-1.771909364,-7.302634616,0.788355334
1696594427.792471,742020.000000000,1696594427.791425228,-0.002000000,0.010000000,0.054000000,0.000000000,0.000000000,0.000000000,,,,,,,,
1696594427.794271,742021.000000000,1696594427.793252468,-0.001000000,0.010000000,0.055000000,0.000000000,0.000000000,0.000000000,,,,,,,,
1696594427.796850,742022.000000000,1696594427.795246124,-0.001000000,0.010000000,0.055000000,0.000000000,0.000000000,0.000000000,,,,,,,,
1696594427.798257,742023.000000000,1696594427.797233582,0.000000000,0.010000000,0.055000000,0.000000000,0.000000000,0.000000000,,,,,,,,
1696594427.799205,,,,,,,,,217205.000000000,1696594427.797334671,33.129557765,-6.347418975,4.358774384,-1.806811098,-7.746315804,0.943257882
1696594427.800225,742024.000000000,1696594427.799229383,0.000000000,0.009000000,0.054000000,0.000000000,0.000000000,0.000000000,,,,,,,,
1696594427.802250,742025.000000000,1696594427.801269054,0.000000000,0.009000000,0.054000000,0.000000000,0.000000000,0.000000000,,,,,,,,
1696594427.804454,742026.000000000,1696594427.803283453,0.000000000,0.009000000,0.053000000,0.000000000,0.000000000,0.000000000,,,,,,,,
1696594427.806329,742027.000000000,1696594427.805261612,0.000000000,0.009000000,0.052000000,0.000000000,0.000000000,0.000000000,,,,,,,,
1696594427.807101,,,,,,,,,217206.000000000,1696594427.805469513,32.865593554,-5.944225922,4.674040266,-1.606125459,-7.535121975,0.938294268
1696594427.808898,742028.000000000,1696594427.807268858,0.000000000,0.008000000,0.051000000,0.000000000,0.000000000,0.000000000,,,,,,,,
1696594427.810356,742029.000000000,1696594427.809264421,0.000000000,0.008000000,0.051000000,0.000000000,0.000000000,0.000000000,,,,,,,,
1696594427.812244,742030.000000000,1696594427.811285496,-0.001000000,0.007000000,0.050000000,0.000000000,0.000000000,0.000000000,,,,,,,,
1696594427.814418,742031.000000000,1696594427.813300848,-0.001000000,0.006000000,0.049000000,0.000000000,0.000000000,0.000000000,,,,,,,,
1696594427.814675,,,,,,,,,217207.000000000,1696594427.813456059,32.931886600,-5.588747622,4.166652297,-1.503481604,-7.654074096,0.990454690
1696594427.816353,742032.000000000,1696594427.815263510,0.000000000,0.006000000,0.048000000,0.000000000,0.000000000,0.000000000,,,,,,,,
1696594427.818322,742033.000000000,1696594427.817263842,0.000000000,0.006000000,0.047000000,0.000000000,0.000000000,0.000000000,,,,,,,,
1696594427.820261,742034.000000000,1696594427.819258451,0.000000000,0.005000000,0.048000000,0.000000000,0.000000000,0.000000000,,,,,,,,
1696594427.822378,742035.000000000,1696594427.821274281,0.001000000,0.005000000,0.047000000,0.000000000,0.000000000,0.000000000,,,,,,,,
1696594427.822929,,,,,,,,,217208.000000000,1696594427.821308851,33.387481104,-6.902052095,4.964724779,-1.982895668,-7.806117435,0.963286545
1696594427.824252,742036.000000000,1696594427.823279858,0.001000000,0.005000000,0.046000000,0.000000000,0.000000000,0.000000000,,,,,,,,
1696594427.826226,742037.000000000,1696594427.825264215,0.002000000,0.004000000,0.045000000,0.000000000,0.000000000,0.000000000,,,,,,,,
1696594427.829525,742038.000000000,1696594427.827261925,0.002000000,0.003000000,0.044000000,0.000000000,0.000000000,0.000000000,,,,,,,,
1696594427.830369,742039.000000000,1696594427.829336166,0.001000000,0.003000000,0.042000000,0.000000000,0.000000000,0.000000000,,,,,,,,
1696594427.830709,,,,,,,,,217209.000000000,1696594427.829271078,32.501856338,-6.192187112,3.956748310,-1.718191665,-7.244343212,0.938617785
1696594427.832237,742040.000000000,1696594427.831269741,0.001000000,0.002000000,0.041000000,0.000000000,0.000000000,0.000000000,,,,,,,,
1696594427.834452,742041.000000000,1696594427.833297491,0.000000000,0.002000000,0.040000000,0.000000000,0.000000000,0.000000000,,,,,,,,
1696594427.836363,742042.000000000,1696594427.835274458,0.000000000,0.001000000,0.039000000,0.000000000,0.000000000,0.000000000,,,,,,,,
1696594427.838252,742043.000000000,1696594427.837273598,0.000000000,0.000000000,0.039000000,0.000000000,0.000000000,0.000000000,,,,,,,,
1696594427.839171,,,,,,,,,217210.000000000,1696594427.837367773,33.088147699,-5.761062077,4.671654151,-1.554169346,-7.666184334,0.924069676
1696594427.840321,742044.000000000,1696594427.839271784,0.001000000,0.000000000,0.039000000,0.000000000,0.000000000,0.000000000,,,,,,,,
1696594427.842245,742045.000000000,1696594427.841261625,0.001000000,0.000000000,0.038000000,0.000000000,0.000000000,0.000000000,,,,,,,,
1696594427.844285,742046.000000000,1696594427.843264580,0.002000000,0.000000000,0.039000000,0.000000000,0.000000000,0.000000000,,,,,,,,
1696594427.846385,742047.000000000,1696594427.845300913,0.002000000,0.000000000,0.038000000,0.000000000,0.000000000,0.000000000,,,,,,,,
1696594427.846966,,,,,,,,,217211.000000000,1696594427.845320940,32.837363563,-5.780560258,4.577784943,-1.560115078,-7.523226433,1.032913242
1696594427.848727,742048.000000000,1696594427.847282171,0.003000000,0.000000000,0.038000000,0.000000000,0.000000000,0.000000000,,,,,,,,
1696594427.850227,742049.000000000,1696594427.849265099,0.002000000,0.000000000,0.038000000,0.000000000,0.000000000,0.000000000,,,,,,,,
1696594427.852254,742050.000000000,1696594427.851299524,0.002000000,0.000000000,0.037000000,0.000000000,0.000000000,0.000000000,,,,,,,,
1696594427.854280,742051.000000000,1696594427.853299141,0.001000000,-0.001000000,0.036000000,0.000000000,0.000000000,0.000000000,,,,,,,,
1696594427.854799,,,,,,,,,217212.000000000,1696594427.853276253,32.605262159,-6.719525979,5.116091686,-1.985030421,-7.382774715,0.957601553
1696594427.856290,742052.000000000,1696594427.855287313,0.000000000,-0.001000000,0.036000000,0.000000000,0.000000000,0.000000000,,,,,,,,
1696594427.858298,742053.000000000,1696594427.857300997,0.000000000,-0.001000000,0.036000000,0.000000000,0.000000000,0.000000000,,,,,,,,
1696594427.860386,742054.000000000,1696594427.859283924,-0.001000000,-0.001000000,0.038000000,0.000000000,0.000000000,0.000000000,,,,,,,,
1696594427.862545,,,,,,,,,217213.000000000,1696594427.861290693,33.189065265,-6.073900872,4.789457038,-1.709631044,-7.709049453,0.996113737
1696594427.862804,742055.000000000,1696594427.861375093,-0.001000000,-0.001000000,0.038000000,0.000000000,0.000000000,0.000000000,,,,,,,,
1696594427.864419,742056.000000000,1696594427.863283157,0.000000000,-0.001000000,0.039000000,0.000000000,0.000000000,0.000000000,,,,,,,,
1696594427.866427,742057.000000000,1696594427.865289211,0.000000000,-0.001000000,0.040000000,0.000000000,0.000000000,0.000000000,,,,,,,,
1696594427.868550,742058.000000000,1696594427.867280245,0.000000000,-0.001000000,0.042000000,0.000000000,0.000000000,0.000000000,,,,,,,,
1696594427.870305,742059.000000000,1696594427.869298220,0.000000000,-0.001000000,0.042000000,0.000000000,0.000000000,0.000000000,,,,,,,,
1696594427.870706,,,,,,,,,217214.000000000,1696594427.869302034,33.078859170,-5.702559801,4.251485477,-1.572002188,-7.632046650,1.005978015
1696594427.872339,742060.000000000,1696594427.871286154,-0.001000000,-0.001000000,0.043000000,0.000000000,0.000000000,0.000000000,,,,,,,,
1696594427.875233,742061.000000000,1696594427.873353720,-0.001000000,0.000000000,0.044000000,0.000000000,0.000000000,0.000000000,,,,,,,,
1696594427.876360,742062.000000000,1696594427.875324726,-0.003000000,0.000000000,0.045000000,0.000000000,0.000000000,0.000000000,,,,,,,,
1696594427.878524,742063.000000000,1696594427.877397537,-0.004000000,0.000000000,0.045000000,0.000000000,0.000000000,0.000000000,,,,,,,,
1696594427.878657,,,,,,,,,217215.000000000,1696594427.877417088,32.668889161,-6.759030211,4.648043872,-1.942222845,-7.448487505,0.985776468
1696594427.880231,742064.000000000,1696594427.879262686,-0.005000000,0.000000000,0.046000000,0.000000000,0.000000000,0.000000000,,,,,,,,
1696594427.882202,742065.000000000,1696594427.881262779,-0.006000000,0.000000000,0.047000000,0.000000000,0.000000000,0.000000000,,,,,,,,
1696594427.884696,742066.000000000,1696594427.883275032,-0.007000000,0.000000000,0.049000000,0.000000000,0.000000000,-0.001000000,,,,,,,,
1696594427.886353,,,,,,,,,217216.000000000,1696594427.885310173,32.277131805,-7.535453621,5.843948799,-2.217698263,-7.484685037,0.976919230
1696594427.886737,742067.000000000,1696594427.885401249,-0.007000000,0.000000000,0.051000000,0.000000000,0.000000000,-0.001000000,,,,,,,,
1696594427.888886,742068.000000000,1696594427.887256384,-0.006000000,0.000000000,0.051000000,0.000000000,0.000000000,-0.001000000,,,,,,,,
1696594427.890293,742069.000000000,1696594427.889307499,-0.007000000,0.000000000,0.054000000,0.000000000,0.000000000,-0.001000000,,,,,,,,
1696594427.892300,742070.000000000,1696594427.891298056,-0.007000000,0.001000000,0.056000000,0.000000000,0.000000000,-0.001000000,,,,,,,,
1696594427.895221,742071.000000000,1696594427.893451214,-0.007000000,0.001000000,0.056000000,0.000000000,0.000000000,-0.001000000,,,,,,,,
1696594427.895381,,,,,,,,,217217.000000000,1696594427.893420696,33.459122340,-6.359661680,4.579314798,-1.796992984,-7.726164337,0.848852261
1696594427.896549,742072.000000000,1696594427.895366669,-0.008000000,0.001000000,0.058000000,0.000000000,0.000000000,-0.001000000,,,,,,,,
1696594427.898324,742073.000000000,1696594427.897300720,-0.009000000,0.001000000,0.058000000,0.000000000,0.000000000,-0.001000000,,,,,,,,
1696594427.900328,742074.000000000,1696594427.899289370,-0.010000000,0.001000000,0.059000000,0.000000000,0.000000000,-0.001000000,,,,,,,,
1696594427.902445,742075.000000000,1696594427.901477575,-0.011000000,0.001000000,0.060000000,0.000000000,0.000000000,-0.001000000,,,,,,,,
1696594427.902602,,,,,,,,,217218.000000000,1696594427.901324987,32.817105217,-6.551357946,4.745141223,-1.907780583,-7.405143260,0.888469646
1696594427.904585,742076.000000000,1696594427.903307438,-0.012000000,0.002000000,0.061000000,0.000000000,0.000000000,-0.001000000,,,,,,,,
1696594427.906282,742077.000000000,1696594427.905313492,-0.013000000,0.002000000,0.061000000,0.000000000,0.000000000,-0.001000000,,,,,,,,
1696594427.909384,742078.000000000,1696594427.907292366,-0.013000000,0.002000000,0.062000000,0.000000000,0.000000000,-0.001000000,,,,,,,,
1696594427.910454,,,,,,,,,217219.000000000,1696594427.909429312,32.940125288,-6.685302110,4.385330233,-1.942096384,-7.588685313,0.904048248
1696594427.910842,742079.000000000,1696594427.909474850,-0.013000000,0.002000000,0.062000000,0.000000000,0.000000000,-0.001000000,,,,,,,,
1696594427.912361,742080.000000000,1696594427.911344290,-0.013000000,0.003000000,0.065000000,0.000000000,0.000000000,-0.001000000,,,,,,,,
1696594427.914285,742081.000000000,1696594427.913310051,-0.012000000,0.004000000,0.064000000,0.000000000,0.000000000,-0.001000000,,,,,,,,
1696594427.916251,742082.000000000,1696594427.915282488,-0.012000000,0.004000000,0.065000000,0.000000000,0.000000000,-0.001000000,,,,,,,,
1696594427.918280,,,,,,,,,217220.000000000,1696594427.917266369,33.116034144,-6.551342264,5.624616192,-1.833805200,-7.915010641,0.945005601
1696594427.918837,742083.000000000,1696594427.917499542,-0.013000000,0.004000000,0.065000000,0.000000000,0.000000000,-0.001000000,,,,,,,,
1696594427.920274,742084.000000000,1696594427.919303179,-0.013000000,0.005000000,0.064000000,0.000000000,0.000000000,-0.001000000,,,,,,,,
1696594427.922310,742085.000000000,1696594427.921308517,-0.014000000,0.005000000,0.063000000,0.000000000,0.000000000,-0.001000000,,,,,,,,
1696594427.924331,742086.000000000,1696594427.923307180,-0.015000000,0.005000000,0.062000000,0.000000000,0.000000000,-0.001000000,,,,,,,,
1696594427.926372,742087.000000000,1696594427.925331354,-0.016000000,0.006000000,0.061000000,0.000000000,0.000000000,-0.001000000,,,,,,,,
1696594427.926814,,,,,,,,,217221.000000000,1696594427.925300360,32.389568516,-6.736640190,4.859301532,-1.908085248,-7.406231241,0.860410761
1696594427.929549,742088.000000000,1696594427.927316666,-0.016000000,0.006000000,0.060000000,0.000000000,0.000000000,-0.001000000,,,,,,,,
1696594427.931264,742089.000000000,1696594427.929335594,-0.016000000,0.007000000,0.058000000,0.000000000,0.000000000,-0.001000000,,,,,,,,
1696594427.932347,742090.000000000,1696594427.931293249,-0.016000000,0.008000000,0.058000000,0.000000000,0.000000000,-0.001000000,,,,,,,,
1696594427.934687,742091.000000000,1696594427.933301449,-0.015000000,0.008000000,0.057000000,0.000000000,0.000000000,-0.001000000,,,,,,,,
1696594427.935159,,,,,,,,,217222.000000000,1696594427.933316469,33.637658324,-5.492684707,4.255598270,-1.468235065,-7.841094905,0.828303465
1696594427.936426,742092.000000000,1696594427.935303450,-0.015000000,0.009000000,0.055000000,0.000000000,0.000000000,-0.001000000,,,,,,,,
1696594427.938285,742093.000000000,1696594427.937308311,-0.014000000,0.010000000,0.052000000,0.000000000,0.000000000,-0.001000000,,,,,,,,
1696594427.940575,742094.000000000,1696594427.939567327,-0.015000000,0.011000000,0.050000000,0.000000000,0.000000000,0.000000000,,,,,,,,
1696594427.942505,,,,,,,,,217223.000000000,1696594427.941292286,33.207662271,-6.152411289,4.395208197,-1.708722089,-7.761817032,1.010656400
1696594427.943055,742095.000000000,1696594427.941700459,-0.015000000,0.012000000,0.049000000,0.000000000,0.000000000,0.000000000,,,,,,,,
1696594427.944380,742096.000000000,1696594427.943380594,-0.016000000,0.013000000,0.047000000,0.000000000,0.000000000,0.000000000,,,,,,,,
1696594427.946323,742097.000000000,1696594427.945313215,-0.017000000,0.013000000,0.043000000,0.000000000,0.000000000,0.000000000,,,,,,,,
1696594427.948859,742098.000000000,1696594427.947285175,-0.018000000,0.014000000,0.041000000,0.000000000,0.000000000,0.000000000,,,,,,,,
1696594427.950252,742099.000000000,1696594427.949302435,-0.018000000,0.015000000,0.038000000,0.000000000,0.000000000,0.000000000,,,,,,,,
1696594427.950590,,,,,,,,,217224.000000000,1696594427.949289322,33.093559354,-5.814363157,4.511553110,-1.600690901,-7.714623768,0.924572902
1696594427.952312,742100.000000000,1696594427.951290369,-0.018000000,0.016000000,0.035000000,0.000000000,0.000000000,0.000000000,,,,,,,,
1696594427.954308,742101.000000000,1696594427.953311920,-0.018000000,0.017000000,0.033000000,0.000000000,0.000000000,0.000000000,,,,,,,,
1696594427.956274,742102.000000000,1696594427.955295563,-0.017000000,0.018000000,0.031000000,0.000000000,0.000000000,0.000000000,,,,,,,,
1696594427.958412,742103.000000000,1696594427.957295179,-0.017000000,0.019000000,0.029000000,0.000000000,0.000000000,0.000000000,,,,,,,,
1696594427.958613,,,,,,,,,217225.000000000,1696594427.957258701,32.343275263,-6.938444179,5.038751168,-2.023500799,-7.375796264,1.068164734
1696594427.960307,742104.000000000,1696594427.959290028,-0.016000000,0.021000000,0.027000000,0.000000000,0.000000000,0.000000000,,,,,,,,
1696594427.962338,742105.000000000,1696594427.961346865,-0.016000000,0.021000000,0.024000000,0.000000000,0.000000000,0.000000000,,,,,,,,
1696594427.964259,742106.000000000,1696594427.963292599,-0.017000000,0.022000000,0.021000000,0.000000000,0.000000000,0.000000000,,,,,,,,
1696594427.966253,742107.000000000,1696594427.965284348,-0.017000000,0.023000000,0.019000000,0.000000000,0.000000000,0.000000000,,,,,,,,
1696594427.966800,,,,,,,,,217226.000000000,1696594427.965266466,32.865214803,-6.227226253,4.013494646,-1.732274625,-7.492334268,1.023293221
1696594427.969018,742108.000000000,1696594427.967289925,-0.018000000,0.024000000,0.016000000,0.000000000,0.000000000,0.000000000,,,,,,,,
1696594427.970281,742109.000000000,1696594427.969292402,-0.019000000,0.025000000,0.015000000,0.000000000,0.000000000,0.000000000,,,,,,,,
1696594427.972230,742110.000000000,1696594427.971281767,-0.020000000,0.025000000,0.012000000,0.000000000,0.000000000,0.000000000,,,,,,,,
1696594427.974370,742111.000000000,1696594427.973320007,-0.020000000,0.026000000,0.011000000,0.000000000,0.000000000,0.000000000,,,,,,,,
1696594427.974826,,,,,,,,,217227.000000000,1696594427.973286390,32.384182612,-6.202522512,5.739165509,-1.719400952,-7.385049727,0.828128747
1696594427.976265,742112.000000000,1696594427.975298166,-0.020000000,0.026000000,0.010000000,0.000000000,0.000000000,0.000000000,,,,,,,,
1696594427.978593,742113.000000000,1696594427.977359772,-0.020000000,0.027000000,0.009000000,0.000000000,0.000000000,0.000000000,,,,,,,,
1696594427.980742,742114.000000000,1696594427.979286194,-0.019000000,0.027000000,0.008000000,0.000000000,0.000000000,0.000000000,,,,,,,,
1696594427.982260,742115.000000000,1696594427.981312037,-0.018000000,0.027000000,0.008000000,0.000000000,0.000000000,0.000000000,,,,,,,,
1696594427.983017,,,,,,,,,217228.000000000,1696594427.981254101,32.478930125,-6.012567207,4.301723278,-1.738079740,-7.286161594,0.923151323
1696594427.984319,742116.000000000,1696594427.983352900,-0.018000000,0.027000000,0.007000000,0.000000000,0.000000000,0.000000000,,,,,,,,
1696594427.986463,742117.000000000,1696594427.985299826,-0.018000000,0.027000000,0.007000000,0.000000000,0.000000000,0.000000000,,,,,,,,
1696594427.988826,742118.000000000,1696594427.987285137,-0.019000000,0.027000000,0.006000000,0.000000000,0.000000000,0.000000000,,,,,,,,
1696594427.990232,742119.000000000,1696594427.989293575,-0.019000000,0.027000000,0.006000000,0.000000000,0.000000000,0.000000000,,,,,,,,
1696594427.991070,,,,,,,,,217229.000000000,1696594427.989279032,32.657467507,-4.970836847,4.685265595,-1.239530919,-7.421634829,0.873551947
1696594427.992302,742120.000000000,1696594427.991338491,-0.020000000,0.026000000,0.005000000,0.000000000,0.000000000,0.000000000,,,,,,,,
1696594427.994738,742121.000000000,1696594427.993374348,-0.020000000,0.026000000,0.006000000,0.000000000,0.000000000,0.000000000,,,,,,,,
1696594427.996290,742122.000000000,1696594427.995278120,-0.020000000,0.025000000,0.006000000,0.000000000,0.000000000,0.000000000,,,,,,,,
1696594427.998233,742123.000000000,1696594427.997281075,-0.020000000,0.025000000,0.007000000,0.000000000,0.000000000,0.000000000,,,,,,,,
1696594427.998646,,,,,,,,,217230.000000000,1696594427.997288704,32.892741081,-6.485534292,4.084030116,-1.826275594,-7.515008762,0.970753275
1696594428.000336,742124.000000000,1696594427.999302149,-0.019000000,0.024000000,0.008000000,0.000000000,0.000000000,0.000000000,,,,,,,,
1696594428.002264,742125.000000000,1696594428.001297474,-0.018000000,0.023000000,0.009000000,0.000000000,0.000000000,0.000000000,,,,,,,,
1696594428.004290,742126.000000000,1696594428.003304720,-0.017000000,0.022000000,0.010000000,0.000000000,0.000000000,0.000000000,,,,,,,,
1696594428.006347,742127.000000000,1696594428.005343676,-0.016000000,0.021000000,0.012000000,0.000000000,0.000000000,0.000000000,,,,,,,,
1696594428.007404,,,,,,,,,217231.000000000,1696594428.005361080,32.655289948,-6.621245039,4.320485152,-1.821495826,-7.412694986,0.984477635
1696594428.009003,742128.000000000,1696594428.007284164,-0.016000000,0.020000000,0.013000000,0.000000000,0.000000000,0.000000000,,,,,,,,
1696594428.010307,742129.000000000,1696594428.009307146,-0.015000000,0.019000000,0.014000000,0.000000000,0.000000000,0.000000000,,,,,,,,
1696594428.012269,742130.000000000,1696594428.011295557,-0.016000000,0.017000000,0.015000000,0.000000000,0.000000000,0.000000000,,,,,,,,
1696594428.014387,742131.000000000,1696594428.013301849,-0.016000000,0.016000000,0.015000000,0.000000000,0.000000000,0.000000000,,,,,,,,
1696594428.014415,,,,,,,,,217232.000000000,1696594428.013362169,32.496218839,-6.483613743,4.466544911,-1.800525548,-7.422930076,1.037410880
1696594428.016310,742132.000000000,1696594428.015297174,-0.016000000,0.014000000,0.016000000,0.000000000,0.000000000,0.000000000,,,,,,,,
1696594428.018854,742133.000000000,1696594428.017372370,-0.016000000,0.013000000,0.018000000,0.000000000,0.000000000,0.000000000,,,,,,,,
1696594428.020376,742134.000000000,1696594428.019297600,-0.015000000,0.011000000,0.019000000,0.000000000,0.000000000,0.000000000,,,,,,,,
1696594428.022391,742135.000000000,1696594428.021324396,-0.015000000,0.010000000,0.021000000,0.000000000,0.000000000,0.000000000,,,,,,,,
1696594428.022873,,,,,,,,,217233.000000000,1696594428.021402121,33.487568663,-6.807650735,4.602551780,-1.960324561,-7.808585993,1.017949584
1696594428.024377,742136.000000000,1696594428.023297787,-0.013000000,0.009000000,0.022000000,0.000000000,0.000000000,0.000000000,,,,,,,,
1696594428.026964,742137.000000000,1696594428.025351286,-0.012000000,0.008000000,0.024000000,0.000000000,0.000000000,0.000000000,,,,,,,,
1696594428.029180,742138.000000000,1696594428.027320385,-0.011000000,0.007000000,0.025000000,0.000000000,0.000000000,0.000000000,,,,,,,,
1696594428.030351,742139.000000000,1696594428.029308319,-0.010000000,0.006000000,0.027000000,0.000000000,0.000000000,0.000000000,,,,,,,,
1696594428.030975,,,,,,,,,217234.000000000,1696594428.029421806,32.769667326,-5.865104194,4.935336939,-1.635434004,-7.616230708,1.019569419
1696594428.032244,742140.000000000,1696594428.031273365,-0.009000000,0.005000000,0.027000000,0.000000000,0.000000000,0.000000000,,,,,,,,
1696594428.034444,742141.000000000,1696594428.033405781,-0.009000000,0.004000000,0.028000000,0.000000000,0.000000000,0.000000000,,,,,,,,
1696594428.036399,742142.000000000,1696594428.035330534,-0.009000000,0.003000000,0.028000000,0.000000000,0.000000000,0.000000000,,,,,,,,
1696594428.038355,742143.000000000,1696594428.037321568,-0.010000000,0.001000000,0.030000000,0.000000000,0.000000000,0.000000000,,,,,,,,
1696594428.038720,,,,,,,,,217235.000000000,1696594428.037293196,32.691185804,-6.514130616,4.928788716,-1.868547019,-7.444987766,0.873738185
1696594428.040285,742144.000000000,1696594428.039312363,-0.010000000,0.001000000,0.030000000,0.000000000,0.000000000,0.000000000,,,,,,,,
1696594428.042317,742145.000000000,1696594428.041300535,-0.009000000,0.000000000,0.031000000,0.000000000,0.000000000,0.000000000,,,,,,,,
1696594428.044248,742146.000000000,1696594428.043289661,-0.009000000,0.000000000,0.032000000,0.000000000,0.000000000,0.000000000,,,,,,,,
1696594428.046327,742147.000000000,1696594428.045305967,-0.008000000,0.000000000,0.033000000,0.000000000,0.000000000,0.000000000,,,,,,,,
