__time,/hsrb/joint_states/arm_flex_joint/effort,/hsrb/joint_states/arm_flex_joint/position,/hsrb/joint_states/arm_flex_joint/velocity,/hsrb/joint_states/arm_lift_joint/effort,/hsrb/joint_states/arm_lift_joint/position,/hsrb/joint_states/arm_lift_joint/velocity,/hsrb/joint_states/arm_roll_joint/effort,/hsrb/joint_states/arm_roll_joint/position,/hsrb/joint_states/arm_roll_joint/velocity,/hsrb/joint_states/base_l_drive_wheel_joint/effort,/hsrb/joint_states/base_l_drive_wheel_joint/position,/hsrb/joint_states/base_l_drive_wheel_joint/velocity,/hsrb/joint_states/base_r_drive_wheel_joint/effort,/hsrb/joint_states/base_r_drive_wheel_joint/position,/hsrb/joint_states/base_r_drive_wheel_joint/velocity,/hsrb/joint_states/base_roll_joint/effort,/hsrb/joint_states/base_roll_joint/position,/hsrb/joint_states/base_roll_joint/velocity,/hsrb/joint_states/hand_l_spring_proximal_joint/effort,/hsrb/joint_states/hand_l_spring_proximal_joint/position,/hsrb/joint_states/hand_l_spring_proximal_joint/velocity,/hsrb/joint_states/hand_motor_joint/effort,/hsrb/joint_states/hand_motor_joint/position,/hsrb/joint_states/hand_motor_joint/velocity,/hsrb/joint_states/hand_r_spring_proximal_joint/effort,/hsrb/joint_states/hand_r_spring_proximal_joint/position,/hsrb/joint_states/hand_r_spring_proximal_joint/velocity,/hsrb/joint_states/head_pan_joint/effort,/hsrb/joint_states/head_pan_joint/position,/hsrb/joint_states/head_pan_joint/velocity,/hsrb/joint_states/head_tilt_joint/effort,/hsrb/joint_states/head_tilt_joint/position,/hsrb/joint_states/head_tilt_joint/velocity,/hsrb/joint_states/header/seq,/hsrb/joint_states/header/stamp,/hsrb/joint_states/wrist_flex_joint/effort,/hsrb/joint_states/wrist_flex_joint/position,/hsrb/joint_states/wrist_flex_joint/velocity,/hsrb/joint_states/wrist_roll_joint/effort,/hsrb/joint_states/wrist_roll_joint/position,/hsrb/joint_states/wrist_roll_joint/velocity,/hsrb/pressure_sensor/data,/hsrb/wrist_wrench/compensated/header/seq,/hsrb/wrist_wrench/compensated/header/stamp,/hsrb/wrist_wrench/compensated/wrench/force/x,/hsrb/wrist_wrench/compensated/wrench/force/y,/hsrb/wrist_wrench/compensated/wrench/force/z,/hsrb/wrist_wrench/compensated/wrench/torque/x,/hsrb/wrist_wrench/compensated/wrench/torque/y,/hsrb/wrist_wrench/compensated/wrench/torque/z
1692872111.137417,0.663265,-0.026036,-0.000018,20.955680,0.002769,0.000187,0.540960,0.000696,0.000046,-0.010788,0.665490,0.000653,0.021576,0.938360,-0.000653,1.556640,0.387546,-0.000094,-0.629000,0.182318,-0.008000,0.000000,0.475681,-0.003545,-0.202000,0.261318,-0.002000,0.055200,0.000184,0.000138,-1.169714,-0.000007,-0.000038,35271.000000,1692872111.123904,1.119771,-1.499976,0.000048,0.320686,0.140132,0.000048,,,,,,,,,
1692872111.137457,,,,,,,,,,,,,,,,,,,,,,,,,,,,,,,,,,,,,,,,,,,69724.000000,1692872111.130483,0.000000,0.000000,0.000000,0.000000,0.000000,0.000000
1692872111.157490,,,,,,,,,,,,,,,,,,,,,,,,,,,,,,,,,,,,,,,,,,,69725.000000,1692872111.140134,0.000000,0.000000,0.000000,0.000000,0.000000,0.000000
1692872111.158295,0.485316,-0.026036,-0.000018,20.373577,0.002768,-0.000353,0.585120,0.000696,0.000046,-0.013485,0.665490,0.000653,0.021576,0.938341,-0.000653,1.578720,0.387546,-0.000094,-0.632000,0.180319,-0.026000,-0.001225,0.475681,-0.003545,-0.202000,0.261318,-0.010999,0.099360,0.000184,0.000138,-1.261714,-0.000007,-0.000038,35272.000000,1692872111.143907,1.104000,-1.499976,0.000048,0.346971,0.140132,0.000048,,,,,,,,,
1692872111.161417,,,,,,,,,,,,,,,,,,,,,,,,,,,,,,,,,,,,,,,,,,,69726.000000,1692872111.148717,0.000000,0.000000,0.000000,0.000000,0.000000,0.000000
1692872111.170396,,,,,,,,,,,,,,,,,,,,,,,,,,,,,,,,,,,,,,,,,,,69727.000000,1692872111.161732,0.000000,0.000000,0.000000,0.000000,0.000000,0.000000
1692872111.177993,0.161772,-0.026036,-0.000018,20.373577,0.002768,-0.000158,0.507840,0.000696,0.000046,-0.016182,0.665490,0.000653,0.024273,0.938341,-0.000653,1.523520,0.387546,-0.000094,-0.632000,0.181727,-0.018999,-0.006549,0.476272,-0.000590,-0.203000,0.260727,-0.010999,0.115920,0.000184,0.000138,-1.281429,-0.000007,-0.000038,35273.000000,1692872111.163904,1.019886,-1.499976,0.000048,0.441600,0.140132,0.000048,,,,,,,,,
1692872111.181812,,,,,,,,,,,,,,,,,,,,,,,,,,,,,,,,,,,,,,,,,,,69728.000000,1692872111.168701,0.000000,0.000000,0.000000,0.000000,0.000000,0.000000
1692872111.187734,,,,,,,,,,,,,,,,,,,,,,,,,,,,,,,,,,,,,,,,,,,69729.000000,1692872111.178822,0.000000,0.000000,0.000000,0.000000,0.000000,0.000000
1692872111.195575,0.420607,-0.026036,-0.000018,22.701986,0.002768,-0.000169,0.590640,0.000696,0.000046,-0.018879,0.665490,0.000653,0.026970,0.938341,-0.000653,1.545600,0.387546,-0.000094,-0.629000,0.184137,-0.004000,-0.003275,0.476863,-0.000590,-0.207000,0.260136,-0.019999,0.086480,0.000184,0.000138,-1.090857,-0.000007,-0.000038,35274.000000,1692872111.183901,1.177600,-1.499976,0.000048,0.415314,0.140132,0.000048,,,,,,,,,
1692872111.195596,,,,,,,,,,,,,,,,,,,,,,,,,,,,,,,,,,,,,,,,,,,69730.000000,1692872111.188574,0.000000,0.000000,0.000000,0.000000,0.000000,0.000000
1692872111.211289,,,,,,,,,,,,,,,,,,,,,,,,,,,,,,,,,,,,,,,,,,,69731.000000,1692872111.198990,0.000000,0.000000,0.000000,0.000000,0.000000,0.000000
1692872111.215068,-0.048532,-0.026036,-0.000779,20.664629,0.002769,0.000100,0.607200,0.000696,0.000046,-0.016182,0.665490,0.000653,0.010788,0.938341,-0.000653,1.556640,0.387557,0.000272,-0.628000,0.184137,0.001000,-0.008186,0.476863,0.002363,-0.204000,0.261136,-0.009999,0.106720,0.000184,0.000138,-1.182857,-0.000007,-0.000038,35275.000000,1692872111.203899,1.056686,-1.499976,0.000048,0.315429,0.140132,0.000048,,,,,,,,,
1692872111.226117,,,,,,,,,,,,,,,,,,,,,,,,,,,,,,,,,,,,,,,,,,,69732.000000,1692872111.208935,0.000000,0.000000,0.000000,0.000000,0.000000,0.000000
1692872111.235593,,,,,,,,,,,,,,,,,,,,,,,,,,,,,,,,,,,,,,,,,,,69733.000000,1692872111.220333,0.000000,0.000000,0.000000,0.000000,0.000000,0.000000
1692872111.236823,0.339721,-0.026036,-0.000018,22.410935,0.002768,-0.000431,0.540960,0.000696,0.000046,-0.016182,0.665490,0.000653,0.010788,0.938341,-0.000653,1.523520,0.387546,-0.000094,-0.632000,0.182909,-0.004000,-0.000408,0.475090,-0.003545,-0.203000,0.263910,-0.008999,0.082800,0.000184,0.000138,-1.143429,-0.000007,-0.000038,35276.000000,1692872111.223903,1.082971,-1.499976,0.000048,0.373257,0.140132,0.000048,,,,,,,,,
1692872111.237159,,,,,,,,,,,,,,,,,,,,,,,,,,,,,,,,,,,,,,,,,,,69734.000000,1692872111.228686,0.000000,0.000000,0.000000,0.000000,0.000000,0.000000
1692872111.249448,,,,,,,,,,,,,,,,,,,,,,,,,,,,,,,,,,,,,,,,,,,69735.000000,1692872111.238687,0.000000,0.000000,0.000000,0.000000,0.000000,0.000000
1692872111.251491,,,,,,,,,,,,,,,,,,,,,,,,,,,,,,,,,,,,,,,,,,0.000000,,,,,,,,
1692872111.255447,0.226481,-0.026036,-0.000018,24.157242,0.002768,-0.000361,0.590640,0.000696,0.000046,-0.016182,0.665490,0.000653,0.026970,0.938321,-0.000653,1.512480,0.387546,-0.000094,-0.632000,0.182318,-0.013000,-0.004503,0.475681,-0.005909,-0.203000,0.263319,0.001000,0.104880,0.000184,0.000138,-1.182857,-0.000007,-0.000038,35277.000000,1692872111.243900,1.172343,-1.499976,0.000048,0.410057,0.140132,0.000048,,,,,,,,,
1692872111.257222,,,,,,,,,,,,,,,,,,,,,,,,,,,,,,,,,,,,,,,,,,,69736.000000,1692872111.248851,0.000000,0.000000,0.000000,0.000000,0.000000,0.000000
1692872111.276005,,,,,,,,,,,,,,,,,,,,,,,,,,,,,,,,,,,,,,,,,,,69737.000000,1692872111.264466,0.000000,0.000000,0.000000,0.000000,0.000000,0.000000
1692872111.277992,0.242658,-0.026036,0.000545,20.664629,0.002769,0.000059,0.585120,0.000696,0.000046,-0.018879,0.665490,0.000653,0.018879,0.938321,-0.000653,1.556640,0.387546,-0.000094,-0.634000,0.181501,-0.020999,-0.006549,0.474499,-0.005318,-0.200000,0.265501,0.001000,0.066240,0.000184,0.000138,-1.242000,-0.000007,-0.000038,35278.000000,1692872111.263905,1.046171,-1.499976,0.000048,0.373257,0.140132,0.000048,,,,,,,,,
1692872111.285564,,,,,,,,,,,,,,,,,,,,,,,,,,,,,,,,,,,,,,,,,,,69738.000000,1692872111.268891,0.000000,0.000000,0.000000,0.000000,0.000000,0.000000
1692872111.289455,,,,,,,,,,,,,,,,,,,,,,,,,,,,,,,,,,,,,,,,,,,69739.000000,1692872111.278925,0.000000,0.000000,0.000000,0.000000,0.000000,0.000000
1692872111.293976,1.811847,-0.026036,0.000941,21.246731,0.002769,0.000008,0.607200,0.000696,0.000046,-0.013485,0.665490,0.000653,0.018879,0.938321,-0.000653,1.512480,0.387546,-0.000094,-0.634000,0.180910,-0.019999,-0.004091,0.475090,-0.007681,-0.202000,0.263910,0.004999,0.053360,0.000184,0.000138,-1.097429,-0.000007,-0.000038,35279.000000,1692872111.283902,1.182857,-1.499976,0.000048,0.310171,0.140132,0.000048,,,,,,,,,
1692872111.295320,,,,,,,,,,,,,,,,,,,,,,,,,,,,,,,,,,,,,,,,,,,69740.000000,1692872111.288677,0.000000,0.000000,0.000000,0.000000,0.000000,0.000000
1692872111.311791,,,,,,,,,,,,,,,,,,,,,,,,,,,,,,,,,,,,,,,,,,,69741.000000,1692872111.298629,0.000000,0.000000,0.000000,0.000000,0.000000,0.000000
1692872111.321630,0.372076,-0.026036,0.000531,22.410935,0.002768,-0.000039,0.546480,0.000696,0.000046,-0.016182,0.665490,0.000653,0.018879,0.938321,-0.000653,1.534560,0.387546,-0.005361,-0.629000,0.185501,-0.004000,-0.002454,0.474499,-0.007090,-0.203000,0.262500,-0.008999,0.053360,0.000184,0.000138,-1.130286,-0.000007,-0.000038,35280.000000,1692872111.303897,1.193371,-1.499976,0.000048,0.315429,0.140132,0.000048,,,,,,,,,
1692872111.327101,,,,,,,,,,,,,,,,,,,,,,,,,,,,,,,,,,,,,,,,,,,69742.000000,1692872111.308745,0.000000,0.000000,0.000000,0.000000,0.000000,0.000000
1692872111.337469,,,,,,,,,,,,,,,,,,,,,,,,,,,,,,,,,,,,,,,,,,,69743.000000,1692872111.318901,0.000000,0.000000,0.000000,0.000000,0.000000,0.000000
1692872111.339890,0.485316,-0.026036,-0.000018,20.082526,0.002769,0.000175,0.513360,0.000696,0.000046,-0.016182,0.665490,0.000653,0.021576,0.938321,-0.000653,1.545600,0.387546,-0.000094,-0.633000,0.182318,-0.008999,-0.009415,0.475681,-0.001181,-0.216000,0.255319,-0.048000,0.112240,0.000184,0.000138,-1.294571,-0.000007,-0.000038,35281.000000,1692872111.323904,1.151314,-1.499976,0.000048,0.325943,0.140132,0.000048,,,,,,,,,
1692872111.349738,,,,,,,,,,,,,,,,,,,,,,,,,,,,,,,,,,,,,,,,,,,69744.000000,1692872111.328712,0.000000,0.000000,0.000000,0.000000,0.000000,0.000000
1692872111.357449,,,,,,,,,,,,,,,,,,,,,,,,,,,,,,,,,,,,,,,,,,,69745.000000,1692872111.338894,0.000000,0.000000,0.000000,0.000000,0.000000,0.000000
1692872111.358506,,,,,,,,,,,,,,,,,,,,,,,,,,,,,,,,,,,,,,,,,,0.000000,,,,,,,,
1692872111.358602,0.404430,-0.026036,-0.000024,20.082526,0.002769,0.000115,0.513360,0.000696,0.000046,-0.018879,0.665510,0.001246,0.018879,0.938321,-0.000653,1.523520,0.387546,-0.000094,-0.630000,0.183091,-0.008999,-0.000408,0.473909,-0.006499,-0.210000,0.259090,-0.025000,0.099360,0.000184,0.000138,-1.268286,-0.000007,-0.000038,35282.000000,1692872111.343898,1.188114,-1.499976,0.000048,0.425829,0.140132,0.000048,,,,,,,,,
1692872111.359620,,,,,,,,,,,,,,,,,,,,,,,,,,,,,,,,,,,,,,,,,,,69746.000000,1692872111.348850,0.000000,0.000000,0.000000,0.000000,0.000000,0.000000
1692872111.374244,,,,,,,,,,,,,,,,,,,,,,,,,,,,,,,,,,,,,,,,,,,69747.000000,1692872111.359440,0.000000,0.000000,0.000000,0.000000,0.000000,0.000000
1692872111.383003,1.925087,-0.026036,0.001276,22.119884,0.002768,-0.000015,0.513360,0.000696,0.000046,-0.013485,0.665510,0.000653,0.013485,0.938321,-0.000653,1.567680,0.387546,-0.000094,-0.629000,0.184500,-0.008000,-0.004503,0.474499,-0.008863,-0.209000,0.260501,-0.013000,0.073600,0.000184,0.000138,-1.150000,-0.000007,-0.000038,35283.000000,1692872111.363904,1.061943,-1.499976,0.000048,0.420571,0.140132,0.000048,,,,,,,,,
1692872111.385549,,,,,,,,,,,,,,,,,,,,,,,,,,,,,,,,,,,,,,,,,,,69748.000000,1692872111.368653,0.000000,0.000000,0.000000,0.000000,0.000000,0.000000
1692872111.388420,,,,,,,,,,,,,,,,,,,,,,,,,,,,,,,,,,,,,,,,,,,69749.000000,1692872111.378670,0.000000,0.000000,0.000000,0.000000,0.000000,0.000000
1692872111.395629,,,,,,,,,,,,,,,,,,,,,,,,,,,,,,,,,,,,,,,,,,,69750.000000,1692872111.388732,0.000000,0.000000,0.000000,0.000000,0.000000,0.000000
1692872111.395648,0.388253,-0.026036,0.000018,21.246731,0.002768,-0.000139,0.634800,0.000696,0.000046,-0.013485,0.665510,0.000653,0.018879,0.938321,-0.000653,1.523520,0.387546,-0.000094,-0.632000,0.182501,-0.003000,-0.002866,0.474499,-0.005909,-0.206000,0.263500,-0.013000,0.075440,0.000184,0.000138,-1.222286,-0.000003,0.000038,35284.000000,1692872111.383899,1.119771,-1.499976,0.000048,0.357486,0.140132,0.000048,,,,,,,,,
1692872111.408791,,,,,,,,,,,,,,,,,,,,,,,,,,,,,,,,,,,,,,,,,,,69751.000000,1692872111.398922,0.000000,0.000000,0.000000,0.000000,0.000000,0.000000
1692872111.414794,1.164759,-0.026036,0.000018,22.119884,0.002768,-0.000015,0.590640,0.000696,0.000046,-0.010788,0.665510,0.000653,0.021576,0.938301,-0.000653,1.567680,0.387557,0.000094,-0.632000,0.181727,-0.002000,-0.006958,0.476272,-0.005909,-0.208000,0.260727,0.006000,0.055200,0.000184,0.000138,-1.209143,-0.000003,0.000038,35285.000000,1692872111.403897,1.151314,-1.499976,0.000048,0.362743,0.140132,0.000048,,,,,,,,,
1692872111.415829,,,,,,,,,,,,,,,,,,,,,,,,,,,,,,,,,,,,,,,,,,,69752.000000,1692872111.411039,0.000000,0.000000,0.000000,0.000000,0.000000,0.000000
1692872111.429435,,,,,,,,,,,,,,,,,,,,,,,,,,,,,,,,,,,,,,,,,,,69753.000000,1692872111.419407,0.000000,0.000000,0.000000,0.000000,0.000000,0.000000
1692872111.436948,0.647088,-0.026036,0.000454,21.246731,0.002769,0.000174,0.540960,0.000696,0.000046,-0.010788,0.665510,0.000653,0.021576,0.938301,-0.000653,1.523520,0.387546,-0.000094,-0.630000,0.182727,0.000000,-0.000408,0.476272,0.002954,-0.214000,0.257728,-0.013000,0.077280,0.000184,0.000138,-1.261714,-0.000003,0.000038,35286.000000,1692872111.423919,1.130286,-1.499976,0.000048,0.252343,0.140132,0.000048,,,,,,,,,
1692872111.437563,,,,,,,,,,,,,,,,,,,,,,,,,,,,,,,,,,,,,,,,,,,69754.000000,1692872111.428683,0.000000,0.000000,0.000000,0.000000,0.000000,0.000000
1692872111.461457,,,,,,,,,,,,,,,,,,,,,,,,,,,,,,,,,,,,,,,,,,,69755.000000,1692872111.440246,0.000000,0.000000,0.000000,0.000000,0.000000,0.000000
1692872111.465783,1.617720,-0.026036,-0.000018,21.246731,0.002768,-0.000008,0.645840,0.000696,0.000046,-0.010788,0.665510,0.000653,0.021576,0.938301,-0.000653,1.545600,0.387546,-0.000094,-0.629000,0.184728,0.009999,-0.006549,0.476272,0.002954,-0.215000,0.257728,-0.012000,0.080960,0.000184,0.000138,-1.196000,-0.000003,0.000038,35287.000000,1692872111.443902,1.088229,-1.499976,0.000048,0.378514,0.140132,0.000048,,,,,,,,,
1692872111.468775,,,,,,,,,,,,,,,,,,,,,,,,,,,,,,,,,,,,,,,,,,0.000000,,,,,,,,
1692872111.468781,,,,,,,,,,,,,,,,,,,,,,,,,,,,,,,,,,,,,,,,,,,69757.000000,1692872111.459214,0.000000,0.000000,0.000000,0.000000,0.000000,0.000000
1692872111.478230,0.258835,-0.026036,0.000999,20.955680,0.002768,-0.000101,0.513360,0.000696,0.000046,-0.016182,0.665510,0.000653,0.018879,0.938301,-0.000653,1.578720,0.387546,-0.000209,-0.626000,0.186091,0.004999,-0.002454,0.473909,0.005318,-0.206000,0.265091,-0.001000,0.014720,0.000184,0.000138,-1.176286,-0.000003,0.000038,35288.000000,1692872111.463915,1.140800,-1.499976,0.000048,0.252343,0.140132,0.000048,,,,,,,,,
1692872111.478281,,,,,,,,,,,,,,,,,,,,,,,,,,,,,,,,,,,,,,,,,,,69758.000000,1692872111.468686,0.000000,0.000000,0.000000,0.000000,0.000000,0.000000
1692872111.493348,,,,,,,,,,,,,,,,,,,,,,,,,,,,,,,,,,,,,,,,,,,69759.000000,1692872111.478630,0.000000,0.000000,0.000000,0.000000,0.000000,0.000000
1692872111.500853,0.355898,-0.026036,-0.000018,21.828833,0.002768,-0.000018,0.601680,0.000696,0.000046,-0.013485,0.665510,0.000653,0.021576,0.938301,-0.000653,1.523520,0.387546,-0.000094,-0.629000,0.184500,0.008999,-0.002046,0.474499,-0.006499,-0.204000,0.264501,0.008999,0.055200,0.000184,0.000138,-1.117143,-0.000003,0.000038,35289.000000,1692872111.483915,1.182857,-1.499976,0.000048,0.410057,0.140132,0.000048,,,,,,,,,
1692872111.502941,,,,,,,,,,,,,,,,,,,,,,,,,,,,,,,,,,,,,,,,,,,69760.000000,1692872111.490928,0.000000,0.000000,0.000000,0.000000,0.000000,0.000000
1692872111.509997,,,,,,,,,,,,,,,,,,,,,,,,,,,,,,,,,,,,,,,,,,,69761.000000,1692872111.498600,0.000000,0.000000,0.000000,0.000000,0.000000,0.000000
1692872111.515532,2.313340,-0.026417,0.000622,21.537782,0.002768,-0.000125,0.596160,0.000696,0.000046,-0.010788,0.665510,0.000653,0.018879,0.938301,-0.000653,1.545600,0.387546,-0.004879,-0.625000,0.186501,-0.001000,-0.001637,0.474499,-0.006499,-0.203000,0.264501,0.008999,0.029440,0.000184,0.000138,-1.307714,-0.000003,0.000038,35290.000000,1692872111.503898,1.146057,-1.499976,0.000048,0.404800,0.140132,0.000048,,,,,,,,,
1692872111.515695,,,,,,,,,,,,,,,,,,,,,,,,,,,,,,,,,,,,,,,,,,,69762.000000,1692872111.508682,0.000000,0.000000,0.000000,0.000000,0.000000,0.000000
1692872111.528469,,,,,,,,,,,,,,,,,,,,,,,,,,,,,,,,,,,,,,,,,,,69763.000000,1692872111.518687,0.000000,0.000000,0.000000,0.000000,0.000000,0.000000
1692872111.539049,0.177949,-0.026036,0.000018,20.955680,0.002769,0.000201,0.491280,0.000696,0.000046,-0.008091,0.665510,0.000653,0.013485,0.938301,-0.000653,1.512480,0.387546,-0.000094,-0.621000,0.188909,0.008999,-0.004091,0.475090,-0.003545,-0.207000,0.261909,0.004000,0.069920,0.000184,0.000138,-1.130286,-0.000003,0.000038,35291.000000,1692872111.523901,1.082971,-1.499976,0.000048,0.320686,0.140132,0.000048,,,,,,,,,
1692872111.540036,,,,,,,,,,,,,,,,,,,,,,,,,,,,,,,,,,,,,,,,,,,69764.000000,1692872111.528721,0.000000,0.000000,0.000000,0.000000,0.000000,0.000000
1692872111.549829,,,,,,,,,,,,,,,,,,,,,,,,,,,,,,,,,,,,,,,,,,,69765.000000,1692872111.538892,0.000000,0.000000,0.000000,0.000000,0.000000,0.000000
1692872111.559696,1.358885,-0.026036,0.000601,20.955680,0.002768,-0.000011,0.546480,0.000696,0.000046,-0.013485,0.665510,0.000653,0.016182,0.938301,-0.000653,1.545600,0.387546,-0.000094,-0.621000,0.187318,0.025000,-0.007778,0.475681,-0.000590,-0.209000,0.260319,-0.008999,0.038640,0.000184,0.000138,-1.215714,-0.000003,0.000038,35292.000000,1692872111.543900,1.119771,-1.499976,0.000048,0.378514,0.140132,0.000048,,,,,,,,,
1692872111.562133,,,,,,,,,,,,,,,,,,,,,,,,,,,,,,,,,,,,,,,,,,,69766.000000,1692872111.548667,0.000000,0.000000,0.000000,0.000000,0.000000,0.000000
1692872111.571103,,,,,,,,,,,,,,,,,,,,,,,,,,,,,,,,,,,,,,,,,,,69767.000000,1692872111.564573,0.000000,0.000000,0.000000,0.000000,0.000000,0.000000
1692872111.572428,,,,,,,,,,,,,,,,,,,,,,,,,,,,,,,,,,,,,,,,,,0.000000,,,,,,,,
1692872111.578818,0.825037,-0.026036,0.000018,20.664629,0.002769,0.000046,0.546480,0.000696,0.000046,-0.010788,0.665510,0.000653,0.021576,0.938301,-0.000653,1.578720,0.387557,0.000712,-0.625000,0.183137,0.014000,-0.001637,0.476863,0.008272,-0.209000,0.260136,0.001000,0.027600,0.000184,0.000138,-1.294571,-0.000003,0.000038,35293.000000,1692872111.563903,1.135543,-1.499976,0.000048,0.362743,0.140132,0.000048,,,,,,,,,
1692872111.580291,,,,,,,,,,,,,,,,,,,,,,,,,,,,,,,,,,,,,,,,,,,69768.000000,1692872111.568794,0.000000,0.000000,0.000000,0.000000,0.000000,0.000000
1692872111.592185,,,,,,,,,,,,,,,,,,,,,,,,,,,,,,,,,,,,,,,,,,,69769.000000,1692872111.578681,0.000000,0.000000,0.000000,0.000000,0.000000,0.000000
1692872111.597858,0.485316,-0.026036,0.000018,21.537782,0.002768,-0.000008,0.502320,0.000696,0.000046,-0.008091,0.665510,0.000653,0.018879,0.938301,-0.000653,1.545600,0.387546,-0.000094,-0.630000,0.180137,0.004000,-0.004091,0.476863,0.002363,-0.207000,0.262137,0.001000,0.049680,0.000184,0.000138,-1.320857,-0.000003,0.000038,35294.000000,1692872111.583907,1.019886,-1.499976,0.000048,0.394286,0.140132,0.000048,,,,,,,,,
1692872111.597882,,,,,,,,,,,,,,,,,,,,,,,,,,,,,,,,,,,,,,,,,,,69770.000000,1692872111.588933,0.000000,0.000000,0.000000,0.000000,0.000000,0.000000
1692872111.605438,,,,,,,,,,,,,,,,,,,,,,,,,,,,,,,,,,,,,,,,,,,69771.000000,1692872111.598893,0.000000,0.000000,0.000000,0.000000,0.000000,0.000000
1692872111.616685,,,,,,,,,,,,,,,,,,,,,,,,,,,,,,,,,,,,,,,,,,,69772.000000,1692872111.608668,0.000000,0.000000,0.000000,0.000000,0.000000,0.000000
1692872111.618263,0.630911,-0.026036,0.000018,18.918322,0.002768,-0.000292,0.491280,0.000696,0.000046,-0.016182,0.665510,0.000653,0.018879,0.938281,-0.001246,1.556640,0.387546,-0.000094,-0.629000,0.181727,-0.016000,-0.003683,0.476272,0.004727,-0.208000,0.261727,0.009999,0.069920,0.000184,0.000138,-1.347143,-0.000003,0.000038,35295.000000,1692872111.603897,1.135543,-1.499976,0.000048,0.420571,0.140132,0.000048,,,,,,,,,
1692872111.624004,,,,,,,,,,,,,,,,,,,,,,,,,,,,,,,,,,,,,,,,,,,69773.000000,1692872111.618761,0.000000,0.000000,0.000000,0.000000,0.000000,0.000000
1692872111.637520,,,,,,,,,,,,,,,,,,,,,,,,,,,,,,,,,,,,,,,,,,,69774.000000,1692872111.628917,0.000000,0.000000,0.000000,0.000000,0.000000,0.000000
1692872111.640013,0.501493,-0.026036,0.000018,20.664629,0.002768,-0.000062,0.552000,0.000696,0.000046,-0.013485,0.665510,0.000653,0.018879,0.938281,-0.000653,1.567680,0.387546,-0.001696,-0.625000,0.186501,-0.006000,-0.000817,0.474499,-0.006499,-0.204000,0.263500,0.004000,0.034960,0.000184,0.000138,-1.347143,-0.000003,0.000038,35296.000000,1692872111.623904,1.182857,-1.499976,0.000048,0.362743,0.140132,0.000048,,,,,,,,,
1692872111.646411,,,,,,,,,,,,,,,,,,,,,,,,,,,,,,,,,,,,,,,,,,,69775.000000,1692872111.638955,0.000000,0.000000,0.000000,0.000000,0.000000,0.000000
1692872111.660308,,,,,,,,,,,,,,,,,,,,,,,,,,,,,,,,,,,,,,,,,,,69776.000000,1692872111.649722,0.000000,0.000000,0.000000,0.000000,0.000000,0.000000
1692872111.663144,1.763315,-0.026036,0.000018,21.246731,0.002768,-0.000008,0.480240,0.000696,0.000046,-0.008091,0.665510,0.000653,0.016182,0.938281,-0.000653,1.534560,0.387546,-0.000094,-0.621000,0.186910,0.008000,-0.002454,0.475090,-0.006499,-0.209000,0.259910,-0.001000,0.062560,0.000184,0.000138,-1.261714,-0.000003,0.000038,35297.000000,1692872111.643899,1.082971,-1.499976,0.000048,0.373257,0.140132,0.000048,,,,,,,,,
1692872111.674468,,,,,,,,,,,,,,,,,,,,,,,,,,,,,,,,,,,,,,,,,,,69777.000000,1692872111.666543,0.000000,0.000000,0.000000,0.000000,0.000000,0.000000
1692872111.674671,2.167745,-0.026036,0.000018,21.246731,0.002769,0.000104,0.579600,0.000696,0.000046,-0.010788,0.665510,0.000653,0.018879,0.938281,-0.000653,1.567680,0.387546,-0.000094,-0.620000,0.186319,0.008000,-0.010644,0.475681,-0.003545,-0.209000,0.259319,-0.009999,0.068080,0.000184,0.000138,-1.366857,-0.000003,0.000038,35298.000000,1692872111.663908,1.051429,-1.499976,0.000048,0.346971,0.140132,0.000048,,,,,,,,,
1692872111.682303,,,,,,,,,,,,,,,,,,,,,,,,,,,,,,,,,,,,,,,,,,0.000000,,,,,,,,
1692872111.684035,,,,,,,,,,,,,,,,,,,,,,,,,,,,,,,,,,,,,,,,,,,69778.000000,1692872111.668977,0.000000,0.000000,0.000000,0.000000,0.000000,0.000000
1692872111.692017,,,,,,,,,,,,,,,,,,,,,,,,,,,,,,,,,,,,,,,,,,,69779.000000,1692872111.678685,0.000000,0.000000,0.000000,0.000000,0.000000,0.000000
1692872111.696066,1.375062,-0.026036,0.000018,20.082526,0.002769,0.000051,0.474720,0.000696,0.000046,-0.013485,0.665510,0.000653,0.016182,0.938281,-0.000653,1.711200,0.387557,0.001057,-0.620000,0.186319,0.008000,-0.004091,0.475681,-0.000590,-0.209000,0.259319,-0.009999,0.077280,0.000184,0.000138,-1.314286,-0.000007,-0.000038,35299.000000,1692872111.683899,1.019886,-1.499976,0.000048,0.378514,0.140132,0.000048,,,,,,,,,
1692872111.705091,,,,,,,,,,,,,,,,,,,,,,,,,,,,,,,,,,,,,,,,,,,69780.000000,1692872111.688725,0.000000,0.000000,0.000000,0.000000,0.000000,0.000000
1692872111.714789,,,,,,,,,,,,,,,,,,,,,,,,,,,,,,,,,,,,,,,,,,,69781.000000,1692872111.699202,0.000000,0.000000,0.000000,0.000000,0.000000,0.000000
1692872111.720818,0.533848,-0.026036,-0.000018,20.664629,0.002768,-0.000008,0.535440,0.000696,0.000046,-0.008091,0.665510,0.000653,0.018879,0.938281,-0.000653,1.512480,0.387546,-0.000565,-0.620000,0.185319,0.003000,-0.004091,0.475681,-0.000590,-0.204000,0.263319,0.004999,0.046000,0.000184,0.000138,-1.228857,-0.000007,-0.000038,35300.000000,1692872111.703899,1.125029,-1.499976,0.000048,0.320686,0.140132,0.000048,,,,,,,,,
1692872111.725509,,,,,,,,,,,,,,,,,,,,,,,,,,,,,,,,,,,,,,,,,,,69782.000000,1692872111.708864,0.000000,0.000000,0.000000,0.000000,0.000000,0.000000
1692872111.727017,,,,,,,,,,,,,,,,,,,,,,,,,,,,,,,,,,,,,,,,,,,69783.000000,1692872111.718938,0.000000,0.000000,0.000000,0.000000,0.000000,0.000000
1692872111.741996,,,,,,,,,,,,,,,,,,,,,,,,,,,,,,,,,,,,,,,,,,,69784.000000,1692872111.729101,0.000000,0.000000,0.000000,0.000000,0.000000,0.000000
1692872111.742024,2.054505,-0.026036,-0.000456,20.955680,0.002768,-0.000008,0.540960,0.000696,0.000046,-0.010788,0.665510,0.000653,0.018879,0.938281,-0.000653,1.700160,0.387557,0.000701,-0.620000,0.185137,0.003000,-0.001225,0.476863,-0.000590,-0.208000,0.261136,0.008999,0.034960,0.000184,0.000138,-1.294571,-0.000007,-0.000038,35301.000000,1692872111.723901,1.130286,-1.499976,0.000048,0.315429,0.140132,0.000048,,,,,,,,,
1692872111.749642,,,,,,,,,,,,,,,,,,,,,,,,,,,,,,,,,,,,,,,,,,,69785.000000,1692872111.738716,0.000000,0.000000,0.000000,0.000000,0.000000,0.000000
1692872111.759820,0.792683,-0.026036,0.000244,22.119884,0.002768,-0.000102,0.469200,0.000696,0.000046,-0.035061,0.665529,0.002197,0.016182,0.938281,-0.000653,1.600800,0.387557,0.006712,-0.620000,0.185728,0.006000,-0.001637,0.476272,0.002363,-0.210000,0.259728,0.004000,0.055200,0.000184,0.000138,-1.255143,-0.000007,-0.000038,35302.000000,1692872111.743905,1.051429,-1.499976,0.000048,0.425829,0.140132,0.000048,,,,,,,,,
1692872111.761321,,,,,,,,,,,,,,,,,,,,,,,,,,,,,,,,,,,,,,,,,,,69786.000000,1692872111.749814,0.000000,0.000000,0.000000,0.000000,0.000000,0.000000
1692872111.767469,,,,,,,,,,,,,,,,,,,,,,,,,,,,,,,,,,,,,,,,,,,69787.000000,1692872111.758723,0.000000,0.000000,0.000000,0.000000,0.000000,0.000000
1692872111.778597,2.313340,-0.026417,0.001924,22.119884,0.002768,-0.000012,0.535440,0.000696,0.000046,-0.010788,0.665529,0.000653,0.018879,0.938281,-0.000653,1.578720,0.387546,-0.000094,-0.619000,0.186727,0.006000,-0.003275,0.476272,0.004727,-0.211000,0.258728,-0.006000,0.080960,0.000184,0.000138,-1.117143,-0.000007,-0.000038,35303.000000,1692872111.763905,1.135543,-1.499976,0.000048,0.315429,0.140132,0.000048,,,,,,,,,
1692872111.778690,,,,,,,,,,,,,,,,,,,,,,,,,,,,,,,,,,,,,,,,,,,69788.000000,1692872111.769584,0.000000,0.000000,0.000000,0.000000,0.000000,0.000000
1692872111.787370,,,,,,,,,,,,,,,,,,,,,,,,,,,,,,,,,,,,,,,,,,,69789.000000,1692872111.778589,0.000000,0.000000,0.000000,0.000000,0.000000,0.000000
1692872111.788516,,,,,,,,,,,,,,,,,,,,,,,,,,,,,,,,,,,,,,,,,,0.000000,,,,,,,,
1692872111.794444,1.019164,-0.026036,-0.000018,21.246731,0.002768,-0.000008,0.678960,0.000696,0.000046,-0.010788,0.665529,0.000653,0.018879,0.938281,-0.000653,1.589760,0.387557,0.000356,-0.617000,0.187318,0.009999,-0.001225,0.475681,-0.001181,-0.209000,0.261318,0.000000,0.086480,0.000184,0.000138,-1.274857,-0.000007,-0.000038,35304.000000,1692872111.783902,1.088229,-1.499976,0.000048,0.241829,0.140132,0.000048,,,,,,,,,
1692872111.796659,,,,,,,,,,,,,,,,,,,,,,,,,,,,,,,,,,,,,,,,,,,69790.000000,1692872111.791190,0.000000,0.000000,0.000000,0.000000,0.000000,0.000000
1692872111.808495,,,,,,,,,,,,,,,,,,,,,,,,,,,,,,,,,,,,,,,,,,,69791.000000,1692872111.798952,0.000000,0.000000,0.000000,0.000000,0.000000,0.000000
1692872111.821273,0.614734,-0.026036,-0.000018,19.500424,0.002769,0.000264,0.607200,0.000696,0.000046,-0.008091,0.665529,0.000653,0.013485,0.938281,-0.000653,1.501440,0.387546,-0.000094,-0.615000,0.188318,0.014000,-0.004503,0.475681,-0.001181,-0.207000,0.261318,0.004000,0.079120,0.000184,0.000138,-1.242000,-0.000007,-0.000038,35305.000000,1692872111.803898,1.125029,-1.499976,0.000048,0.404800,0.140132,0.000048,,,,,,,,,
1692872111.821635,,,,,,,,,,,,,,,,,,,,,,,,,,,,,,,,,,,,,,,,,,,69792.000000,1692872111.808697,0.000000,0.000000,0.000000,0.000000,0.000000,0.000000
1692872111.830289,,,,,,,,,,,,,,,,,,,,,,,,,,,,,,,,,,,,,,,,,,,69793.000000,1692872111.818681,0.000000,0.000000,0.000000,0.000000,0.000000,0.000000
1692872111.838231,2.248631,-0.026036,-0.000018,20.955680,0.002768,-0.000013,0.535440,0.000696,0.000046,-0.008091,0.665529,0.000653,0.016182,0.938281,-0.000653,1.556640,0.387557,0.000429,-0.617000,0.187909,0.008999,-0.002866,0.475090,-0.003545,-0.206000,0.261909,-0.001000,0.023920,0.000184,0.000138,-1.307714,-0.000007,-0.000038,35306.000000,1692872111.823901,1.019886,-1.499976,0.000048,0.283886,0.140132,0.000048,,,,,,,,,
1692872111.842220,,,,,,,,,,,,,,,,,,,,,,,,,,,,,,,,,,,,,,,,,,,69794.000000,1692872111.828732,0.000000,0.000000,0.000000,0.000000,0.000000,0.000000
1692872111.851829,,,,,,,,,,,,,,,,,,,,,,,,,,,,,,,,,,,,,,,,,,,69795.000000,1692872111.838807,0.000000,0.000000,0.000000,0.000000,0.000000,0.000000
1692872111.855698,2.022150,-0.026036,-0.000018,21.537782,0.002768,-0.000010,0.391920,0.000696,0.000046,-0.021576,0.665529,0.000653,0.018879,0.938281,-0.000653,1.578720,0.387546,-0.000094,-0.617000,0.187909,0.008999,-0.002454,0.475090,-0.003545,-0.209000,0.259910,-0.001000,0.014720,0.000184,0.000138,-1.169714,-0.000007,-0.000038,35307.000000,1692872111.843898,1.098743,-1.499976,0.000048,0.399543,0.140132,0.000048,,,,,,,,,
1692872111.862881,,,,,,,,,,,,,,,,,,,,,,,,,,,,,,,,,,,,,,,,,,,69796.000000,1692872111.848716,0.000000,0.000000,0.000000,0.000000,0.000000,0.000000
1692872111.873101,,,,,,,,,,,,,,,,,,,,,,,,,,,,,,,,,,,,,,,,,,,69797.000000,1692872111.858708,0.000000,0.000000,0.000000,0.000000,0.000000,0.000000
1692872111.879570,,,,,,,,,,,,,,,,,,,,,,,,,,,,,,,,,,,,,,,,,,,69798.000000,1692872111.868942,0.000000,0.000000,0.000000,0.000000,0.000000,0.000000
1692872111.879826,1.860378,-0.026036,-0.000575,20.373577,0.002769,0.000180,0.634800,0.000696,0.000046,-0.013485,0.665529,0.000653,0.018879,0.938281,-0.000653,1.523520,0.387557,0.000094,-0.623000,0.183909,-0.006000,-0.000408,0.475090,-0.003545,-0.208000,0.261909,0.004000,0.022080,0.000184,0.000138,-1.044857,-0.000007,-0.000038,35308.000000,1692872111.863899,1.161829,-1.499976,0.000048,0.315429,0.140132,0.000048,,,,,,,,,
1692872111.889528,,,,,,,,,,,,,,,,,,,,,,,,,,,,,,,,,,,,,,,,,,,69799.000000,1692872111.878631,0.000000,0.000000,0.000000,0.000000,0.000000,0.000000
1692872111.896942,1.892733,-0.025652,-0.000945,19.500424,0.002769,0.000113,0.408480,0.000696,0.000046,-0.008091,0.665529,0.000653,0.016182,0.938281,-0.000653,1.534560,0.387546,-0.000094,-0.621000,0.184910,-0.009999,0.000000,0.475090,-0.008863,-0.209000,0.260910,-0.004999,0.016560,0.000184,0.000138,-1.196000,-0.000007,-0.000038,35309.000000,1692872111.883899,1.025143,-1.499976,0.000048,0.331200,0.140132,0.000048,,,,,,,,,
1692872111.897474,,,,,,,,,,,,,,,,,,,,,,,,,,,,,,,,,,,,,,,,,,,69800.000000,1692872111.889066,0.000000,0.000000,0.000000,0.000000,0.000000,0.000000
1692872111.897486,,,,,,,,,,,,,,,,,,,,,,,,,,,,,,,,,,,,,,,,,,0.000000,,,,,,,,
1692872111.905907,,,,,,,,,,,,,,,,,,,,,,,,,,,,,,,,,,,,,,,,,,,69801.000000,1692872111.898721,0.000000,0.000000,0.000000,0.000000,0.000000,0.000000
1692872111.922321,,,,,,,,,,,,,,,,,,,,,,,,,,,,,,,,,,,,,,,,,,,69802.000000,1692872111.908907,0.000000,0.000000,0.000000,0.000000,0.000000,0.000000
1692872111.922335,0.630911,-0.026036,-0.000018,20.955680,0.002769,0.000280,0.552000,0.000696,0.000046,-0.008091,0.665529,0.000653,0.018879,0.938281,-0.000653,1.534560,0.387546,-0.000094,-0.623000,0.183318,-0.004999,-0.001225,0.475681,0.000000,-0.207000,0.262318,0.000000,0.031280,0.000184,0.000138,-1.176286,-0.000007,-0.000038,35310.000000,1692872111.903899,1.082971,-1.499976,0.000048,0.352229,0.140132,0.000048,,,,,,,,,
1692872111.937994,,,,,,,,,,,,,,,,,,,,,,,,,,,,,,,,,,,,,,,,,,,69803.000000,1692872111.918588,0.000000,0.000000,0.000000,0.000000,0.000000,0.000000
1692872111.941441,2.022150,-0.026036,-0.000018,21.246731,0.002768,-0.000008,0.518880,0.000696,0.000046,-0.008091,0.665529,0.000653,0.018879,0.938261,-0.000653,1.545600,0.387546,-0.000094,-0.623000,0.183318,-0.008999,-0.010644,0.475681,0.000000,-0.207000,0.262318,0.004000,0.042320,0.000184,0.000138,-1.340571,-0.000007,-0.000038,35311.000000,1692872111.923907,1.098743,-1.499976,0.000048,0.341714,0.140132,0.000048,,,,,,,,,
1692872111.942172,,,,,,,,,,,,,,,,,,,,,,,,,,,,,,,,,,,,,,,,,,,69804.000000,1692872111.929307,0.000000,0.000000,0.000000,0.000000,0.000000,0.000000
1692872111.954704,,,,,,,,,,,,,,,,,,,,,,,,,,,,,,,,,,,,,,,,,,,69805.000000,1692872111.938846,0.000000,0.000000,0.000000,0.000000,0.000000,0.000000
1692872111.959708,,,,,,,,,,,,,,,,,,,,,,,,,,,,,,,,,,,,,,,,,,,69806.000000,1692872111.948644,0.000000,0.000000,0.000000,0.000000,0.000000,0.000000
1692872111.959719,1.067695,-0.026036,-0.000018,21.537782,0.002768,0.000008,0.529920,0.000696,0.000046,-0.010788,0.665529,0.000653,0.024273,0.938261,-0.000653,1.556640,0.387546,-0.000094,-0.625000,0.182501,-0.004000,-0.003275,0.474499,-0.002363,-0.207000,0.262500,0.004000,0.033120,0.000169,-0.000138,-1.294571,-0.000007,-0.000038,35312.000000,1692872111.943897,1.130286,-1.499976,0.000048,0.410057,0.140132,0.000048,,,,,,,,,
1692872111.977072,,,,,,,,,,,,,,,,,,,,,,,,,,,,,,,,,,,,,,,,,,,69807.000000,1692872111.958810,0.000000,0.000000,0.000000,0.000000,0.000000,0.000000
1692872111.978250,1.520657,-0.025652,-0.001272,20.373577,0.002768,-0.000008,0.491280,0.000696,0.000046,-0.010788,0.665529,0.000653,0.016182,0.938261,-0.000653,1.622880,0.387557,0.000094,-0.623000,0.184500,-0.013000,-0.001225,0.474499,-0.004727,-0.207000,0.262500,-0.001000,0.023920,0.000169,-0.000138,-1.163143,-0.000007,-0.000038,35313.000000,1692872111.963901,1.167086,-1.499976,0.000048,0.331200,0.140132,0.000048,,,,,,,,,
1692872111.987469,,,,,,,,,,,,,,,,,,,,,,,,,,,,,,,,,,,,,,,,,,,69808.000000,1692872111.968684,0.000000,0.000000,0.000000,0.000000,0.000000,0.000000
1692872111.994596,,,,,,,,,,,,,,,,,,,,,,,,,,,,,,,,,,,,,,,,,,,69809.000000,1692872111.978719,0.000000,0.000000,0.000000,0.000000,0.000000,0.000000
1692872111.997484,0.889746,-0.026036,-0.000412,20.373577,0.002768,-0.000008,0.447120,0.000696,0.000046,-0.013485,0.665529,0.000653,0.016182,0.938261,-0.000653,1.512480,0.387546,-0.000094,-0.619000,0.187682,-0.008000,-0.002046,0.473318,-0.004727,-0.207000,0.261682,-0.001000,0.031280,0.000169,-0.000138,-1.215714,-0.000007,-0.000038,35314.000000,1692872111.983897,1.104000,-1.499976,0.000048,0.541486,0.140132,0.000048,,,,,,,,,
1692872111.999804,,,,,,,,,,,,,,,,,,,,,,,,,,,,,,,,,,,,,,,,,,,69810.000000,1692872111.988647,0.000000,0.000000,0.000000,0.000000,0.000000,0.000000
1692872112.009726,,,,,,,,,,,,,,,,,,,,,,,,,,,,,,,,,,,,,,,,,,,69811.000000,1692872111.998850,0.000000,0.000000,0.000000,0.000000,0.000000,0.000000
1692872112.016855,,,,,,,,,,,,,,,,,,,,,,,,,,,,,,,,,,,,,,,,,,0.000000,,,,,,,,
1692872112.029932,0.873569,-0.026036,0.000018,21.828833,0.002768,-0.000008,0.728640,0.000696,0.000046,-0.008091,0.665529,0.000653,0.018879,0.938261,-0.000653,1.556640,0.387557,0.000691,-0.620000,0.185319,0.006000,-0.008186,0.475681,0.001772,-0.209000,0.259319,-0.009999,0.036800,0.000169,-0.000138,-1.452286,-0.000007,-0.000038,35315.000000,1692872112.003901,1.130286,-1.499976,0.000048,0.431086,0.140132,0.000048,,,,,,,,,
1692872112.033301,,,,,,,,,,,,,,,,,,,,,,,,,,,,,,,,,,,,,,,,,,,69812.000000,1692872112.009151,0.000000,0.000000,0.000000,0.000000,0.000000,0.000000
1692872112.042695,,,,,,,,,,,,,,,,,,,,,,,,,,,,,,,,,,,,,,,,,,,69813.000000,1692872112.018881,0.000000,0.000000,0.000000,0.000000,0.000000,0.000000
1692872112.044117,1.407417,-0.026036,-0.000888,21.828833,0.002768,-0.000008,0.607200,0.000696,0.000046,-0.016182,0.665529,0.000653,0.018879,0.938261,-0.000653,1.545600,0.387546,-0.000094,-0.617000,0.186727,0.014999,-0.006549,0.476272,0.004136,-0.210000,0.258728,-0.009999,0.020240,0.000169,-0.000138,-1.248571,-0.000007,-0.000038,35316.000000,1692872112.023901,1.046171,-1.499976,0.000048,0.268114,0.140132,0.000048,,,,,,,,,
1692872112.044151,,,,,,,,,,,,,,,,,,,,,,,,,,,,,,,,,,,,,,,,,,,69814.000000,1692872112.028900,0.000000,0.000000,0.000000,0.000000,0.000000,0.000000
1692872112.053944,,,,,,,,,,,,,,,,,,,,,,,,,,,,,,,,,,,,,,,,,,,69815.000000,1692872112.038784,0.000000,0.000000,0.000000,0.000000,0.000000,0.000000
1692872112.059762,1.100050,-0.026036,0.000018,20.664629,0.002769,0.000162,0.552000,0.000696,0.000046,-0.008091,0.665529,0.000653,0.016182,0.938261,-0.000653,1.512480,0.387546,-0.000094,-0.621000,0.184363,0.009999,-0.006549,0.478636,0.009454,-0.212000,0.258363,-0.009999,0.025760,0.000169,-0.000138,-1.209143,-0.000007,-0.000038,35317.000000,1692872112.043897,1.172343,-1.499976,0.000048,0.289143,0.140132,0.000048,,,,,,,,,
1692872112.071649,,,,,,,,,,,,,,,,,,,,,,,,,,,,,,,,,,,,,,,,,,,69816.000000,1692872112.048821,0.000000,0.000000,0.000000,0.000000,0.000000,0.000000
1692872112.083072,,,,,,,,,,,,,,,,,,,,,,,,,,,,,,,,,,,,,,,,,,,69818.000000,1692872112.068698,0.000000,0.000000,0.000000,0.000000,0.000000,0.000000
1692872112.083092,1.035341,-0.026036,0.000018,21.828833,0.002768,-0.000242,0.430560,0.000696,0.000046,-0.010788,0.665529,0.000653,0.018879,0.938261,-0.000653,1.567680,0.387546,-0.000094,-0.624000,0.183364,0.009999,-0.006141,0.478636,0.014772,-0.212000,0.258363,0.000000,0.038640,0.000169,-0.000138,-1.242000,-0.000007,-0.000038,35318.000000,1692872112.063900,1.104000,-1.499976,0.000048,0.310171,0.140132,0.000048,,,,,,,,,
1692872112.097887,,,,,,,,,,,,,,,,,,,,,,,,,,,,,,,,,,,,,,,,,,,69819.000000,1692872112.078961,0.000000,0.000000,0.000000,0.000000,0.000000,0.000000
1692872112.101247,0.291190,-0.026036,0.000018,23.284088,0.002768,-0.000299,0.496800,0.000696,0.000046,-0.016182,0.665529,0.000653,0.016182,0.938261,-0.000653,1.512480,0.387546,-0.000094,-0.620000,0.186727,0.008999,-0.002454,0.476272,0.010045,-0.209000,0.261727,0.004000,0.036800,0.000169,-0.000138,-1.288000,-0.000007,-0.000038,35319.000000,1692872112.083895,1.114514,-1.499976,0.000048,0.362743,0.140132,0.000048,,,,,,,,,
1692872112.106823,,,,,,,,,,,,,,,,,,,,,,,,,,,,,,,,,,,,,,,,,,,69820.000000,1692872112.088616,0.000000,0.000000,0.000000,0.000000,0.000000,0.000000
1692872112.110460,,,,,,,,,,,,,,,,,,,,,,,,,,,,,,,,,,,,,,,,,,,69821.000000,1692872112.098602,0.000000,0.000000,0.000000,0.000000,0.000000,0.000000
1692872112.120262,,,,,,,,,,,,,,,,,,,,,,,,,,,,,,,,,,,,,,,,,,0.000000,,,,,,,,
1692872112.120270,1.002987,-0.026036,0.000018,20.664629,0.002769,0.000294,0.507840,0.000696,0.000046,-0.013485,0.665529,0.000653,0.021576,0.938261,-0.000653,1.656000,0.387557,0.000188,-0.623000,0.185137,0.008999,-0.001225,0.476863,-0.001772,-0.211000,0.261136,0.004000,0.055200,0.000169,-0.000138,-1.156571,-0.000007,-0.000038,35320.000000,1692872112.103901,1.098743,-1.499976,0.000048,0.373257,0.140132,0.000048,,,,,,,,,
1692872112.126143,,,,,,,,,,,,,,,,,,,,,,,,,,,,,,,,,,,,,,,,,,,69822.000000,1692872112.108660,0.000000,0.000000,0.000000,0.000000,0.000000,0.000000
1692872112.136549,,,,,,,,,,,,,,,,,,,,,,,,,,,,,,,,,,,,,,,,,,,69823.000000,1692872112.119146,0.000000,0.000000,0.000000,0.000000,0.000000,0.000000
1692872112.139318,1.989796,-0.026036,-0.000018,20.955680,0.002768,-0.000369,0.408480,0.000696,0.000046,-0.008091,0.665529,0.000653,0.018879,0.938261,-0.000653,1.600800,0.387557,0.000429,-0.619000,0.188137,0.013000,-0.008598,0.476863,0.006499,-0.212000,0.261136,0.004000,0.009200,0.000169,-0.000138,-1.169714,-0.000007,-0.000038,35321.000000,1692872112.123899,1.088229,-1.499976,0.000048,0.320686,0.140132,0.000048,,,,,,,,,
1692872112.144587,,,,,,,,,,,,,,,,,,,,,,,,,,,,,,,,,,,,,,,,,,,69824.000000,1692872112.128714,0.000000,0.000000,0.000000,0.000000,0.000000,0.000000
1692872112.153178,,,,,,,,,,,,,,,,,,,,,,,,,,,,,,,,,,,,,,,,,,,69825.000000,1692872112.138700,0.000000,0.000000,0.000000,0.000000,0.000000,0.000000
1692872112.160014,1.650075,-0.026036,-0.000018,20.955680,0.002769,0.000008,0.535440,0.000696,0.000046,-0.016182,0.665529,0.000653,0.018879,0.938261,-0.000653,1.589760,0.387546,-0.000157,-0.623000,0.184319,-0.003000,-0.001225,0.475681,-0.002363,-0.211000,0.263319,0.004000,0.033120,0.000169,-0.000138,-1.169714,-0.000007,-0.000038,35322.000000,1692872112.143902,1.077714,-1.499976,0.000048,0.357486,0.140132,0.000048,,,,,,,,,
1692872112.163057,,,,,,,,,,,,,,,,,,,,,,,,,,,,,,,,,,,,,,,,,,,69826.000000,1692872112.148857,0.000000,0.000000,0.000000,0.000000,0.000000,0.000000
1692872112.178544,,,,,,,,,,,,,,,,,,,,,,,,,,,,,,,,,,,,,,,,,,,69827.000000,1692872112.159313,0.000000,0.000000,0.000000,0.000000,0.000000,0.000000
1692872112.178553,1.116227,-0.026036,-0.001025,20.664629,0.002768,-0.000015,0.563040,0.000696,0.000046,-0.013485,0.665529,0.000653,0.016182,0.938261,-0.000653,1.578720,0.387557,0.000094,-0.626000,0.182136,-0.010999,-0.004091,0.476863,0.003545,-0.216000,0.260136,0.008000,0.038640,0.000169,-0.000138,-1.182857,-0.000007,-0.000038,35323.000000,1692872112.163904,1.146057,-1.499976,0.000048,0.357486,0.140132,0.000048,,,,,,,,,
1692872112.189149,,,,,,,,,,,,,,,,,,,,,,,,,,,,,,,,,,,,,,,,,,,69829.000000,1692872112.178855,0.000000,0.000000,0.000000,0.000000,0.000000,0.000000
1692872112.197003,1.925087,-0.026036,-0.000018,20.955680,0.002768,-0.000019,0.529920,0.000696,0.000046,-0.010788,0.665529,0.000653,0.016182,0.938261,0.000771,1.501440,0.387546,-0.000094,-0.625000,0.183318,-0.006000,-0.000408,0.475681,0.000590,-0.212000,0.262318,-0.006000,0.020240,0.000169,-0.000138,-1.104000,-0.000007,-0.000038,35324.000000,1692872112.183903,1.125029,-1.499976,0.000048,0.352229,0.140132,0.000048,,,,,,,,,
1692872112.201344,,,,,,,,,,,,,,,,,,,,,,,,,,,,,,,,,,,,,,,,,,,69830.000000,1692872112.188699,0.000000,0.000000,0.000000,0.000000,0.000000,0.000000
1692872112.212100,,,,,,,,,,,,,,,,,,,,,,,,,,,,,,,,,,,,,,,,,,,69831.000000,1692872112.198673,0.000000,0.000000,0.000000,0.000000,0.000000,0.000000
1692872112.218332,0.388253,-0.026036,-0.000018,22.993037,0.002768,-0.000416,0.364320,0.000696,0.000046,-0.013485,0.665529,0.000653,0.016182,0.938242,-0.000653,1.512480,0.387546,-0.000094,-0.626000,0.183318,-0.014000,-0.005320,0.475681,-0.002363,-0.203000,0.268319,0.017999,-0.001840,0.000169,-0.000138,-1.261714,-0.000007,-0.000038,35325.000000,1692872112.203904,1.172343,-1.499976,0.000048,0.368000,0.140132,0.000048,,,,,,,,,
1692872112.226999,,,,,,,,,,,,,,,,,,,,,,,,,,,,,,,,,,,,,,,,,,,69832.000000,1692872112.208610,0.000000,0.000000,0.000000,0.000000,0.000000,0.000000
1692872112.229996,,,,,,,,,,,,,,,,,,,,,,,,,,,,,,,,,,,,,,,,,,0.000000,,,,,,,,
1692872112.243539,,,,,,,,,,,,,,,,,,,,,,,,,,,,,,,,,,,,,,,,,,,69833.000000,1692872112.221493,0.000000,0.000000,0.000000,0.000000,0.000000,0.000000
1692872112.243554,2.070682,-0.026036,-0.000018,20.955680,0.002768,-0.000015,0.425040,0.000696,0.000046,-0.013485,0.665529,0.000653,0.016182,0.938242,-0.000653,1.656000,0.387557,0.000094,-0.630000,0.181319,-0.008999,-0.004091,0.475681,-0.002363,-0.203000,0.267318,0.032000,0.018400,0.000169,-0.000138,-1.235429,-0.000007,-0.000038,35326.000000,1692872112.223903,1.156571,-1.499976,0.000048,0.315429,0.140132,0.000048,,,,,,,,,
1692872112.245888,,,,,,,,,,,,,,,,,,,,,,,,,,,,,,,,,,,,,,,,,,,69834.000000,1692872112.229839,0.000000,0.000000,0.000000,0.000000,0.000000,0.000000
1692872112.252478,,,,,,,,,,,,,,,,,,,,,,,,,,,,,,,,,,,,,,,,,,,69835.000000,1692872112.238681,0.000000,0.000000,0.000000,0.000000,0.000000,0.000000
1692872112.256910,,,,,,,,,,,,,,,,,,,,,,,,,,,,,,,,,,,,,,,,,,,69836.000000,1692872112.248852,0.000000,0.000000,0.000000,0.000000,0.000000,0.000000
1692872112.259897,0.275012,-0.026036,-0.000018,21.246731,0.002768,-0.000157,0.629280,0.000696,0.000046,-0.002697,0.665529,0.000653,0.016182,0.938242,-0.000653,1.556640,0.387557,0.000188,-0.632000,0.181136,-0.017999,-0.000817,0.476863,0.003545,-0.206000,0.264136,0.028999,0.027600,0.000169,-0.000138,-1.353714,-0.000007,-0.000038,35327.000000,1692872112.243906,1.156571,-1.499976,0.000048,0.420571,0.140132,0.000048,,,,,,,,,
1692872112.276491,,,,,,,,,,,,,,,,,,,,,,,,,,,,,,,,,,,,,,,,,,,69837.000000,1692872112.269465,0.000000,0.000000,0.000000,0.000000,0.000000,0.000000
1692872112.276654,1.617720,-0.026036,0.000018,20.955680,0.002769,0.000032,0.353280,0.000696,0.000046,-0.013485,0.665529,0.000653,0.013485,0.938242,-0.000653,1.479360,0.387546,-0.000094,-0.633000,0.182318,-0.013000,-0.001225,0.475681,-0.002954,-0.203000,0.264319,0.013000,0.007360,0.000169,-0.000138,-1.327429,-0.000007,-0.000038,35328.000000,1692872112.263901,1.266971,-1.499976,0.000048,0.320686,0.140132,0.000048,,,,,,,,,
1692872112.285749,,,,,,,,,,,,,,,,,,,,,,,,,,,,,,,,,,,,,,,,,,,69838.000000,1692872112.275644,0.000000,0.000000,0.000000,0.000000,0.000000,0.000000
1692872112.287849,,,,,,,,,,,,,,,,,,,,,,,,,,,,,,,,,,,,,,,,,,,69839.000000,1692872112.278659,0.000000,0.000000,0.000000,0.000000,0.000000,0.000000
1692872112.299174,0.630911,-0.026036,-0.000020,21.246731,0.002769,0.000073,0.469200,0.000696,0.000046,-0.018879,0.665529,0.000653,0.018879,0.938242,-0.000653,1.523520,0.387546,-0.000094,-0.629000,0.184319,-0.013000,-0.008598,0.475681,-0.002954,-0.203000,0.263319,0.008000,0.042320,0.000169,-0.000138,-1.130286,-0.000007,-0.000038,35329.000000,1692872112.283901,1.125029,-1.499976,0.000048,0.336457,0.140132,0.000048,,,,,,,,,
1692872112.301278,,,,,,,,,,,,,,,,,,,,,,,,,,,,,,,,,,,,,,,,,,,69840.000000,1692872112.289407,0.000000,0.000000,0.000000,0.000000,0.000000,0.000000
1692872112.310363,,,,,,,,,,,,,,,,,,,,,,,,,,,,,,,,,,,,,,,,,,,69841.000000,1692872112.303292,0.000000,0.000000,0.000000,0.000000,0.000000,0.000000
1692872112.315519,,,,,,,,,,,,,,,,,,,,,,,,,,,,,,,,,,,,,,,,,,,69842.000000,1692872112.308720,0.000000,0.000000,0.000000,0.000000,0.000000,0.000000
1692872112.315545,0.097063,-0.026036,0.000070,23.284088,0.002768,-0.000227,0.474720,0.000696,0.000046,-0.016182,0.665529,0.000653,0.016182,0.938242,-0.000653,1.567680,0.387546,-0.000094,-0.632000,0.182318,-0.008000,-0.000408,0.475681,-0.005318,-0.211000,0.259319,-0.010999,0.018400,0.000169,-0.000138,-1.123714,-0.000007,-0.000038,35330.000000,1692872112.303905,1.167086,-1.499976,0.000048,0.325943,0.140132,0.000048,,,,,,,,,
1692872112.324678,,,,,,,,,,,,,,,,,,,,,,,,,,,,,,,,,,,,,,,,,,,69843.000000,1692872112.318594,0.000000,0.000000,0.000000,0.000000,0.000000,0.000000
1692872112.334502,,,,,,,,,,,,,,,,,,,,,,,,,,,,,,,,,,,,,,,,,,0.000000,,,,,,,,
1692872112.337755,0.275012,-0.026036,-0.000018,23.575140,0.002768,-0.000252,0.513360,0.000696,0.000046,-0.016182,0.665529,0.000653,0.024273,0.938222,-0.002197,1.545600,0.387546,-0.000094,-0.634000,0.180319,-0.012000,-0.004091,0.475681,-0.002363,-0.209000,0.260319,-0.014999,0.018400,0.000169,-0.000138,-1.228857,-0.000007,-0.000038,35331.000000,1692872112.323900,1.082971,-1.499976,0.000048,0.362743,0.140132,0.000048,,,,,,,,,
1692872112.339553,,,,,,,,,,,,,,,,,,,,,,,,,,,,,,,,,,,,,,,,,,,69844.000000,1692872112.328719,0.000000,0.000000,0.000000,0.000000,0.000000,0.000000
1692872112.352188,,,,,,,,,,,,,,,,,,,,,,,,,,,,,,,,,,,,,,,,,,,69845.000000,1692872112.338874,0.000000,0.000000,0.000000,0.000000,0.000000,0.000000
1692872112.354857,1.682429,-0.026036,-0.000026,22.410935,0.002769,0.000240,0.480240,0.000696,0.000046,-0.016182,0.665529,0.000653,0.016182,0.938222,-0.000653,1.777440,0.387557,0.001581,-0.634000,0.183909,-0.009999,-0.003275,0.475090,0.002954,-0.215000,0.257909,-0.014000,0.029440,0.000169,-0.000138,-1.163143,-0.000007,-0.000038,35332.000000,1692872112.343902,1.019886,-1.499976,0.000048,0.436343,0.140132,0.000048,,,,,,,,,
1692872112.356401,,,,,,,,,,,,,,,,,,,,,,,,,,,,,,,,,,,,,,,,,,,69846.000000,1692872112.348642,0.000000,0.000000,0.000000,0.000000,0.000000,0.000000
1692872112.367066,,,,,,,,,,,,,,,,,,,,,,,,,,,,,,,,,,,,,,,,,,,69847.000000,1692872112.359723,0.000000,0.000000,0.000000,0.000000,0.000000,0.000000
1692872112.378555,,,,,,,,,,,,,,,,,,,,,,,,,,,,,,,,,,,,,,,,,,,69848.000000,1692872112.368587,0.000000,0.000000,0.000000,0.000000,0.000000,0.000000
1692872112.378571,-0.145595,-0.025652,-0.001631,21.537782,0.002768,-0.000008,0.612720,0.000696,0.000046,-0.013485,0.665529,0.000653,0.018879,0.938222,-0.000653,1.600800,0.387546,-0.000094,-0.637000,0.181910,-0.014000,-0.002046,0.475090,-0.005909,-0.215000,0.258910,-0.017000,0.011040,0.000169,-0.000138,-1.117143,-0.000007,-0.000038,35333.000000,1692872112.363902,1.046171,-1.499976,0.000048,0.394286,0.140132,0.000048,,,,,,,,,
1692872112.385597,,,,,,,,,,,,,,,,,,,,,,,,,,,,,,,,,,,,,,,,,,,69849.000000,1692872112.378711,0.000000,0.000000,0.000000,0.000000,0.000000,0.000000
1692872112.398323,0.323544,-0.026036,0.000018,20.664629,0.002769,0.000009,0.529920,0.000696,0.000046,-0.016182,0.665529,0.000653,0.016182,0.938222,-0.000653,1.545600,0.387546,-0.000094,-0.643000,0.177318,-0.017999,-0.001225,0.475681,-0.002954,-0.216000,0.258319,-0.017000,0.001840,0.000169,-0.000138,-1.150000,-0.000007,-0.000038,35334.000000,1692872112.383896,1.130286,-1.499976,0.000048,0.389029,0.140132,0.000048,,,,,,,,,
1692872112.398484,,,,,,,,,,,,,,,,,,,,,,,,,,,,,,,,,,,,,,,,,,,69850.000000,1692872112.389163,0.000000,0.000000,0.000000,0.000000,0.000000,0.000000
1692872112.405218,,,,,,,,,,,,,,,,,,,,,,,,,,,,,,,,,,,,,,,,,,,69851.000000,1692872112.400419,0.000000,0.000000,0.000000,0.000000,0.000000,0.000000
1692872112.416759,,,,,,,,,,,,,,,,,,,,,,,,,,,,,,,,,,,,,,,,,,,69852.000000,1692872112.408940,0.000000,0.000000,0.000000,0.000000,0.000000,0.000000
1692872112.416774,1.148581,-0.026036,0.001135,21.246731,0.002769,0.000445,0.502320,0.000696,0.000046,-0.016182,0.665529,0.000653,0.016182,0.938222,-0.000653,1.843680,0.387557,0.002377,-0.643000,0.179728,-0.026000,0.000817,0.476272,-0.005318,-0.216000,0.257728,-0.017000,0.022080,0.000169,-0.000138,-1.104000,-0.000007,-0.000038,35335.000000,1692872112.403902,1.061943,-1.499976,0.000048,0.394286,0.140132,0.000048,,,,,,,,,
1692872112.426627,,,,,,,,,,,,,,,,,,,,,,,,,,,,,,,,,,,,,,,,,,,69853.000000,1692872112.418728,0.000000,0.000000,0.000000,0.000000,0.000000,0.000000
1692872112.444277,,,,,,,,,,,,,,,,,,,,,,,,,,,,,,,,,,,,,,,,,,,69854.000000,1692872112.428930,0.000000,0.000000,0.000000,0.000000,0.000000,0.000000
1692872112.444988,0.905923,-0.026036,-0.001294,20.664629,0.002768,-0.000077,0.414000,0.000696,0.000046,-0.016182,0.665529,0.000653,0.013485,0.938222,-0.000653,1.512480,0.387546,-0.000094,-0.640000,0.182318,-0.009999,-0.005320,0.475681,0.000590,-0.212000,0.261318,-0.012000,0.029440,0.000169,-0.000138,-1.163143,-0.000007,-0.000038,35336.000000,1692872112.423896,1.082971,-1.499976,0.000048,0.325943,0.140132,0.000048,,,,,,,,,
1692872112.445040,,,,,,,,,,,,,,,,,,,,,,,,,,,,,,,,,,,,,,,,,,0.000000,,,,,,,,
1692872112.454524,,,,,,,,,,,,,,,,,,,,,,,,,,,,,,,,,,,,,,,,,,,69855.000000,1692872112.438637,0.000000,0.000000,0.000000,0.000000,0.000000,0.000000
1692872112.458013,1.908910,-0.026036,-0.000032,21.828833,0.002768,-0.000008,0.507840,0.000696,0.000046,-0.021576,0.665529,0.000653,0.018879,0.938222,-0.000653,1.512480,0.387546,-0.000094,-0.640000,0.181727,-0.004999,-0.000817,0.476272,-0.002363,-0.212000,0.261727,-0.002000,0.007360,0.000169,-0.000138,-1.228857,-0.000007,-0.000038,35337.000000,1692872112.443903,1.030400,-1.499976,0.000048,0.252343,0.140132,0.000048,,,,,,,,,
1692872112.458027,,,,,,,,,,,,,,,,,,,,,,,,,,,,,,,,,,,,,,,,,,,69856.000000,1692872112.448705,0.000000,0.000000,0.000000,0.000000,0.000000,0.000000
1692872112.465134,,,,,,,,,,,,,,,,,,,,,,,,,,,,,,,,,,,,,,,,,,,69857.000000,1692872112.458591,0.000000,0.000000,0.000000,0.000000,0.000000,0.000000
1692872112.476678,,,,,,,,,,,,,,,,,,,,,,,,,,,,,,,,,,,,,,,,,,,69858.000000,1692872112.468697,0.000000,0.000000,0.000000,0.000000,0.000000,0.000000
1692872112.476702,1.472125,-0.026036,0.000018,20.082526,0.002768,0.000032,0.441600,0.000696,0.000046,-0.013485,0.665529,0.000653,0.016182,0.938222,-0.000653,1.556640,0.387546,-0.000094,-0.648000,0.176136,-0.008999,-0.004912,0.476863,0.002954,-0.209000,0.262137,-0.002000,0.022080,0.000169,-0.000138,-1.130286,-0.000007,-0.000038,35338.000000,1692872112.463904,1.046171,-1.499976,0.000048,0.331200,0.140132,0.000048,,,,,,,,,
1692872112.490329,,,,,,,,,,,,,,,,,,,,,,,,,,,,,,,,,,,,,,,,,,,69859.000000,1692872112.478675,0.000000,0.000000,0.000000,0.000000,0.000000,0.000000
1692872112.493781,1.957442,-0.026036,0.000018,20.955680,0.002768,-0.000008,0.397440,0.000696,0.000046,-0.013485,0.665529,0.000653,0.018879,0.938222,-0.000653,1.534560,0.387546,-0.000094,-0.648000,0.176727,-0.028000,-0.002454,0.476272,0.002954,-0.209000,0.262728,0.008000,0.025760,0.000169,-0.000138,-1.202571,-0.000007,-0.000038,35339.000000,1692872112.483897,1.130286,-1.499976,0.000048,0.331200,0.140132,0.000048,,,,,,,,,
1692872112.495292,,,,,,,,,,,,,,,,,,,,,,,,,,,,,,,,,,,,,,,,,,,69860.000000,1692872112.488789,0.000000,0.000000,0.000000,0.000000,0.000000,0.000000
1692872112.504889,,,,,,,,,,,,,,,,,,,,,,,,,,,,,,,,,,,,,,,,,,,69861.000000,1692872112.498924,0.000000,0.000000,0.000000,0.000000,0.000000,0.000000
1692872112.514042,,,,,,,,,,,,,,,,,,,,,,,,,,,,,,,,,,,,,,,,,,,69862.000000,1692872112.508898,0.000000,0.000000,0.000000,0.000000,0.000000,0.000000
1692872112.514182,0.986809,-0.026036,0.000018,21.246731,0.002768,-0.000008,0.425040,0.000696,0.000046,-0.010788,0.665529,0.000653,0.016182,0.938222,-0.000653,1.567680,0.387546,-0.000146,-0.646000,0.181136,-0.014999,-0.002454,0.476863,0.000000,-0.209000,0.262137,0.002000,-0.005520,0.000169,-0.000138,-1.255143,-0.000007,-0.000038,35340.000000,1692872112.503901,1.030400,-1.499976,0.000048,0.373257,0.140132,0.000048,,,,,,,,,
1692872112.530383,,,,,,,,,,,,,,,,,,,,,,,,,,,,,,,,,,,,,,,,,,,69863.000000,1692872112.518936,0.000000,0.000000,0.000000,0.000000,0.000000,0.000000
1692872112.539479,1.035341,-0.026036,0.000018,21.246731,0.002768,-0.000008,0.485760,0.000696,0.000046,-0.016182,0.665549,0.000653,0.018879,0.938222,-0.000653,1.678080,0.387557,0.000429,-0.646000,0.180954,0.004000,-0.007778,0.478045,0.007681,-0.204000,0.263954,0.006000,-0.001840,0.000169,-0.000138,-1.242000,-0.000007,-0.000038,35341.000000,1692872112.523897,1.025143,-1.499976,0.000048,0.346971,0.140132,0.000048,,,,,,,,,
1692872112.540324,,,,,,,,,,,,,,,,,,,,,,,,,,,,,,,,,,,,,,,,,,,69864.000000,1692872112.529202,0.000000,0.000000,0.000000,0.000000,0.000000,0.000000
1692872112.548247,,,,,,,,,,,,,,,,,,,,,,,,,,,,,,,,,,,,,,,,,,,69865.000000,1692872112.541421,0.000000,0.000000,0.000000,0.000000,0.000000,0.000000
1692872112.548356,,,,,,,,,,,,,,,,,,,,,,,,,,,,,,,,,,,,,,,,,,0.000000,,,,,,,,
1692872112.565152,0.275012,-0.026036,0.000018,19.500424,0.002768,-0.000385,0.502320,0.000696,0.000046,-0.016182,0.665549,0.000653,0.016182,0.938222,-0.000653,1.567680,0.387546,-0.000094,-0.643000,0.182136,0.008000,-0.000817,0.476863,0.004727,-0.202000,0.265136,0.023000,-0.005520,0.000169,-0.000138,-1.117143,-0.000007,-0.000038,35342.000000,1692872112.543898,1.093486,-1.499976,0.000048,0.331200,0.140132,0.000048,,,,,,,,,
1692872112.566019,,,,,,,,,,,,,,,,,,,,,,,,,,,,,,,,,,,,,,,,,,,69866.000000,1692872112.548873,0.000000,0.000000,0.000000,0.000000,0.000000,0.000000
1692872112.570529,,,,,,,,,,,,,,,,,,,,,,,,,,,,,,,,,,,,,,,,,,,69867.000000,1692872112.558788,0.000000,0.000000,0.000000,0.000000,0.000000,0.000000
1692872112.579424,0.129418,-0.026036,0.000018,20.664629,0.002768,-0.000008,0.552000,0.000696,0.000046,-0.013485,0.665549,0.000653,0.018879,0.938222,-0.000653,1.578720,0.387546,-0.000272,-0.643000,0.182136,0.003000,-0.001637,0.476863,0.001772,-0.203000,0.263137,0.012000,0.014720,0.000169,-0.000138,-1.235429,-0.000007,-0.000038,35343.000000,1692872112.563904,1.098743,-1.499976,0.000048,0.373257,0.140132,0.000048,,,,,,,,,
1692872112.585565,,,,,,,,,,,,,,,,,,,,,,,,,,,,,,,,,,,,,,,,,,,69868.000000,1692872112.568754,0.000000,0.000000,0.000000,0.000000,0.000000,0.000000
1692872112.594979,,,,,,,,,,,,,,,,,,,,,,,,,,,,,,,,,,,,,,,,,,,69870.000000,1692872112.588713,0.000000,0.000000,0.000000,0.000000,0.000000,0.000000
1692872112.595301,0.566202,-0.026036,0.000018,20.373577,0.002768,-0.000011,0.513360,0.000696,0.000046,-0.010788,0.665549,0.000653,0.021576,0.938222,-0.000653,1.534560,0.387546,-0.000094,-0.643000,0.181727,-0.002000,-0.000817,0.476272,0.001772,-0.206000,0.261727,0.002000,-0.007360,0.000169,-0.000138,-1.044857,-0.000007,-0.000038,35344.000000,1692872112.583897,1.067200,-1.499976,0.000048,0.325943,0.140132,0.000048,,,,,,,,,
1692872112.606155,,,,,,,,,,,,,,,,,,,,,,,,,,,,,,,,,,,,,,,,,,,69871.000000,1692872112.598937,0.000000,0.000000,0.000000,0.000000,0.000000,0.000000
1692872112.616589,,,,,,,,,,,,,,,,,,,,,,,,,,,,,,,,,,,,,,,,,,,69872.000000,1692872112.608669,0.000000,0.000000,0.000000,0.000000,0.000000,0.000000
1692872112.616604,-0.016177,-0.026036,0.000412,21.246731,0.002768,-0.000008,0.325680,0.000696,0.000046,-0.016182,0.665549,0.000653,0.018879,0.938222,-0.000653,1.567680,0.387546,-0.007403,-0.639000,0.185090,-0.002000,0.000817,0.473909,-0.006499,-0.207000,0.262091,-0.007000,0.003680,0.000169,-0.000138,-1.215714,-0.000007,-0.000038,35345.000000,1692872112.603898,1.119771,-1.499976,0.000048,0.346971,0.140132,0.000048,,,,,,,,,
1692872112.627990,,,,,,,,,,,,,,,,,,,,,,,,,,,,,,,,,,,,,,,,,,,69873.000000,1692872112.618824,0.000000,0.000000,0.000000,0.000000,0.000000,0.000000
1692872112.638916,0.145595,-0.026036,0.000018,18.627271,0.002769,0.000293,0.513360,0.000696,0.000046,-0.013485,0.665549,0.000653,0.016182,0.938222,-0.000653,1.578720,0.387546,-0.000094,-0.642000,0.183909,-0.002000,-0.002046,0.475090,-0.008863,-0.209000,0.260910,-0.010999,0.058880,0.000169,-0.000138,-1.163143,-0.000007,-0.000038,35346.000000,1692872112.623896,1.019886,-1.499976,0.000048,0.383771,0.140132,0.000048,,,,,,,,,
1692872112.639083,,,,,,,,,,,,,,,,,,,,,,,,,,,,,,,,,,,,,,,,,,,69874.000000,1692872112.628723,0.000000,0.000000,0.000000,0.000000,0.000000,0.000000
1692872112.653794,,,,,,,,,,,,,,,,,,,,,,,,,,,,,,,,,,,,,,,,,,,69875.000000,1692872112.638698,0.000000,0.000000,0.000000,0.000000,0.000000,0.000000
1692872112.659285,0.501493,-0.026036,0.000018,20.955680,0.002768,-0.000008,0.320160,0.000696,0.000046,-0.010788,0.665549,0.000653,0.021576,0.938222,-0.000653,1.578720,0.387546,-0.000094,-0.638000,0.184500,0.003000,-0.005320,0.474499,-0.005909,-0.206000,0.262500,-0.006000,0.025760,0.000169,-0.000138,-1.182857,-0.000007,-0.000038,35347.000000,1692872112.643906,1.014629,-1.499976,0.000048,0.346971,0.140132,0.000048,,,,,,,,,
1692872112.659454,,,,,,,,,,,,,,,,,,,,,,,,,,,,,,,,,,,,,,,,,,0.000000,,,,,,,,
1692872112.663908,,,,,,,,,,,,,,,,,,,,,,,,,,,,,,,,,,,,,,,,,,,69876.000000,1692872112.648682,0.000000,0.000000,0.000000,0.000000,0.000000,0.000000
1692872112.672887,,,,,,,,,,,,,,,,,,,,,,,,,,,,,,,,,,,,,,,,,,,69877.000000,1692872112.658727,0.000000,0.000000,0.000000,0.000000,0.000000,0.000000
1692872112.678782,,,,,,,,,,,,,,,,,,,,,,,,,,,,,,,,,,,,,,,,,,,69878.000000,1692872112.668839,0.000000,0.000000,0.000000,0.000000,0.000000,0.000000
1692872112.679804,1.148581,-0.026036,-0.000052,22.410935,0.002768,-0.000141,0.485760,0.000696,0.000046,-0.013485,0.665549,0.000653,0.016182,0.938222,-0.000653,1.622880,0.387546,-0.001738,-0.630000,0.189910,0.017000,-0.008186,0.475090,-0.005318,-0.207000,0.261909,-0.009999,0.007360,0.000169,-0.000138,-1.268286,-0.000007,-0.000038,35348.000000,1692872112.663902,0.935771,-1.499976,0.000048,0.315429,0.140132,0.000048,,,,,,,,,
1692872112.689000,,,,,,,,,,,,,,,,,,,,,,,,,,,,,,,,,,,,,,,,,,,69879.000000,1692872112.678616,0.000000,0.000000,0.000000,0.000000,0.000000,0.000000
1692872112.697193,1.860378,-0.026417,0.001359,20.955680,0.002768,-0.000019,0.447120,0.000696,0.000046,-0.016182,0.665549,0.000653,0.021576,0.938222,-0.000653,1.722240,0.387567,0.007403,-0.630000,0.188909,0.029999,-0.000817,0.475090,-0.002363,-0.209000,0.259910,0.000000,0.034960,0.000169,-0.000138,-1.123714,-0.000007,-0.000038,35349.000000,1692872112.683906,1.056686,-1.499976,0.000048,0.404800,0.140132,0.000048,,,,,,,,,
1692872112.699726,,,,,,,,,,,,,,,,,,,,,,,,,,,,,,,,,,,,,,,,,,,69880.000000,1692872112.690065,0.000000,0.000000,0.000000,0.000000,0.000000,0.000000
1692872112.708333,,,,,,,,,,,,,,,,,,,,,,,,,,,,,,,,,,,,,,,,,,,69881.000000,1692872112.699931,0.000000,0.000000,0.000000,0.000000,0.000000,0.000000
1692872112.718624,1.180936,-0.026036,-0.000018,21.537782,0.002768,0.000009,0.447120,0.000696,0.000046,-0.013485,0.665549,0.000653,0.016182,0.938202,-0.002632,1.644960,0.387546,-0.000429,-0.633000,0.186910,0.023000,0.000408,0.475090,-0.004727,-0.202000,0.265909,0.006000,-0.018400,0.000169,-0.000138,-1.261714,-0.000007,-0.000038,35350.000000,1692872112.703900,1.056686,-1.499976,0.000048,0.357486,0.140132,0.000048,,,,,,,,,
1692872112.721555,,,,,,,,,,,,,,,,,,,,,,,,,,,,,,,,,,,,,,,,,,,69882.000000,1692872112.709908,0.000000,0.000000,0.000000,0.000000,0.000000,0.000000
1692872112.729441,,,,,,,,,,,,,,,,,,,,,,,,,,,,,,,,,,,,,,,,,,,69883.000000,1692872112.718658,0.000000,0.000000,0.000000,0.000000,0.000000,0.000000
