__time,/hsrb/wrist_wrench/compensated/header/seq,/hsrb/wrist_wrench/compensated/header/stamp,/hsrb/wrist_wrench/compensated/wrench/force/x,/hsrb/wrist_wrench/compensated/wrench/force/y,/hsrb/wrist_wrench/compensated/wrench/force/z,/hsrb/wrist_wrench/compensated/wrench/torque/x,/hsrb/wrist_wrench/compensated/wrench/torque/y,/hsrb/wrist_wrench/compensated/wrench/torque/z
1694172254.608063,130862.000000,1694172254.603426,0.000000,0.000000,0.000000,0.000000,0.000000,0.000000
1694172254.622861,130863.000000,1694172254.613518,0.000000,0.000000,0.000000,0.000000,0.000000,0.000000
1694172254.634054,130864.000000,1694172254.623494,-0.001685,0.000584,0.001260,-0.000109,0.000096,0.000008
1694172254.652080,130865.000000,1694172254.639166,-0.003970,0.001315,0.002966,-0.000255,0.000224,0.000018
1694172254.654846,130866.000000,1694172254.645169,-0.006450,0.002030,0.004825,-0.000412,0.000361,0.000029
1694172254.667322,130867.000000,1694172254.654577,-0.009926,0.002954,0.007453,-0.000630,0.000553,0.000044
1694172254.676687,130868.000000,1694172254.664871,-0.014600,0.004108,0.011056,-0.000921,0.000808,0.000064
1694172254.692010,130869.000000,1694172254.674361,-0.019133,0.005096,0.014669,-0.001202,0.001055,0.000084
1694172254.703636,130871.000000,1694172254.696096,-0.022761,0.005461,0.017960,-0.001432,0.001257,0.000099
1694172254.715876,130872.000000,1694172254.703532,-0.022031,0.005025,0.017709,-0.001393,0.001225,0.000095
1694172254.728318,130873.000000,1694172254.713495,-0.020428,0.004466,0.016786,-0.001302,0.001146,0.000088
1694172254.739502,130874.000000,1694172254.723448,-0.018195,0.003867,0.015303,-0.001172,0.001033,0.000078
1694172254.747407,130876.000000,1694172254.743531,-0.016216,0.003269,0.013984,-0.001054,0.000931,0.000068
1694172254.760340,130877.000000,1694172254.753484,-0.017331,0.003358,0.014934,-0.001123,0.000991,0.000071
1694172254.767207,130878.000000,1694172254.763722,-0.017959,0.003347,0.015432,-0.001159,0.001023,0.000071
1694172254.782772,130879.000000,1694172254.773525,-0.016725,0.003025,0.014314,-0.001079,0.000952,0.000064
1694172254.789217,130880.000000,1694172254.784146,-0.014545,0.002583,0.012398,-0.000938,0.000828,0.000054
1694172254.804247,130881.000000,1694172254.793521,-0.013414,0.002367,0.011405,-0.000865,0.000764,0.000048
1694172254.813286,130882.000000,1694172254.803597,-0.013183,0.002339,0.011156,-0.000849,0.000750,0.000045
1694172254.822470,130883.000000,1694172254.818545,-0.012782,0.002321,0.010735,-0.000822,0.000726,0.000042
1694172254.832405,130884.000000,1694172254.823493,-0.012516,0.002372,0.010452,-0.000804,0.000710,0.000039
1694172254.842766,130885.000000,1694172254.833654,-0.013117,0.002602,0.010916,-0.000842,0.000743,0.000039
1694172254.849524,130886.000000,1694172254.845388,-0.015088,0.003087,0.012553,-0.000966,0.000851,0.000043
1694172254.858938,130887.000000,1694172254.853615,-0.018941,0.003968,0.015827,-0.001209,0.001064,0.000052
1694172254.866858,130888.000000,1694172254.864241,-0.024384,0.005268,0.020459,-0.001551,0.001362,0.000065
1694172254.882380,130889.000000,1694172254.874751,-0.030942,0.006950,0.025992,-0.001956,0.001713,0.000079
1694172254.888948,130890.000000,1694172254.883444,-0.038514,0.008998,0.032297,-0.002418,0.002109,0.000094
1694172254.902977,130891.000000,1694172254.893419,-0.047094,0.011400,0.039286,-0.002930,0.002544,0.000110
1694172254.913900,130892.000000,1694172254.903648,-0.057258,0.014341,0.047429,-0.003524,0.003043,0.000126
1694172254.923603,130893.000000,1694172254.913722,-0.068489,0.017713,0.056419,-0.004171,0.003582,0.000143
1694172254.933938,130894.000000,1694172254.923642,-0.079382,0.021009,0.064986,-0.004787,0.004086,0.000157
1694172254.942581,130895.000000,1694172254.933885,-0.089934,0.024169,0.073196,-0.005372,0.004561,0.000169
1694172254.951752,130896.000000,1694172254.944261,-0.100662,0.027493,0.081851,-0.005964,0.005043,0.000181
1694172254.958391,130897.000000,1694172254.953878,-0.111147,0.031026,0.090596,-0.006543,0.005514,0.000193
1694172254.965530,130898.000000,1694172254.963490,-0.120430,0.034577,0.098569,-0.007059,0.005931,0.000202
1694172254.976656,130899.000000,1694172254.974063,-0.128132,0.037977,0.105503,-0.007495,0.006285,0.000213
1694172254.987345,130900.000000,1694172254.983409,-0.135255,0.041453,0.112063,-0.007901,0.006617,0.000229
1694172255.004252,130901.000000,1694172254.993627,-0.143063,0.045401,0.119169,-0.008341,0.006974,0.000252
1694172255.010668,130902.000000,1694172255.003684,-0.150966,0.049656,0.126634,-0.008790,0.007339,0.000280
1694172255.018528,130903.000000,1694172255.014096,-0.156731,0.053625,0.133202,-0.009150,0.007634,0.000311
1694172255.035241,130904.000000,1694172255.023550,-0.160247,0.057231,0.138570,-0.009415,0.007855,0.000339
1694172255.043791,130905.000000,1694172255.033663,-0.163037,0.060601,0.143152,-0.009637,0.008041,0.000363
1694172255.053916,130906.000000,1694172255.043675,-0.165259,0.063742,0.147087,-0.009828,0.008200,0.000387
1694172255.070109,130907.000000,1694172255.053459,-0.167483,0.067065,0.151095,-0.010023,0.008364,0.000417
1694172255.073570,130908.000000,1694172255.063647,-0.170197,0.070507,0.154872,-0.010228,0.008533,0.000450
1694172255.084454,130909.000000,1694172255.073541,-0.172057,0.073317,0.156799,-0.010361,0.008636,0.000479
1694172255.091664,130910.000000,1694172255.083748,-0.172138,0.075242,0.156569,-0.010388,0.008651,0.000505
1694172255.103163,130911.000000,1694172255.093578,-0.171837,0.076790,0.155827,-0.010388,0.008646,0.000533
1694172255.112574,130912.000000,1694172255.103542,-0.172678,0.078608,0.156481,-0.010451,0.008696,0.000563
1694172255.121351,130913.000000,1694172255.114416,-0.175416,0.081119,0.159358,-0.010621,0.008835,0.000598
1694172255.127903,130914.000000,1694172255.124190,-0.178725,0.083807,0.162775,-0.010822,0.008997,0.000638
1694172255.140762,130915.000000,1694172255.133485,-0.179269,0.085370,0.163641,-0.010884,0.009044,0.000672
1694172255.150649,130916.000000,1694172255.144029,-0.176056,0.085218,0.161230,-0.010760,0.008937,0.000695
1694172255.160262,130917.000000,1694172255.153772,-0.169897,0.083593,0.156522,-0.010488,0.008710,0.000701
1694172255.170553,130918.000000,1694172255.163432,-0.161957,0.081191,0.150128,-0.010119,0.008401,0.000691
1694172255.178111,130919.000000,1694172255.173467,-0.153884,0.078717,0.143135,-0.009729,0.008070,0.000675
1694172255.188323,130920.000000,1694172255.183706,-0.146311,0.076050,0.136324,-0.009344,0.007747,0.000655
1694172255.197570,130921.000000,1694172255.193420,-0.138444,0.072535,0.128790,-0.008914,0.007389,0.000628
1694172255.213982,130922.000000,1694172255.205899,-0.129565,0.067957,0.119852,-0.008398,0.006962,0.000592
1694172255.226946,130923.000000,1694172255.217490,-0.119475,0.062313,0.109692,-0.007792,0.006464,0.000548
1694172255.233374,130924.000000,1694172255.224978,-0.109245,0.056375,0.099564,-0.007165,0.005949,0.000503
1694172255.251295,130925.000000,1694172255.233536,-0.101043,0.051484,0.091487,-0.006652,0.005528,0.000469
1694172255.259736,130926.000000,1694172255.244166,-0.096139,0.048180,0.086334,-0.006326,0.005260,0.000448
1694172255.269614,130927.000000,1694172255.253960,-0.094948,0.046512,0.084211,-0.006208,0.005163,0.000438
1694172255.290155,130928.000000,1694172255.263402,-0.096622,0.046046,0.084378,-0.006251,0.005200,0.000435
1694172255.291345,130929.000000,1694172255.273533,-0.099533,0.046065,0.085697,-0.006365,0.005300,0.000434
1694172255.299651,130931.000000,1694172255.293541,-0.109981,0.047916,0.093607,-0.006874,0.005745,0.000446
1694172255.312332,130932.000000,1694172255.303546,-0.116935,0.049726,0.099881,-0.007243,0.006062,0.000460
1694172255.321536,130933.000000,1694172255.313533,-0.123248,0.051228,0.105855,-0.007576,0.006351,0.000474
1694172255.327616,130934.000000,1694172255.323618,-0.128819,0.052106,0.111353,-0.007862,0.006603,0.000487
1694172255.334435,130935.000000,1694172255.333402,-0.134502,0.052834,0.117353,-0.008154,0.006868,0.000502
1694172255.348669,130936.000000,1694172255.345330,-0.140230,0.053635,0.123665,-0.008457,0.007140,0.000521
1694172255.358836,130937.000000,1694172255.357029,-0.145814,0.054366,0.130093,-0.008760,0.007410,0.000541
1694172255.368504,130938.000000,1694172255.363438,-0.150342,0.054488,0.135726,-0.009011,0.007634,0.000556
1694172255.377666,130939.000000,1694172255.373749,-0.152313,0.053529,0.139144,-0.009132,0.007748,0.000559
1694172255.386308,130940.000000,1694172255.383518,-0.151165,0.051616,0.140271,-0.009105,0.007743,0.000553
1694172255.396813,130941.000000,1694172255.393610,-0.146281,0.048828,0.138412,-0.008900,0.007590,0.000538
1694172255.405764,130942.000000,1694172255.403440,-0.137732,0.045229,0.132751,-0.008493,0.007266,0.000511
1694172255.417968,130943.000000,1694172255.413479,-0.127051,0.041358,0.124266,-0.007953,0.006825,0.000480
1694172255.426288,130944.000000,1694172255.423663,-0.115558,0.037628,0.114272,-0.007348,0.006324,0.000445
1694172255.435743,130945.000000,1694172255.433600,-0.103725,0.034015,0.103264,-0.006701,0.005780,0.000406
1694172255.449812,130946.000000,1694172255.445704,-0.092767,0.030768,0.092398,-0.006073,0.005246,0.000365
1694172255.457598,130947.000000,1694172255.454600,-0.083807,0.028218,0.082913,-0.005535,0.004784,0.000329
1694172255.468993,130948.000000,1694172255.464026,-0.076010,0.026152,0.074370,-0.005051,0.004366,0.000297
1694172255.479333,130949.000000,1694172255.473493,-0.068344,0.024177,0.066119,-0.004572,0.003952,0.000267
1694172255.491002,130950.000000,1694172255.483494,-0.061111,0.022167,0.058538,-0.004113,0.003559,0.000238
1694172255.498855,130951.000000,1694172255.496311,-0.054847,0.020222,0.051984,-0.003705,0.003209,0.000214
1694172255.505745,130952.000000,1694172255.503746,-0.049043,0.018317,0.045846,-0.003318,0.002876,0.000191
1694172255.517179,130953.000000,1694172255.514042,-0.043076,0.016359,0.039594,-0.002917,0.002529,0.000167
1694172255.529713,130954.000000,1694172255.523943,-0.037322,0.014477,0.033726,-0.002531,0.002195,0.000145
1694172255.535968,130955.000000,1694172255.533528,-0.031019,0.012327,0.027659,-0.002112,0.001832,0.000122
1694172255.551041,130956.000000,1694172255.545003,-0.023081,0.009434,0.020395,-0.001585,0.001376,0.000092
1694172255.558886,130957.000000,1694172255.554041,-0.013928,0.005869,0.012222,-0.000968,0.000840,0.000056
1694172255.569919,130958.000000,1694172255.567358,-0.004188,0.001815,0.003654,-0.000295,0.000256,0.000017
1694172255.581508,130959.000000,1694172255.573671,0.000000,0.000000,0.000000,0.000000,0.000000,0.000000
1694172255.590430,130960.000000,1694172255.583624,0.000000,0.000000,0.000000,0.000000,0.000000,0.000000
1694172255.597952,130961.000000,1694172255.593528,0.000000,0.000000,0.000000,0.000000,0.000000,0.000000
1694172255.610703,130962.000000,1694172255.605153,0.000000,0.000000,0.000000,0.000000,0.000000,0.000000
1694172255.624741,130963.000000,1694172255.613536,0.000000,0.000000,0.000000,0.000000,0.000000,0.000000
1694172255.632430,130964.000000,1694172255.623484,0.000000,0.000000,0.000000,0.000000,0.000000,0.000000
1694172255.638446,130965.000000,1694172255.633757,0.000000,0.000000,0.000000,0.000000,0.000000,0.000000
1694172255.654807,130966.000000,1694172255.647364,0.000000,0.000000,0.000000,0.000000,0.000000,0.000000
1694172255.663759,130967.000000,1694172255.653771,0.000000,0.000000,0.000000,0.000000,0.000000,0.000000
1694172255.671704,130968.000000,1694172255.663764,0.000000,0.000000,0.000000,0.000000,0.000000,0.000000
1694172255.680260,130969.000000,1694172255.673606,0.000000,0.000000,0.000000,0.000000,0.000000,0.000000
1694172255.685974,130970.000000,1694172255.683558,0.000000,0.000000,0.000000,0.000000,0.000000,0.000000
1694172255.698222,130971.000000,1694172255.693749,0.000000,0.000000,0.000000,0.000000,0.000000,0.000000
1694172255.708484,130972.000000,1694172255.703631,0.000000,0.000000,0.000000,0.000000,0.000000,0.000000
1694172255.720462,130973.000000,1694172255.714847,0.000000,0.000000,0.000000,0.000000,0.000000,0.000000
1694172255.728341,130974.000000,1694172255.723445,0.000000,0.000000,0.000000,0.000000,0.000000,0.000000
1694172255.743684,130975.000000,1694172255.736503,0.000000,0.000000,0.000000,0.000000,0.000000,0.000000
1694172255.757791,130976.000000,1694172255.745216,0.000000,0.000000,0.000000,0.000000,0.000000,0.000000
1694172255.766813,130977.000000,1694172255.754119,0.000000,0.000000,0.000000,0.000000,0.000000,0.000000
1694172255.775026,130978.000000,1694172255.763482,0.000000,0.000000,0.000000,0.000000,0.000000,0.000000
1694172255.781253,130979.000000,1694172255.773688,0.000000,0.000000,0.000000,0.000000,0.000000,0.000000
1694172255.787261,130980.000000,1694172255.783513,0.000000,0.000000,0.000000,0.000000,0.000000,0.000000
1694172255.796874,130981.000000,1694172255.793522,0.000000,0.000000,0.000000,0.000000,0.000000,0.000000
1694172255.807757,130982.000000,1694172255.803465,0.000000,0.000000,0.000000,0.000000,0.000000,0.000000
1694172255.820241,130983.000000,1694172255.814126,0.000000,0.000000,0.000000,0.000000,0.000000,0.000000
1694172255.838674,130984.000000,1694172255.823483,0.000000,0.000000,0.000000,0.000000,0.000000,0.000000
1694172255.844053,130985.000000,1694172255.833486,0.000000,0.000000,0.000000,0.000000,0.000000,0.000000
1694172255.847469,130986.000000,1694172255.843626,0.000000,0.000000,0.000000,0.000000,0.000000,0.000000
1694172255.859217,130987.000000,1694172255.853389,0.000000,0.000000,0.000000,0.000000,0.000000,0.000000
1694172255.868183,130988.000000,1694172255.863584,0.000000,0.000000,0.000000,0.000000,0.000000,0.000000
1694172255.879549,130989.000000,1694172255.873537,0.000000,0.000000,0.000000,0.000000,0.000000,0.000000
1694172255.889886,130990.000000,1694172255.884500,0.000000,0.000000,0.000000,0.000000,0.000000,0.000000
1694172255.897848,130991.000000,1694172255.893511,0.000000,0.000000,0.000000,0.000000,0.000000,0.000000
1694172255.907812,130992.000000,1694172255.903483,0.000000,0.000000,0.000000,0.000000,0.000000,0.000000
1694172255.916583,130993.000000,1694172255.913645,0.000000,0.000000,0.000000,0.000000,0.000000,0.000000
1694172255.929387,130994.000000,1694172255.923497,0.000000,0.000000,0.000000,0.000000,0.000000,0.000000
1694172255.937738,130995.000000,1694172255.933473,0.000000,0.000000,0.000000,0.000000,0.000000,0.000000
1694172255.946440,130996.000000,1694172255.943473,0.000000,0.000000,0.000000,0.000000,0.000000,0.000000
1694172255.965538,130997.000000,1694172255.953686,0.000000,0.000000,0.000000,0.000000,0.000000,0.000000
1694172255.972813,130998.000000,1694172255.963472,0.000000,0.000000,0.000000,0.000000,0.000000,0.000000
1694172255.978134,130999.000000,1694172255.974074,0.000000,0.000000,0.000000,0.000000,0.000000,0.000000
1694172255.990924,131000.000000,1694172255.984027,0.000000,0.000000,0.000000,0.000000,0.000000,0.000000
1694172255.998451,131001.000000,1694172255.993483,0.000000,0.000000,0.000000,0.000000,0.000000,0.000000
1694172256.010523,131002.000000,1694172256.003452,0.000000,0.000000,0.000000,0.000000,0.000000,0.000000
1694172256.023707,131003.000000,1694172256.018863,0.000000,0.000000,0.000000,0.000000,0.000000,0.000000
1694172256.031118,131004.000000,1694172256.023504,0.000000,0.000000,0.000000,0.000000,0.000000,0.000000
1694172256.039599,131005.000000,1694172256.035681,0.000000,0.000000,0.000000,0.000000,0.000000,0.000000
1694172256.051669,131006.000000,1694172256.043777,0.000000,0.000000,0.000000,0.000000,0.000000,0.000000
1694172256.065069,131007.000000,1694172256.056171,0.000000,0.000000,0.000000,0.000000,0.000000,0.000000
1694172256.070112,131008.000000,1694172256.063767,0.000000,0.000000,0.000000,0.000000,0.000000,0.000000
1694172256.077667,131009.000000,1694172256.073995,0.000000,0.000000,0.000000,0.000000,0.000000,0.000000
1694172256.091425,131010.000000,1694172256.083745,0.000000,0.000000,0.000000,0.000000,0.000000,0.000000
1694172256.099407,131011.000000,1694172256.093494,0.000000,0.000000,0.000000,0.000000,0.000000,0.000000
1694172256.110393,131012.000000,1694172256.103506,0.000000,0.000000,0.000000,0.000000,0.000000,0.000000
1694172256.121915,131013.000000,1694172256.116592,0.000000,0.000000,0.000000,0.000000,0.000000,0.000000
1694172256.132839,131014.000000,1694172256.123534,0.000000,0.000000,0.000000,0.000000,0.000000,0.000000
1694172256.138566,131015.000000,1694172256.133548,0.000000,0.000000,0.000000,0.000000,0.000000,0.000000
1694172256.148259,131016.000000,1694172256.143471,0.000000,0.000000,0.000000,0.000000,0.000000,0.000000
1694172256.161880,131017.000000,1694172256.153683,0.000000,0.000000,0.000000,0.000000,0.000000,0.000000
1694172256.175729,131018.000000,1694172256.163443,0.000000,0.000000,0.000000,0.000000,0.000000,0.000000
1694172256.186350,131019.000000,1694172256.173497,0.000000,0.000000,0.000000,0.000000,0.000000,0.000000
1694172256.206787,131020.000000,1694172256.183621,0.000000,0.000000,0.000000,0.000000,0.000000,0.000000
1694172256.212468,131022.000000,1694172256.203435,0.000000,0.000000,0.000000,0.000000,0.000000,0.000000
1694172256.235562,131023.000000,1694172256.213557,0.000000,0.000000,0.000000,0.000000,0.000000,0.000000
1694172256.240054,131025.000000,1694172256.233387,0.000000,0.000000,0.000000,0.000000,0.000000,0.000000
1694172256.262727,131026.000000,1694172256.243445,0.000000,0.000000,0.000000,0.000000,0.000000,0.000000
1694172256.270656,131028.000000,1694172256.263521,0.000000,0.000000,0.000000,0.000000,0.000000,0.000000
1694172256.284438,131029.000000,1694172256.276447,0.000000,0.000000,0.000000,0.000000,0.000000,0.000000
1694172256.296068,131030.000000,1694172256.283450,0.000000,0.000000,0.000000,0.000000,0.000000,0.000000
1694172256.306439,131031.000000,1694172256.293652,0.000000,0.000000,0.000000,0.000000,0.000000,0.000000
1694172256.321039,131032.000000,1694172256.304574,0.000000,0.000000,0.000000,0.000000,0.000000,0.000000
1694172256.322309,131033.000000,1694172256.313507,0.000000,0.000000,0.000000,0.000000,0.000000,0.000000
1694172256.343575,131034.000000,1694172256.326315,0.000000,0.000000,0.000000,0.000000,0.000000,0.000000
1694172256.353640,131035.000000,1694172256.333500,0.000000,0.000000,0.000000,0.000000,0.000000,0.000000
1694172256.355898,131036.000000,1694172256.343942,0.000000,0.000000,0.000000,0.000000,0.000000,0.000000
1694172256.367613,131037.000000,1694172256.353539,0.000000,0.000000,0.000000,0.000000,0.000000,0.000000
1694172256.379677,131038.000000,1694172256.363607,0.000000,0.000000,0.000000,0.000000,0.000000,0.000000
1694172256.382527,131039.000000,1694172256.373392,0.000000,0.000000,0.000000,0.000000,0.000000,0.000000
1694172256.403489,131040.000000,1694172256.383486,0.000000,0.000000,0.000000,0.000000,0.000000,0.000000
1694172256.408095,131041.000000,1694172256.393506,0.000000,0.000000,0.000000,0.000000,0.000000,0.000000
1694172256.414829,131042.000000,1694172256.403480,-0.004531,0.002832,0.004385,-0.000355,0.000295,0.000015
1694172256.434371,131043.000000,1694172256.419239,-0.009240,0.005822,0.009003,-0.000723,0.000599,0.000030
1694172256.434396,131044.000000,1694172256.423483,-0.013434,0.008546,0.013234,-0.001053,0.000870,0.000043
1694172256.447310,131045.000000,1694172256.434107,-0.018469,0.011886,0.018398,-0.001449,0.001195,0.000058
1694172256.454857,131046.000000,1694172256.443387,-0.024474,0.015962,0.024613,-0.001919,0.001579,0.000077
1694172256.471346,131047.000000,1694172256.453565,-0.029881,0.019679,0.030240,-0.002340,0.001920,0.000093
1694172256.477585,131048.000000,1694172256.463610,-0.034378,0.022786,0.034980,-0.002689,0.002203,0.000107
1694172256.481932,131049.000000,1694172256.473871,-0.038469,0.025641,0.039436,-0.003009,0.002462,0.000121
1694172256.499440,131050.000000,1694172256.483553,-0.042102,0.028224,0.043554,-0.003295,0.002696,0.000134
1694172256.508424,131051.000000,1694172256.493681,-0.045240,0.030586,0.047221,-0.003545,0.002901,0.000147
1694172256.531623,131052.000000,1694172256.503640,-0.047841,0.032722,0.050341,-0.003755,0.003076,0.000158
1694172256.536199,131053.000000,1694172256.515547,-0.050385,0.034906,0.053359,-0.003958,0.003248,0.000170
1694172256.536228,131054.000000,1694172256.523504,-0.053336,0.037325,0.056582,-0.004179,0.003434,0.000181
1694172256.553613,131055.000000,1694172256.533851,-0.056933,0.040085,0.060134,-0.004430,0.003646,0.000190
1694172256.565148,131057.000000,1694172256.553492,-0.065103,0.045834,0.066956,-0.004947,0.004081,0.000199
1694172256.581033,131058.000000,1694172256.563465,-0.069774,0.048687,0.070294,-0.005214,0.004306,0.000200
1694172256.581069,131059.000000,1694172256.573740,-0.075152,0.051820,0.074094,-0.005514,0.004559,0.000198
1694172256.593666,131060.000000,1694172256.584678,-0.080824,0.055167,0.078050,-0.005829,0.004822,0.000192
1694172256.604761,131061.000000,1694172256.593513,-0.086342,0.058574,0.081854,-0.006138,0.005077,0.000184
1694172256.618097,131062.000000,1694172256.603698,-0.091351,0.061615,0.085255,-0.006417,0.005306,0.000176
1694172256.625107,131063.000000,1694172256.613512,-0.096334,0.064444,0.089062,-0.006697,0.005538,0.000171
1694172256.633802,131064.000000,1694172256.623504,-0.101109,0.067129,0.093506,-0.006982,0.005777,0.000169
1694172256.645106,131065.000000,1694172256.633783,-0.104774,0.069312,0.097285,-0.007210,0.005968,0.000167
1694172256.651561,131066.000000,1694172256.643579,-0.107505,0.071086,0.099953,-0.007380,0.006111,0.000162
1694172256.663636,131067.000000,1694172256.654122,-0.109003,0.072002,0.101234,-0.007469,0.006185,0.000153
1694172256.687407,131068.000000,1694172256.663472,-0.108355,0.071313,0.100270,-0.007419,0.006144,0.000139
1694172256.694520,131070.000000,1694172256.685470,-0.101508,0.066387,0.092559,-0.006968,0.005771,0.000104
1694172256.706438,131071.000000,1694172256.693556,-0.095928,0.062692,0.086607,-0.006605,0.005474,0.000085
1694172256.717673,131072.000000,1694172256.703461,-0.089942,0.058450,0.080318,-0.006209,0.005147,0.000067
1694172256.728175,131073.000000,1694172256.713745,-0.083937,0.054082,0.074006,-0.005804,0.004813,0.000052
1694172256.735313,131074.000000,1694172256.723502,-0.077149,0.049532,0.067103,-0.005354,0.004440,0.000040
1694172256.741480,131075.000000,1694172256.733477,-0.068993,0.044401,0.059230,-0.004820,0.003999,0.000029
1694172256.755938,131076.000000,1694172256.746499,-0.059153,0.038302,0.050144,-0.004173,0.003464,0.000018
1694172256.760149,131077.000000,1694172256.753803,-0.047690,0.031097,0.039831,-0.003403,0.002828,0.000010
1694172256.770989,131078.000000,1694172256.763472,-0.035831,0.023472,0.029325,-0.002583,0.002149,0.000005
1694172256.784795,131079.000000,1694172256.773486,-0.024562,0.016162,0.019666,-0.001788,0.001489,0.000002
1694172256.791745,131080.000000,1694172256.783500,-0.013886,0.009220,0.010901,-0.001022,0.000852,0.000001
1694172256.801182,131081.000000,1694172256.793504,-0.004043,0.002715,0.003110,-0.000301,0.000251,-0.000000
1694172256.808542,131082.000000,1694172256.803499,0.000000,0.000000,0.000000,0.000000,0.000000,0.000000
1694172256.817163,131083.000000,1694172256.813652,0.000000,0.000000,0.000000,0.000000,0.000000,0.000000
1694172256.829011,131084.000000,1694172256.823699,0.000000,0.000000,0.000000,0.000000,0.000000,0.000000
1694172256.838820,131085.000000,1694172256.834994,0.000000,0.000000,0.000000,0.000000,0.000000,0.000000
1694172256.852752,131086.000000,1694172256.843477,0.000000,0.000000,0.000000,0.000000,0.000000,0.000000
1694172256.861203,131087.000000,1694172256.854398,0.000000,0.000000,0.000000,0.000000,0.000000,0.000000
1694172256.869922,131088.000000,1694172256.863480,0.000000,0.000000,0.000000,0.000000,0.000000,0.000000
1694172256.886499,131089.000000,1694172256.873484,0.000000,0.000000,0.000000,0.000000,0.000000,0.000000
1694172256.899093,131090.000000,1694172256.888453,0.000000,0.000000,0.000000,0.000000,0.000000,0.000000
1694172256.908448,131091.000000,1694172256.893453,0.000000,0.000000,0.000000,0.000000,0.000000,0.000000
1694172256.927557,131092.000000,1694172256.903503,0.000000,0.000000,0.000000,0.000000,0.000000,0.000000
1694172256.928483,131093.000000,1694172256.915714,0.000000,0.000000,0.000000,0.000000,0.000000,0.000000
1694172256.938613,131094.000000,1694172256.923496,0.000000,0.000000,0.000000,0.000000,0.000000,0.000000
1694172256.940814,131095.000000,1694172256.933472,0.000000,0.000000,0.000000,0.000000,0.000000,0.000000
1694172256.953151,131096.000000,1694172256.943594,0.000000,0.000000,0.000000,0.000000,0.000000,0.000000
1694172256.964509,131097.000000,1694172256.953676,0.000000,0.000000,0.000000,0.000000,0.000000,0.000000
1694172256.970771,131098.000000,1694172256.963467,0.000000,0.000000,0.000000,0.000000,0.000000,0.000000
1694172256.983639,131099.000000,1694172256.973645,0.000000,0.000000,0.000000,0.000000,0.000000,0.000000
1694172256.994203,131100.000000,1694172256.983518,0.000000,0.000000,0.000000,0.000000,0.000000,0.000000
1694172256.998971,131101.000000,1694172256.993512,0.000000,0.000000,0.000000,0.000000,0.000000,0.000000
1694172257.010152,131102.000000,1694172257.003505,0.000000,0.000000,0.000000,0.000000,0.000000,0.000000
1694172257.020360,131103.000000,1694172257.013477,-0.002134,0.001126,0.001429,-0.000144,0.000122,0.000005
1694172257.030608,131104.000000,1694172257.023656,-0.011015,0.005659,0.007376,-0.000732,0.000618,0.000027
1694172257.043166,131105.000000,1694172257.033614,-0.019784,0.009923,0.013283,-0.001296,0.001091,0.000051
1694172257.060942,131106.000000,1694172257.043939,-0.028045,0.013714,0.018884,-0.001812,0.001522,0.000077
1694172257.082780,131107.000000,1694172257.053527,-0.035478,0.016903,0.023947,-0.002263,0.001897,0.000102
1694172257.086579,131108.000000,1694172257.066614,-0.042432,0.019740,0.028749,-0.002674,0.002241,0.000130
1694172257.093617,131109.000000,1694172257.074234,-0.049132,0.022297,0.033553,-0.003064,0.002567,0.000159
1694172257.105165,131110.000000,1694172257.083463,-0.054903,0.024180,0.037993,-0.003396,0.002846,0.000188
1694172257.109763,131111.000000,1694172257.094471,-0.059226,0.025260,0.041719,-0.003644,0.003057,0.000215
1694172257.119515,131112.000000,1694172257.103423,-0.062987,0.026126,0.045308,-0.003863,0.003247,0.000243
1694172257.133368,131113.000000,1694172257.114222,-0.067239,0.027232,0.049464,-0.004112,0.003465,0.000274
1694172257.138743,131114.000000,1694172257.123713,-0.071896,0.028354,0.054144,-0.004383,0.003705,0.000306
1694172257.163693,131115.000000,1694172257.133535,-0.076592,0.029292,0.059038,-0.004654,0.003948,0.000338
1694172257.185302,131116.000000,1694172257.143465,-0.080499,0.029774,0.063450,-0.004878,0.004154,0.000367
1694172257.191151,131118.000000,1694172257.164734,-0.087060,0.029672,0.071859,-0.005261,0.004516,0.000417
1694172257.200354,131119.000000,1694172257.175237,-0.091557,0.029531,0.077272,-0.005517,0.004755,0.000443
1694172257.212038,131120.000000,1694172257.183517,-0.097498,0.029438,0.083988,-0.005845,0.005058,0.000469
1694172257.220155,131121.000000,1694172257.195088,-0.104840,0.029538,0.091935,-0.006243,0.005424,0.000498
1694172257.226068,131122.000000,1694172257.203767,-0.113618,0.029962,0.101349,-0.006717,0.005859,0.000530
1694172257.237245,131123.000000,1694172257.213510,-0.123257,0.030592,0.111714,-0.007230,0.006334,0.000565
1694172257.237820,131124.000000,1694172257.224216,-0.132229,0.031195,0.121244,-0.007694,0.006767,0.000595
1694172257.255167,131125.000000,1694172257.233661,-0.141441,0.032085,0.130708,-0.008156,0.007198,0.000623
1694172257.261737,131126.000000,1694172257.243464,-0.151852,0.033279,0.141067,-0.008664,0.007669,0.000654
1694172257.289096,131127.000000,1694172257.253526,-0.161043,0.034135,0.150213,-0.009097,0.008079,0.000681
1694172257.303033,131128.000000,1694172257.263719,-0.167469,0.034439,0.156837,-0.009391,0.008369,0.000700
1694172257.313127,131130.000000,1694172257.283508,-0.176152,0.034587,0.165628,-0.009770,0.008749,0.000716
1694172257.322462,131132.000000,1694172257.303601,-0.182125,0.035653,0.169526,-0.009995,0.008968,0.000715
1694172257.339364,131133.000000,1694172257.314379,-0.183379,0.036318,0.168600,-0.010013,0.008974,0.000700
1694172257.344402,131134.000000,1694172257.323616,-0.181715,0.036933,0.164783,-0.009903,0.008856,0.000675
1694172257.348899,131135.000000,1694172257.333714,-0.176410,0.037351,0.157928,-0.009638,0.008593,0.000642
1694172257.359115,131136.000000,1694172257.343472,-0.169447,0.037578,0.150128,-0.009309,0.008267,0.000607
1694172257.370635,131137.000000,1694172257.353517,-0.162888,0.037921,0.143279,-0.009012,0.007965,0.000574
1694172257.376049,131138.000000,1694172257.363768,-0.156741,0.038328,0.137187,-0.008740,0.007688,0.000542
1694172257.398908,131139.000000,1694172257.373590,-0.151372,0.038587,0.131700,-0.008498,0.007440,0.000511
1694172257.409233,131140.000000,1694172257.383576,-0.147121,0.038692,0.127130,-0.008301,0.007236,0.000481
1694172257.415786,131141.000000,1694172257.394063,-0.144163,0.038823,0.123912,-0.008167,0.007088,0.000456
1694172257.420524,131142.000000,1694172257.403641,-0.143222,0.039215,0.122423,-0.008129,0.007022,0.000440
1694172257.432864,131143.000000,1694172257.414745,-0.144132,0.039857,0.122324,-0.008178,0.007025,0.000430
1694172257.447834,131145.000000,1694172257.433795,-0.147211,0.041261,0.122809,-0.008327,0.007073,0.000414
1694172257.471902,131146.000000,1694172257.443505,-0.146404,0.041311,0.121035,-0.008284,0.007003,0.000403
1694172257.496506,131148.000000,1694172257.463514,-0.142436,0.040730,0.114615,-0.008058,0.006755,0.000377
1694172257.506951,131149.000000,1694172257.473664,-0.139793,0.040320,0.110987,-0.007910,0.006611,0.000367
1694172257.518667,131150.000000,1694172257.483468,-0.136608,0.039767,0.107339,-0.007740,0.006459,0.000359
1694172257.525107,131151.000000,1694172257.493508,-0.132947,0.038965,0.103525,-0.007547,0.006294,0.000352
1694172257.537850,131152.000000,1694172257.503451,-0.128654,0.037827,0.099243,-0.007318,0.006104,0.000343
1694172257.542020,131153.000000,1694172257.513521,-0.124202,0.036579,0.094738,-0.007074,0.005903,0.000335
1694172257.555150,131154.000000,1694172257.523607,-0.119530,0.035260,0.089819,-0.006813,0.005685,0.000324
1694172257.561584,131155.000000,1694172257.533931,-0.114148,0.033796,0.084489,-0.006517,0.005439,0.000313
1694172257.568951,131156.000000,1694172257.543649,-0.109966,0.032760,0.080675,-0.006293,0.005256,0.000310
1694172257.578251,131157.000000,1694172257.553440,-0.108108,0.032310,0.079148,-0.006199,0.005183,0.000315
1694172257.582309,131158.000000,1694172257.563508,-0.106367,0.031668,0.077960,-0.006114,0.005119,0.000318
1694172257.596370,131159.000000,1694172257.573629,-0.102995,0.030542,0.075726,-0.005947,0.004986,0.000315
1694172257.615905,131160.000000,1694172257.583490,-0.098150,0.029224,0.072500,-0.005708,0.004791,0.000305
1694172257.623846,131161.000000,1694172257.593506,-0.092561,0.027915,0.068633,-0.005429,0.004560,0.000290
1694172257.648673,131163.000000,1694172257.613801,-0.082468,0.025906,0.061257,-0.004913,0.004134,0.000259
1694172257.662695,131164.000000,1694172257.624882,-0.079337,0.025386,0.059178,-0.004755,0.004008,0.000250
1694172257.665205,131165.000000,1694172257.634093,-0.077676,0.025432,0.058568,-0.004686,0.003958,0.000249
1694172257.667529,131166.000000,1694172257.643514,-0.076200,0.025709,0.058245,-0.004630,0.003921,0.000247
1694172257.678813,131167.000000,1694172257.653851,-0.073413,0.025672,0.056852,-0.004500,0.003821,0.000240
1694172257.682709,131168.000000,1694172257.663949,-0.069641,0.025472,0.054638,-0.004317,0.003673,0.000228
1694172257.696390,131169.000000,1694172257.673457,-0.066033,0.025465,0.052477,-0.004147,0.003532,0.000216
1694172257.697996,131170.000000,1694172257.683578,-0.062825,0.025470,0.050534,-0.003996,0.003406,0.000206
1694172257.707730,131171.000000,1694172257.693501,-0.060733,0.025528,0.049550,-0.003905,0.003333,0.000199
1694172257.718800,131172.000000,1694172257.703533,-0.060129,0.025779,0.050000,-0.003901,0.003334,0.000198
1694172257.734765,131173.000000,1694172257.715245,-0.060323,0.026029,0.051400,-0.003946,0.003379,0.000200
1694172257.747678,131174.000000,1694172257.723682,-0.061185,0.026338,0.053620,-0.004032,0.003463,0.000205
1694172257.752533,131175.000000,1694172257.735758,-0.062030,0.026518,0.055958,-0.004118,0.003549,0.000213
1694172257.766838,131176.000000,1694172257.743486,-0.061993,0.026292,0.057459,-0.004148,0.003588,0.000220
1694172257.780869,131177.000000,1694172257.753630,-0.061478,0.025903,0.058300,-0.004144,0.003596,0.000224
1694172257.785286,131178.000000,1694172257.763644,-0.060493,0.025330,0.058534,-0.004105,0.003575,0.000225
1694172257.811388,131180.000000,1694172257.783706,-0.057435,0.023604,0.057838,-0.003954,0.003473,0.000225
1694172257.837699,131181.000000,1694172257.793531,-0.056077,0.022878,0.057476,-0.003885,0.003428,0.000225
1694172257.839588,131183.000000,1694172257.813666,-0.057657,0.023425,0.060794,-0.004020,0.003573,0.000241
1694172257.875838,131185.000000,1694172257.833499,-0.065439,0.026303,0.069112,-0.004507,0.004018,0.000278
1694172257.887593,131186.000000,1694172257.843481,-0.071699,0.028570,0.074968,-0.004874,0.004345,0.000303
1694172257.908531,131188.000000,1694172257.863515,-0.087730,0.034195,0.089500,-0.005778,0.005145,0.000367
1694172257.909893,131189.000000,1694172257.873609,-0.096696,0.037148,0.097330,-0.006261,0.005569,0.000402
1694172257.909911,131190.000000,1694172257.883483,-0.106013,0.039982,0.105209,-0.006744,0.005991,0.000436
1694172257.924647,131192.000000,1694172257.903489,-0.125719,0.045348,0.121193,-0.007714,0.006833,0.000503
1694172257.937124,131193.000000,1694172257.913711,-0.134788,0.047829,0.127977,-0.008135,0.007196,0.000536
1694172257.941385,131194.000000,1694172257.923719,-0.142789,0.049975,0.133319,-0.008485,0.007493,0.000564
1694172257.948854,131195.000000,1694172257.933452,-0.149803,0.051659,0.137731,-0.008782,0.007741,0.000590
1694172257.955920,131196.000000,1694172257.943940,-0.155984,0.053167,0.141653,-0.009043,0.007958,0.000613
1694172257.962386,131197.000000,1694172257.953750,-0.161702,0.054722,0.145382,-0.009290,0.008162,0.000636
1694172257.971901,131198.000000,1694172257.963528,-0.166766,0.056099,0.148748,-0.009510,0.008343,0.000657
1694172257.986917,131199.000000,1694172257.974587,-0.170372,0.056951,0.150857,-0.009661,0.008462,0.000673
1694172258.006658,131200.000000,1694172257.983515,-0.172436,0.057242,0.151662,-0.009739,0.008515,0.000684
1694172258.018473,131202.000000,1694172258.008317,-0.174425,0.057194,0.152236,-0.009811,0.008563,0.000704
1694172258.031510,131204.000000,1694172258.023503,-0.170881,0.056134,0.148344,-0.009631,0.008409,0.000709
1694172258.046112,131205.000000,1694172258.035621,-0.169377,0.056107,0.146934,-0.009566,0.008352,0.000713
1694172258.055355,131206.000000,1694172258.044096,-0.168419,0.056454,0.146340,-0.009538,0.008328,0.000720
1694172258.067931,131207.000000,1694172258.053523,-0.166759,0.056500,0.145233,-0.009478,0.008278,0.000725
1694172258.080524,131208.000000,1694172258.063713,-0.165663,0.056377,0.144909,-0.009446,0.008256,0.000733
1694172258.089582,131209.000000,1694172258.073375,-0.166187,0.056522,0.146123,-0.009492,0.008299,0.000748
1694172258.108883,131210.000000,1694172258.083489,-0.166672,0.056465,0.147041,-0.009531,0.008329,0.000759
1694172258.121450,131211.000000,1694172258.094070,-0.166954,0.056387,0.147851,-0.009567,0.008351,0.000768
1694172258.124373,131212.000000,1694172258.103524,-0.168245,0.057006,0.150271,-0.009680,0.008431,0.000779
1694172258.131624,131213.000000,1694172258.113463,-0.169667,0.058117,0.154153,-0.009835,0.008548,0.000788
1694172258.133800,131214.000000,1694172258.124318,-0.169376,0.059024,0.157622,-0.009934,0.008621,0.000791
1694172258.142604,131215.000000,1694172258.133638,-0.167195,0.059363,0.159432,-0.009944,0.008612,0.000782
1694172258.157433,131216.000000,1694172258.143449,-0.164620,0.059390,0.160814,-0.009931,0.008581,0.000770
1694172258.168187,131217.000000,1694172258.156240,-0.162555,0.059367,0.163194,-0.009951,0.008585,0.000762
1694172258.184748,131219.000000,1694172258.173588,-0.157381,0.058225,0.166264,-0.009902,0.008543,0.000734
1694172258.198195,131220.000000,1694172258.183580,-0.153641,0.057230,0.165629,-0.009791,0.008452,0.000713
1694172258.214888,131221.000000,1694172258.197113,-0.149369,0.056078,0.163977,-0.009640,0.008326,0.000692
1694172258.221260,131222.000000,1694172258.207430,-0.144845,0.054923,0.161911,-0.009472,0.008185,0.000672
1694172258.231128,131223.000000,1694172258.213397,-0.141432,0.054484,0.161477,-0.009379,0.008110,0.000657
1694172258.240109,131224.000000,1694172258.223958,-0.140346,0.055166,0.164005,-0.009429,0.008158,0.000654
1694172258.244094,131225.000000,1694172258.233694,-0.142508,0.056975,0.169868,-0.009653,0.008353,0.000662
1694172258.263730,131226.000000,1694172258.244517,-0.147688,0.059686,0.178566,-0.010026,0.008673,0.000682
1694172258.270633,131227.000000,1694172258.254128,-0.153720,0.062671,0.188034,-0.010436,0.009025,0.000712
1694172258.281331,131228.000000,1694172258.264563,-0.158520,0.065334,0.195900,-0.010767,0.009314,0.000740
1694172258.285882,131229.000000,1694172258.273626,-0.161359,0.067455,0.201169,-0.010978,0.009504,0.000761
1694172258.294759,131230.000000,1694172258.283463,-0.162291,0.068994,0.204197,-0.011082,0.009606,0.000774
1694172258.312499,131231.000000,1694172258.293534,-0.161773,0.069949,0.205834,-0.011112,0.009653,0.000781
1694172258.318843,131233.000000,1694172258.314157,-0.157584,0.070497,0.205284,-0.010999,0.009606,0.000782
1694172258.334647,131234.000000,1694172258.326256,-0.155107,0.071232,0.203807,-0.010910,0.009549,0.000780
1694172258.344909,131235.000000,1694172258.333567,-0.152472,0.072395,0.201851,-0.010811,0.009481,0.000781
1694172258.353481,131236.000000,1694172258.343789,-0.149365,0.073497,0.198921,-0.010674,0.009379,0.000783
1694172258.364080,131237.000000,1694172258.354825,-0.146401,0.074633,0.195843,-0.010539,0.009278,0.000785
1694172258.374176,131238.000000,1694172258.363900,-0.142540,0.075203,0.191434,-0.010347,0.009124,0.000780
1694172258.381998,131239.000000,1694172258.373750,-0.137223,0.074690,0.184771,-0.010053,0.008877,0.000765
1694172258.391230,131240.000000,1694172258.383615,-0.131060,0.073148,0.176353,-0.009680,0.008558,0.000740
1694172258.417279,131241.000000,1694172258.395615,-0.123925,0.070424,0.165643,-0.009206,0.008144,0.000702
1694172258.429191,131243.000000,1694172258.413604,-0.109039,0.062926,0.141851,-0.008132,0.007198,0.000620
1694172258.454155,131245.000000,1694172258.435637,-0.096195,0.055023,0.121269,-0.007157,0.006339,0.000555
1694172258.458688,131246.000000,1694172258.443661,-0.091440,0.051565,0.112978,-0.006763,0.005987,0.000527
1694172258.468628,131247.000000,1694172258.453470,-0.087898,0.048796,0.106376,-0.006453,0.005706,0.000502
1694172258.481966,131248.000000,1694172258.464082,-0.085258,0.046679,0.101289,-0.006215,0.005486,0.000482
1694172258.487005,131249.000000,1694172258.473709,-0.084119,0.045369,0.098453,-0.006086,0.005363,0.000472
1694172258.496064,131250.000000,1694172258.483541,-0.084014,0.044515,0.097445,-0.006039,0.005316,0.000472
1694172258.520205,131251.000000,1694172258.493783,-0.084515,0.043926,0.097880,-0.006051,0.005323,0.000478
1694172258.536695,131253.000000,1694172258.513771,-0.087491,0.043477,0.101882,-0.006226,0.005468,0.000495
1694172258.543176,131254.000000,1694172258.523477,-0.089981,0.043790,0.105072,-0.006382,0.005597,0.000502
1694172258.566778,131255.000000,1694172258.539324,-0.093524,0.044695,0.109526,-0.006607,0.005785,0.000514
1694172258.573852,131256.000000,1694172258.545794,-0.098699,0.046291,0.115525,-0.006924,0.006049,0.000532
1694172258.587525,131257.000000,1694172258.553865,-0.106142,0.048867,0.123682,-0.007364,0.006415,0.000561
1694172258.591027,131258.000000,1694172258.571804,-0.115682,0.052774,0.134072,-0.007928,0.006882,0.000601
1694172258.609571,131259.000000,1694172258.573524,-0.126650,0.058147,0.145891,-0.008577,0.007412,0.000648
1694172258.621207,131260.000000,1694172258.583709,-0.138518,0.064731,0.158165,-0.009266,0.007969,0.000698
1694172258.629868,131263.000000,1694172258.613868,-0.168207,0.083548,0.186535,-0.010910,0.009267,0.000809
1694172258.638134,131264.000000,1694172258.623680,-0.173246,0.087437,0.190197,-0.011162,0.009453,0.000829
1694172258.644574,131265.000000,1694172258.633723,-0.175998,0.089681,0.191137,-0.011274,0.009527,0.000840
1694172258.651214,131266.000000,1694172258.648645,-0.175956,0.090240,0.189325,-0.011236,0.009481,0.000841
1694172258.655325,131267.000000,1694172258.654137,-0.172506,0.089131,0.184371,-0.011028,0.009297,0.000829
1694172258.671695,131268.000000,1694172258.667280,-0.166395,0.086715,0.177238,-0.010690,0.009008,0.000809
1694172258.678924,131269.000000,1694172258.673477,-0.158717,0.083502,0.168999,-0.010275,0.008659,0.000787
1694172258.687079,131270.000000,1694172258.683534,-0.150656,0.080078,0.160498,-0.009835,0.008291,0.000767
1694172258.699165,131271.000000,1694172258.693502,-0.142799,0.076921,0.152205,-0.009400,0.007932,0.000750
1694172258.710507,131272.000000,1694172258.706402,-0.133574,0.073389,0.142627,-0.008889,0.007515,0.000728
1694172258.728589,131273.000000,1694172258.713648,-0.122312,0.068757,0.131062,-0.008256,0.007001,0.000693
1694172258.737314,131274.000000,1694172258.724393,-0.109996,0.063231,0.118406,-0.007545,0.006422,0.000648
1694172258.746449,131275.000000,1694172258.738473,-0.097305,0.057214,0.104916,-0.006786,0.005793,0.000591
1694172258.750492,131276.000000,1694172258.744567,-0.085302,0.051213,0.091599,-0.006035,0.005162,0.000530
1694172258.766974,131277.000000,1694172258.758119,-0.074484,0.045614,0.079503,-0.005340,0.004574,0.000472
1694172258.781507,131278.000000,1694172258.763512,-0.064054,0.040097,0.068059,-0.004660,0.003998,0.000415
1694172258.792781,131279.000000,1694172258.779609,-0.053609,0.034361,0.056704,-0.003961,0.003404,0.000355
1694172258.798560,131280.000000,1694172258.783525,-0.043828,0.028756,0.046092,-0.003287,0.002829,0.000296
1694172258.809676,131281.000000,1694172258.803750,-0.034968,0.023391,0.036539,-0.002657,0.002291,0.000241
1694172258.822400,131282.000000,1694172258.809082,-0.026485,0.017937,0.027385,-0.002033,0.001756,0.000186
1694172258.824625,131283.000000,1694172258.813484,-0.018642,0.012670,0.018874,-0.001436,0.001241,0.000132
1694172258.828108,131284.000000,1694172258.823816,-0.012705,0.008595,0.012460,-0.000975,0.000842,0.000089
1694172258.849630,131285.000000,1694172258.843398,-0.009888,0.006622,0.009363,-0.000751,0.000647,0.000068
1694172258.864998,131286.000000,1694172258.846581,-0.010815,0.007138,0.009929,-0.000809,0.000696,0.000074
1694172258.867956,131287.000000,1694172258.854801,-0.015101,0.009792,0.013558,-0.001111,0.000954,0.000101
1694172258.876751,131288.000000,1694172258.865617,-0.021157,0.013457,0.018724,-0.001531,0.001311,0.000139
1694172258.902131,131289.000000,1694172258.898090,-0.027266,0.017002,0.023814,-0.001944,0.001659,0.000175
1694172258.925717,131290.000000,1694172258.907215,-0.032218,0.019726,0.027696,-0.002268,0.001927,0.000201
1694172258.928846,131291.000000,1694172258.915479,-0.035903,0.021634,0.030376,-0.002504,0.002117,0.000217
1694172258.933761,131292.000000,1694172258.925749,-0.039344,0.023342,0.032804,-0.002720,0.002289,0.000229
1694172258.943385,131293.000000,1694172258.936462,-0.042942,0.025038,0.035247,-0.002937,0.002464,0.000239
1694172258.950275,131294.000000,1694172258.941279,-0.046120,0.026388,0.037342,-0.003123,0.002614,0.000244
1694172258.965282,131295.000000,1694172258.950000,-0.048772,0.027311,0.039161,-0.003273,0.002738,0.000245
1694172258.975990,131296.000000,1694172258.965913,-0.051876,0.028292,0.041407,-0.003448,0.002885,0.000247
1694172258.988873,131298.000000,1694172258.980003,-0.061083,0.031610,0.048341,-0.003970,0.003329,0.000264
1694172258.999963,131299.000000,1694172258.992208,-0.064697,0.032877,0.051049,-0.004171,0.003502,0.000268
1694172259.013160,131300.000000,1694172259.000164,-0.066514,0.033414,0.052407,-0.004266,0.003588,0.000266
1694172259.019623,131301.000000,1694172259.011901,-0.066544,0.033181,0.052387,-0.004258,0.003588,0.000259
1694172259.030423,131302.000000,1694172259.020756,-0.064804,0.032099,0.050819,-0.004140,0.003497,0.000245
1694172259.038370,131303.000000,1694172259.031052,-0.062355,0.030724,0.048550,-0.003976,0.003366,0.000231
1694172259.049507,131304.000000,1694172259.041002,-0.060236,0.029600,0.046652,-0.003835,0.003254,0.000220
1694172259.058261,131305.000000,1694172259.051002,-0.058645,0.028794,0.045411,-0.003734,0.003175,0.000211
1694172259.067772,131306.000000,1694172259.062157,-0.057088,0.028059,0.044310,-0.003639,0.003099,0.000204
1694172259.079019,131307.000000,1694172259.070029,-0.054901,0.027088,0.042678,-0.003509,0.002990,0.000195
1694172259.087271,131308.000000,1694172259.080186,-0.053001,0.026301,0.041358,-0.003400,0.002899,0.000188
1694172259.106778,131309.000000,1694172259.089813,-0.052373,0.026123,0.041206,-0.003372,0.002877,0.000186
1694172259.113038,131310.000000,1694172259.099989,-0.052197,0.026143,0.041418,-0.003373,0.002879,0.000186
1694172259.117529,131311.000000,1694172259.110195,-0.051044,0.025747,0.040740,-0.003312,0.002828,0.000180
1694172259.131750,131312.000000,1694172259.121186,-0.049055,0.024951,0.039160,-0.003195,0.002728,0.000170
1694172259.143406,131313.000000,1694172259.130130,-0.047752,0.024290,0.037779,-0.003105,0.002651,0.000162
1694172259.153716,131314.000000,1694172259.141528,-0.047637,0.023985,0.036969,-0.003074,0.002624,0.000157
1694172259.194660,131315.000000,1694172259.183005,-0.048475,0.024049,0.036655,-0.003093,0.002638,0.000156
1694172259.202183,131317.000000,1694172259.195502,-0.050834,0.024504,0.036980,-0.003177,0.002711,0.000154
1694172259.220593,131318.000000,1694172259.206980,-0.051669,0.024511,0.037199,-0.003205,0.002737,0.000153
1694172259.235793,131320.000000,1694172259.224621,-0.051720,0.023727,0.036444,-0.003169,0.002710,0.000151
1694172259.246848,131321.000000,1694172259.238243,-0.050029,0.022783,0.035000,-0.003060,0.002620,0.000149
1694172259.259670,131322.000000,1694172259.244438,-0.048492,0.021958,0.033759,-0.002962,0.002539,0.000148
1694172259.267808,131323.000000,1694172259.254404,-0.048789,0.021900,0.033794,-0.002970,0.002547,0.000152
1694172259.277339,131324.000000,1694172259.264840,-0.051467,0.022887,0.035486,-0.003115,0.002669,0.000164
1694172259.291092,131325.000000,1694172259.274321,-0.055470,0.024446,0.038187,-0.003337,0.002855,0.000181
1694172259.302624,131326.000000,1694172259.284327,-0.059271,0.025858,0.040939,-0.003549,0.003032,0.000199
1694172259.302634,131327.000000,1694172259.294337,-0.063245,0.027277,0.043990,-0.003771,0.003216,0.000218
1694172259.314054,131328.000000,1694172259.304818,-0.067925,0.029032,0.047695,-0.004036,0.003434,0.000240
1694172259.326121,131329.000000,1694172259.314567,-0.072201,0.030780,0.051321,-0.004284,0.003638,0.000260
1694172259.340274,131330.000000,1694172259.324180,-0.074219,0.031712,0.053443,-0.004412,0.003743,0.000273
1694172259.353304,131331.000000,1694172259.341947,-0.073442,0.031517,0.053502,-0.004388,0.003721,0.000275
1694172259.367093,131332.000000,1694172259.344583,-0.071855,0.031015,0.052816,-0.004317,0.003659,0.000272
1694172259.367103,131333.000000,1694172259.354625,-0.069851,0.030379,0.051616,-0.004219,0.003574,0.000267
1694172259.381842,131334.000000,1694172259.365048,-0.065819,0.028931,0.048844,-0.004007,0.003392,0.000253
1694172259.392783,131336.000000,1694172259.384481,-0.054065,0.024329,0.040508,-0.003360,0.002844,0.000209
1694172259.410609,131337.000000,1694172259.394395,-0.048705,0.022107,0.036441,-0.003050,0.002580,0.000189
1694172259.426361,131339.000000,1694172259.414989,-0.041924,0.019397,0.030726,-0.002644,0.002230,0.000164
1694172259.455458,131340.000000,1694172259.424317,-0.038489,0.017903,0.027799,-0.002431,0.002048,0.000151
1694172259.459209,131341.000000,1694172259.434360,-0.035174,0.016417,0.024882,-0.002220,0.001868,0.000138
1694172259.463303,131342.000000,1694172259.450302,-0.032084,0.015029,0.022024,-0.002019,0.001695,0.000125
1694172259.471813,131343.000000,1694172259.454448,-0.028693,0.013389,0.018979,-0.001795,0.001505,0.000109
1694172259.482387,131344.000000,1694172259.464344,-0.025049,0.011507,0.015935,-0.001556,0.001303,0.000093
1694172259.483999,131345.000000,1694172259.474579,-0.021807,0.009790,0.013352,-0.001343,0.001124,0.000079
1694172259.495004,131346.000000,1694172259.484484,-0.018763,0.008211,0.011077,-0.001146,0.000959,0.000066
1694172259.513688,131347.000000,1694172259.494305,-0.015435,0.006582,0.008829,-0.000937,0.000784,0.000054
1694172259.521983,131348.000000,1694172259.504343,-0.010631,0.004410,0.005942,-0.000643,0.000538,0.000037
1694172259.525395,131349.000000,1694172259.514357,-0.003793,0.001527,0.002087,-0.000230,0.000192,0.000013
1694172259.533117,131350.000000,1694172259.524422,0.000000,0.000000,0.000000,0.000000,0.000000,0.000000
1694172259.543257,131351.000000,1694172259.535816,0.000000,0.000000,0.000000,0.000000,0.000000,0.000000
1694172259.553249,131352.000000,1694172259.544347,0.000000,0.000000,0.000000,0.000000,0.000000,0.000000
1694172259.569202,131353.000000,1694172259.555604,0.000000,0.000000,0.000000,0.000000,0.000000,0.000000
1694172259.574046,131354.000000,1694172259.564426,0.000000,0.000000,0.000000,0.000000,0.000000,0.000000
1694172259.583584,131355.000000,1694172259.574341,0.000000,0.000000,0.000000,0.000000,0.000000,0.000000
1694172259.596398,131356.000000,1694172259.588973,0.000000,0.000000,0.000000,0.000000,0.000000,0.000000
1694172259.607130,131357.000000,1694172259.594350,0.000000,0.000000,0.000000,0.000000,0.000000,0.000000
1694172259.619189,131358.000000,1694172259.604671,0.000000,0.000000,0.000000,0.000000,0.000000,0.000000
1694172259.623199,131359.000000,1694172259.614486,0.000000,0.000000,0.000000,0.000000,0.000000,0.000000
1694172259.633236,131360.000000,1694172259.624477,0.000000,0.000000,0.000000,0.000000,0.000000,0.000000
1694172259.647236,131361.000000,1694172259.634709,0.000000,0.000000,0.000000,0.000000,0.000000,0.000000
1694172259.658275,131362.000000,1694172259.644628,0.000000,0.000000,0.000000,0.000000,0.000000,0.000000
1694172259.672235,131363.000000,1694172259.654318,0.000000,0.000000,0.000000,0.000000,0.000000,0.000000
1694172259.679008,131365.000000,1694172259.674315,0.000000,0.000000,0.000000,0.000000,0.000000,0.000000
1694172259.690999,131366.000000,1694172259.684289,0.000000,0.000000,0.000000,0.000000,0.000000,0.000000
1694172259.700563,131367.000000,1694172259.694535,0.000000,0.000000,0.000000,0.000000,0.000000,0.000000
1694172259.712814,131368.000000,1694172259.704224,0.000000,0.000000,0.000000,0.000000,0.000000,0.000000
1694172259.724679,131369.000000,1694172259.714460,0.000000,0.000000,0.000000,0.000000,0.000000,0.000000
1694172259.734336,131370.000000,1694172259.725217,0.000000,0.000000,0.000000,0.000000,0.000000,0.000000
1694172259.744150,131371.000000,1694172259.734514,0.000000,0.000000,0.000000,0.000000,0.000000,0.000000
1694172259.754483,131372.000000,1694172259.745195,0.000000,0.000000,0.000000,0.000000,0.000000,0.000000
1694172259.763416,131373.000000,1694172259.755059,0.000000,0.000000,0.000000,0.000000,0.000000,0.000000
1694172259.774081,131374.000000,1694172259.764459,0.000000,0.000000,0.000000,0.000000,0.000000,0.000000
1694172259.784051,131375.000000,1694172259.774399,0.000000,0.000000,0.000000,0.000000,0.000000,0.000000
1694172259.793656,131376.000000,1694172259.784370,0.000000,0.000000,0.000000,0.000000,0.000000,0.000000
1694172259.808371,131377.000000,1694172259.794409,0.000000,0.000000,0.000000,0.000000,0.000000,0.000000
1694172259.815355,131378.000000,1694172259.804343,0.000000,0.000000,0.000000,0.000000,0.000000,0.000000
1694172259.829199,131379.000000,1694172259.814345,0.000000,0.000000,0.000000,0.000000,0.000000,0.000000
1694172259.848875,131381.000000,1694172259.834505,0.000000,0.000000,0.000000,0.000000,0.000000,0.000000
1694172259.858180,131382.000000,1694172259.844188,0.000000,0.000000,0.000000,0.000000,0.000000,0.000000
1694172259.862802,131383.000000,1694172259.854328,0.000000,0.000000,0.000000,0.000000,0.000000,0.000000
1694172259.879725,131384.000000,1694172259.864866,0.000000,0.000000,0.000000,0.000000,0.000000,0.000000
1694172259.888013,131385.000000,1694172259.874593,0.000000,0.000000,0.000000,0.000000,0.000000,0.000000
1694172259.898875,131386.000000,1694172259.884279,0.000000,0.000000,0.000000,0.000000,0.000000,0.000000
1694172259.907703,131387.000000,1694172259.894367,0.000000,0.000000,0.000000,0.000000,0.000000,0.000000
1694172259.920718,131388.000000,1694172259.904516,0.000000,0.000000,0.000000,0.000000,0.000000,0.000000
1694172259.923077,131389.000000,1694172259.914247,0.000000,0.000000,0.000000,0.000000,0.000000,0.000000
1694172259.930866,131390.000000,1694172259.924257,0.000000,0.000000,0.000000,0.000000,0.000000,0.000000
1694172259.941028,131391.000000,1694172259.934993,0.000000,0.000000,0.000000,0.000000,0.000000,0.000000
1694172259.967013,131392.000000,1694172259.948940,0.000000,0.000000,0.000000,0.000000,0.000000,0.000000
1694172259.971076,131394.000000,1694172259.964265,0.000000,0.000000,0.000000,0.000000,0.000000,0.000000
1694172259.979913,131395.000000,1694172259.974474,0.000000,0.000000,0.000000,0.000000,0.000000,0.000000
1694172259.987308,131396.000000,1694172259.984218,0.000000,0.000000,0.000000,0.000000,0.000000,0.000000
1694172260.001563,131397.000000,1694172259.994806,0.000000,0.000000,0.000000,0.000000,0.000000,0.000000
1694172260.020250,131398.000000,1694172260.005649,-0.004153,0.001068,0.002888,-0.000251,0.000225,0.000013
1694172260.025111,131399.000000,1694172260.014723,-0.009092,0.002277,0.006283,-0.000546,0.000489,0.000029
1694172260.028776,131400.000000,1694172260.024420,-0.012520,0.003084,0.008634,-0.000748,0.000669,0.000039
1694172260.038713,131401.000000,1694172260.035497,-0.014383,0.003509,0.009907,-0.000858,0.000766,0.000044
1694172260.057441,131402.000000,1694172260.044910,-0.015716,0.003831,0.010798,-0.000937,0.000834,0.000048
1694172260.066582,131403.000000,1694172260.054352,-0.016308,0.004009,0.011216,-0.000974,0.000864,0.000050
1694172260.075641,131404.000000,1694172260.064593,-0.015424,0.003836,0.010668,-0.000925,0.000820,0.000048
1694172260.085064,131405.000000,1694172260.074530,-0.013149,0.003312,0.009169,-0.000794,0.000702,0.000042
1694172260.095174,131406.000000,1694172260.084992,-0.010142,0.002604,0.007153,-0.000618,0.000546,0.000033
1694172260.104868,131407.000000,1694172260.094317,-0.007565,0.001993,0.005401,-0.000466,0.000410,0.000025
1694172260.112387,131408.000000,1694172260.105684,-0.006068,0.001646,0.004375,-0.000377,0.000331,0.000020
1694172260.124995,131409.000000,1694172260.114444,-0.005009,0.001398,0.003646,-0.000313,0.000275,0.000017
1694172260.140269,131410.000000,1694172260.124285,-0.004230,0.001216,0.003104,-0.000266,0.000233,0.000014
1694172260.156323,131411.000000,1694172260.134587,-0.005193,0.001542,0.003822,-0.000328,0.000286,0.000017
1694172260.161401,131412.000000,1694172260.144481,-0.008550,0.002621,0.006297,-0.000539,0.000469,0.000028
1694172260.161431,131413.000000,1694172260.154449,-0.013403,0.004233,0.009863,-0.000843,0.000730,0.000044
1694172260.173883,131414.000000,1694172260.164311,-0.018834,0.006124,0.013804,-0.001181,0.001017,0.000062
1694172260.186224,131415.000000,1694172260.174346,-0.023884,0.007961,0.017358,-0.001491,0.001277,0.000078
1694172260.195611,131416.000000,1694172260.184374,-0.028112,0.009522,0.020183,-0.001746,0.001488,0.000090
1694172260.200893,131417.000000,1694172260.194445,-0.032044,0.010930,0.022683,-0.001978,0.001678,0.000100
1694172260.209832,131418.000000,1694172260.204306,-0.036216,0.012401,0.025360,-0.002223,0.001877,0.000110
1694172260.218988,131419.000000,1694172260.214477,-0.040508,0.013972,0.028368,-0.002480,0.002088,0.000121
1694172260.228861,131420.000000,1694172260.224226,-0.044590,0.015577,0.031543,-0.002732,0.002295,0.000132
1694172260.241907,131421.000000,1694172260.235912,-0.048502,0.017158,0.034767,-0.002978,0.002496,0.000143
1694172260.252050,131422.000000,1694172260.244291,-0.052476,0.018734,0.038248,-0.003230,0.002702,0.000154
1694172260.266998,131423.000000,1694172260.255656,-0.056539,0.020394,0.042202,-0.003495,0.002922,0.000166
1694172260.278478,131424.000000,1694172260.264690,-0.059127,0.021586,0.045457,-0.003685,0.003081,0.000175
1694172260.289240,131425.000000,1694172260.281838,-0.058850,0.021675,0.046723,-0.003710,0.003106,0.000177
1694172260.302656,131426.000000,1694172260.284467,-0.057545,0.021248,0.047203,-0.003673,0.003082,0.000176
1694172260.309418,131427.000000,1694172260.294230,-0.056586,0.020821,0.047842,-0.003652,0.003071,0.000176
1694172260.312552,131428.000000,1694172260.304634,-0.055207,0.020173,0.047826,-0.003594,0.003031,0.000174
1694172260.323987,131429.000000,1694172260.314868,-0.052915,0.019219,0.046689,-0.003472,0.002936,0.000169
1694172260.333856,131430.000000,1694172260.324402,-0.049771,0.017985,0.044619,-0.003290,0.002792,0.000162
1694172260.345267,131431.000000,1694172260.335728,-0.046033,0.016506,0.041909,-0.003065,0.002613,0.000155
1694172260.352605,131432.000000,1694172260.344347,-0.042256,0.015044,0.039068,-0.002834,0.002428,0.000147
1694172260.365779,131433.000000,1694172260.355037,-0.039306,0.013972,0.036939,-0.002655,0.002287,0.000143
1694172260.375117,131434.000000,1694172260.364202,-0.037780,0.013478,0.036111,-0.002569,0.002223,0.000144
1694172260.383880,131435.000000,1694172260.374365,-0.037445,0.013475,0.036370,-0.002559,0.002224,0.000148
1694172260.394893,131436.000000,1694172260.384468,-0.037560,0.013708,0.037042,-0.002579,0.002251,0.000155
1694172260.402970,131437.000000,1694172260.396814,-0.037851,0.014068,0.037884,-0.002611,0.002289,0.000163
1694172260.415446,131438.000000,1694172260.407645,-0.037993,0.014423,0.038537,-0.002633,0.002319,0.000172
1694172260.426091,131439.000000,1694172260.414357,-0.038117,0.014766,0.039044,-0.002652,0.002343,0.000180
1694172260.438915,131440.000000,1694172260.424467,-0.039066,0.015346,0.040229,-0.002720,0.002410,0.000190
1694172260.445562,131441.000000,1694172260.434317,-0.040432,0.015999,0.041727,-0.002810,0.002497,0.000202
1694172260.453676,131442.000000,1694172260.444305,-0.041563,0.016543,0.042906,-0.002883,0.002569,0.000215
1694172260.465619,131443.000000,1694172260.454611,-0.043217,0.017310,0.044504,-0.002986,0.002670,0.000229
1694172260.474946,131444.000000,1694172260.464386,-0.045432,0.018255,0.046414,-0.003119,0.002794,0.000246
1694172260.482308,131445.000000,1694172260.474594,-0.047449,0.018986,0.047706,-0.003225,0.002893,0.000258
1694172260.490981,131446.000000,1694172260.485788,-0.049399,0.019503,0.048575,-0.003314,0.002976,0.000268
1694172260.501576,131447.000000,1694172260.494460,-0.051394,0.019844,0.049229,-0.003395,0.003053,0.000275
1694172260.518094,131448.000000,1694172260.505291,-0.053542,0.020116,0.049853,-0.003480,0.003133,0.000281
1694172260.529525,131449.000000,1694172260.514380,-0.056207,0.020582,0.050910,-0.003596,0.003240,0.000286
1694172260.535645,131450.000000,1694172260.524770,-0.059189,0.021317,0.052366,-0.003737,0.003370,0.000293
1694172260.543869,131451.000000,1694172260.534528,-0.061663,0.022118,0.053639,-0.003859,0.003482,0.000299
1694172260.556545,131452.000000,1694172260.545269,-0.063196,0.022780,0.054330,-0.003938,0.003550,0.000302
1694172260.572325,131453.000000,1694172260.554327,-0.063969,0.023219,0.054579,-0.003981,0.003584,0.000304
1694172260.581798,131454.000000,1694172260.565157,-0.064957,0.023716,0.055198,-0.004041,0.003632,0.000308
1694172260.585882,131455.000000,1694172260.576080,-0.066723,0.024473,0.056543,-0.004148,0.003720,0.000319
1694172260.591827,131456.000000,1694172260.584316,-0.068050,0.025041,0.057512,-0.004229,0.003784,0.000328
1694172260.604605,131457.000000,1694172260.594608,-0.068430,0.025253,0.057701,-0.004255,0.003799,0.000332
1694172260.622895,131458.000000,1694172260.604590,-0.068394,0.025305,0.057564,-0.004256,0.003795,0.000333
1694172260.636902,131460.000000,1694172260.624314,-0.063691,0.023439,0.053718,-0.003993,0.003557,0.000312
1694172260.649403,131461.000000,1694172260.634731,-0.057474,0.020926,0.048646,-0.003632,0.003237,0.000281
1694172260.661961,131462.000000,1694172260.647692,-0.049937,0.017891,0.042606,-0.003189,0.002846,0.000244
1694172260.667102,131463.000000,1694172260.655132,-0.043461,0.015211,0.037580,-0.002804,0.002508,0.000213
