__time,/hsrb/wrist_wrench/compensated/header/seq,/hsrb/wrist_wrench/compensated/header/stamp,/hsrb/wrist_wrench/compensated/wrench/force/x,/hsrb/wrist_wrench/compensated/wrench/force/y,/hsrb/wrist_wrench/compensated/wrench/force/z,/hsrb/wrist_wrench/compensated/wrench/torque/x,/hsrb/wrist_wrench/compensated/wrench/torque/y,/hsrb/wrist_wrench/compensated/wrench/torque/z,/rosout/header/seq,/rosout/header/stamp,/rosout/level,/rosout/line,/rosout_agg/header/seq,/rosout_agg/header/stamp,/rosout_agg/level,/rosout_agg/line
1697105439.770101,,,,,,,,,538.000000,1697105439.769853,2.000000,30.000000,,,,
1697105439.782617,,,,,,,,,539.000000,1697105439.782119,2.000000,30.000000,,,,
1697105439.784099,,,,,,,,,,,,,1522.000000,1697105439.769853,2.000000,30.000000
1697105439.806386,,,,,,,,,,,,,1523.000000,1697105439.782119,2.000000,30.000000
1697105439.806820,,,,,,,,,540.000000,1697105439.806563,2.000000,30.000000,,,,
1697105439.817626,,,,,,,,,,,,,1524.000000,1697105439.806563,2.000000,30.000000
1697105439.820036,,,,,,,,,541.000000,1697105439.819746,2.000000,30.000000,,,,
1697105439.829185,,,,,,,,,,,,,1525.000000,1697105439.819746,2.000000,30.000000
1697105439.838354,,,,,,,,,542.000000,1697105439.838201,2.000000,209.000000,,,,
1697105439.865846,,,,,,,,,543.000000,1697105439.865576,2.000000,30.000000,,,,
1697105439.867423,,,,,,,,,,,,,1526.000000,1697105439.838201,2.000000,209.000000
1697105439.877096,,,,,,,,,,,,,1527.000000,1697105439.865576,2.000000,30.000000
1697105439.877451,,,,,,,,,544.000000,1697105439.877292,4.000000,34.000000,,,,
1697105439.888556,,,,,,,,,,,,,1528.000000,1697105439.877292,4.000000,34.000000
1697105439.890667,,,,,,,,,545.000000,1697105439.890471,4.000000,34.000000,,,,
1697105439.910012,,,,,,,,,,,,,1529.000000,1697105439.890471,4.000000,34.000000
1697105441.983111,,,,,,,,,546.000000,1697105441.982805,2.000000,30.000000,,,,
1697105442.024054,,,,,,,,,,,,,1530.000000,1697105441.982805,2.000000,30.000000
1697105442.024668,,,,,,,,,547.000000,1697105442.024367,2.000000,30.000000,,,,
1697105442.047791,,,,,,,,,,,,,1531.000000,1697105442.024367,2.000000,30.000000
1697105442.048704,,,,,,,,,548.000000,1697105442.048243,2.000000,30.000000,,,,
1697105442.070113,,,,,,,,,549.000000,1697105442.069803,2.000000,30.000000,,,,
1697105442.070680,,,,,,,,,,,,,1532.000000,1697105442.048243,2.000000,30.000000
1697105442.082140,,,,,,,,,,,,,1533.000000,1697105442.069803,2.000000,30.000000
1697105442.084212,,,,,,,,,550.000000,1697105442.083219,2.000000,30.000000,,,,
1697105442.102104,,,,,,,,,,,,,1534.000000,1697105442.083219,2.000000,30.000000
1697105442.144834,,,,,,,,,551.000000,1697105442.144586,2.000000,30.000000,,,,
1697105442.162401,,,,,,,,,,,,,1535.000000,1697105442.144586,2.000000,30.000000
1697105442.163283,,,,,,,,,552.000000,1697105442.163028,2.000000,30.000000,,,,
1697105442.177824,,,,,,,,,,,,,1536.000000,1697105442.163028,2.000000,30.000000
1697105442.178251,,,,,,,,,553.000000,1697105442.177958,2.000000,30.000000,,,,
1697105442.200979,,,,,,,,,,,,,1537.000000,1697105442.177958,2.000000,30.000000
1697105442.201689,,,,,,,,,554.000000,1697105442.201515,2.000000,30.000000,,,,
1697105442.223318,,,,,,,,,,,,,1538.000000,1697105442.201515,2.000000,30.000000
1697105442.331119,,,,,,,,,555.000000,1697105442.330876,2.000000,30.000000,,,,
1697105442.340432,,,,,,,,,,,,,1539.000000,1697105442.330876,2.000000,30.000000
1697105442.340811,,,,,,,,,556.000000,1697105442.340597,2.000000,30.000000,,,,
1697105442.355367,,,,,,,,,,,,,1540.000000,1697105442.340597,2.000000,30.000000
1697105442.356473,,,,,,,,,557.000000,1697105442.355690,2.000000,30.000000,,,,
1697105442.373677,,,,,,,,,,,,,1541.000000,1697105442.355690,2.000000,30.000000
1697105442.376433,,,,,,,,,558.000000,1697105442.375625,2.000000,30.000000,,,,
1697105442.394192,,,,,,,,,,,,,1542.000000,1697105442.375625,2.000000,30.000000
1697105442.394830,,,,,,,,,559.000000,1697105442.394412,2.000000,30.000000,,,,
1697105442.418158,,,,,,,,,,,,,1543.000000,1697105442.394412,2.000000,30.000000
1697105442.749274,,,,,,,,,560.000000,1697105442.748597,2.000000,30.000000,,,,
1697105442.774637,,,,,,,,,561.000000,1697105442.774094,2.000000,30.000000,,,,
1697105442.775893,,,,,,,,,,,,,1544.000000,1697105442.748597,2.000000,30.000000
1697105442.793612,,,,,,,,,,,,,1545.000000,1697105442.774094,2.000000,30.000000
1697105442.802456,,,,,,,,,562.000000,1697105442.802033,2.000000,30.000000,,,,
1697105442.822574,,,,,,,,,,,,,1546.000000,1697105442.802033,2.000000,30.000000
1697105443.266671,,,,,,,,,563.000000,1697105443.266318,2.000000,30.000000,,,,
1697105443.289801,,,,,,,,,,,,,1547.000000,1697105443.266318,2.000000,30.000000
1697105443.290209,,,,,,,,,564.000000,1697105443.289905,2.000000,30.000000,,,,
1697105443.304339,,,,,,,,,,,,,1548.000000,1697105443.289905,2.000000,30.000000
1697105443.318118,,,,,,,,,28.000000,1697105443.306613,4.000000,357.000000,,,,
1697105443.318203,,,,,,,,,,,,,1549.000000,1697105443.306613,4.000000,357.000000
1697105443.320450,,,,,,,,,565.000000,1697105443.320103,2.000000,30.000000,,,,
1697105443.341876,,,,,,,,,,,,,1550.000000,1697105443.320103,2.000000,30.000000
1697105443.341957,,,,,,,,,29.000000,1697105443.327948,4.000000,82.000000,,,,
1697105443.342052,,,,,,,,,,,,,1551.000000,1697105443.327948,4.000000,82.000000
1697105443.342422,,,,,,,,,566.000000,1697105443.342180,2.000000,30.000000,,,,
1697105443.372865,,,,,,,,,,,,,1552.000000,1697105443.342180,2.000000,30.000000
1697105444.189483,,,,,,,,,567.000000,1697105444.189224,2.000000,30.000000,,,,
1697105444.208479,,,,,,,,,,,,,1553.000000,1697105444.189224,2.000000,30.000000
1697105444.228875,,,,,,,,,568.000000,1697105444.228488,2.000000,30.000000,,,,
1697105444.257670,,,,,,,,,,,,,1554.000000,1697105444.228488,2.000000,30.000000
1697105444.258352,,,,,,,,,569.000000,1697105444.258172,4.000000,34.000000,,,,
1697105444.275453,,,,,,,,,,,,,1555.000000,1697105444.258172,4.000000,34.000000
1697105444.277431,,,,,,,,,570.000000,1697105444.276976,4.000000,34.000000,,,,
1697105444.297418,,,,,,,,,,,,,1556.000000,1697105444.276976,4.000000,34.000000
1697105444.298025,,,,,,,,,571.000000,1697105444.297850,4.000000,34.000000,,,,
1697105444.330362,,,,,,,,,572.000000,1697105444.329950,4.000000,34.000000,,,,
1697105444.330476,,,,,,,,,,,,,1557.000000,1697105444.297850,4.000000,34.000000
1697105444.366781,,,,,,,,,,,,,1558.000000,1697105444.329950,4.000000,34.000000
1697105444.367297,,,,,,,,,573.000000,1697105444.366510,2.000000,30.000000,,,,
1697105444.391081,,,,,,,,,,,,,1559.000000,1697105444.366510,2.000000,30.000000
1697105444.392734,,,,,,,,,574.000000,1697105444.391214,4.000000,34.000000,,,,
1697105444.409810,,,,,,,,,,,,,1560.000000,1697105444.391214,4.000000,34.000000
1697105446.417412,,,,,,,,,575.000000,1697105446.417084,2.000000,30.000000,,,,
1697105446.437284,,,,,,,,,,,,,1561.000000,1697105446.417084,2.000000,30.000000
1697105446.437920,,,,,,,,,576.000000,1697105446.437433,2.000000,30.000000,,,,
1697105446.456254,,,,,,,,,,,,,1562.000000,1697105446.437433,2.000000,30.000000
1697105446.456619,,,,,,,,,577.000000,1697105446.456406,2.000000,30.000000,,,,
1697105446.472182,,,,,,,,,,,,,1563.000000,1697105446.456406,2.000000,30.000000
1697105446.472474,,,,,,,,,578.000000,1697105446.472325,2.000000,30.000000,,,,
1697105446.488994,,,,,,,,,,,,,1564.000000,1697105446.472325,2.000000,30.000000
1697105446.491720,,,,,,,,,579.000000,1697105446.491094,2.000000,30.000000,,,,
1697105446.514485,,,,,,,,,,,,,1565.000000,1697105446.491094,2.000000,30.000000
1697105446.518849,,,,,,,,,580.000000,1697105446.518447,2.000000,30.000000,,,,
1697105446.540207,,,,,,,,,,,,,1566.000000,1697105446.518447,2.000000,30.000000
1697105446.541013,,,,,,,,,581.000000,1697105446.540660,4.000000,34.000000,,,,
1697105446.560519,,,,,,,,,,,,,1567.000000,1697105446.540660,4.000000,34.000000
1697105446.578245,,,,,,,,,582.000000,1697105446.576750,4.000000,34.000000,,,,
1697105446.633381,,,,,,,,,,,,,1568.000000,1697105446.576750,4.000000,34.000000
1697109670.271178,141840.000000,1697109670.262709,-0.003879,0.011493,0.013323,-0.000098,-0.000139,0.000134,,,,,,,,
1697109670.278817,141841.000000,1697109670.272643,-0.003765,0.011923,0.013770,-0.000101,-0.000142,0.000139,,,,,,,,
1697109670.292126,141842.000000,1697109670.285794,-0.003797,0.012942,0.014863,-0.000109,-0.000152,0.000150,,,,,,,,
1697109670.303142,141843.000000,1697109670.292660,-0.003934,0.014538,0.016575,-0.000121,-0.000167,0.000168,,,,,,,,
1697109670.312527,141844.000000,1697109670.303182,-0.004205,0.016807,0.018999,-0.000138,-0.000190,0.000193,,,,,,,,
1697109670.319165,141845.000000,1697109670.313146,-0.004651,0.019883,0.022256,-0.000161,-0.000221,0.000226,,,,,,,,
1697109670.331247,141846.000000,1697109670.322755,-0.005258,0.023807,0.026344,-0.000189,-0.000259,0.000268,,,,,,,,
1697109670.340656,141847.000000,1697109670.332666,-0.005760,0.027648,0.030165,-0.000216,-0.000295,0.000308,,,,,,,,
1697109670.352364,141848.000000,1697109670.342666,-0.006012,0.030888,0.033142,-0.000238,-0.000322,0.000340,,,,,,,,
1697109670.360094,141849.000000,1697109670.352871,-0.006188,0.034386,0.036257,-0.000262,-0.000349,0.000374,,,,,,,,
1697109670.369257,141850.000000,1697109670.362723,-0.006247,0.037737,0.039101,-0.000285,-0.000374,0.000406,,,,,,,,
1697109670.378557,141851.000000,1697109670.372711,-0.006049,0.039572,0.040203,-0.000298,-0.000385,0.000422,,,,,,,,
1697109670.390440,141852.000000,1697109670.382595,-0.005805,0.040829,0.040520,-0.000307,-0.000391,0.000430,,,,,,,,
1697109670.402224,141853.000000,1697109670.392761,-0.005601,0.042312,0.041043,-0.000319,-0.000400,0.000441,,,,,,,,
1697109670.410212,141854.000000,1697109670.402628,-0.005255,0.042712,0.040678,-0.000323,-0.000400,0.000441,,,,,,,,
1697109670.419640,141855.000000,1697109670.413308,-0.004795,0.041922,0.039332,-0.000319,-0.000391,0.000429,,,,,,,,
1697109670.431011,141856.000000,1697109670.422787,-0.004286,0.040583,0.037555,-0.000312,-0.000377,0.000414,,,,,,,,
1697109670.441820,141857.000000,1697109670.432790,-0.003796,0.038913,0.035487,-0.000304,-0.000361,0.000395,,,,,,,,
1697109670.453387,141858.000000,1697109670.443203,-0.003455,0.037617,0.033763,-0.000298,-0.000347,0.000379,,,,,,,,
1697109670.461153,141859.000000,1697109670.452628,-0.003265,0.036908,0.032657,-0.000297,-0.000340,0.000370,,,,,,,,
1697109670.474173,141860.000000,1697109670.462679,-0.003137,0.036145,0.031649,-0.000295,-0.000332,0.000360,,,,,,,,
1697109670.482670,141861.000000,1697109670.472626,-0.003039,0.034958,0.030359,-0.000290,-0.000323,0.000347,,,,,,,,
1697109670.491251,141862.000000,1697109670.482746,-0.003040,0.034077,0.029352,-0.000286,-0.000318,0.000336,,,,,,,,
1697109670.502505,141863.000000,1697109670.498144,-0.003219,0.034558,0.029563,-0.000293,-0.000325,0.000339,,,,,,,,
1697109670.512758,141864.000000,1697109670.503572,-0.003689,0.037216,0.031706,-0.000318,-0.000352,0.000362,,,,,,,,
1697109670.523281,141865.000000,1697109670.512995,-0.004482,0.042226,0.035848,-0.000363,-0.000400,0.000407,,,,,,,,
1697109670.531001,141866.000000,1697109670.522740,-0.005490,0.048798,0.041227,-0.000421,-0.000461,0.000466,,,,,,,,
1697109670.538579,141867.000000,1697109670.532674,-0.006668,0.055963,0.046946,-0.000485,-0.000528,0.000528,,,,,,,,
1697109670.548234,141868.000000,1697109670.542743,-0.007975,0.063291,0.052715,-0.000551,-0.000596,0.000589,,,,,,,,
1697109670.567195,141869.000000,1697109670.553361,-0.009352,0.070753,0.058930,-0.000617,-0.000664,0.000654,,,,,,,,
1697109670.577200,141870.000000,1697109670.563947,-0.010694,0.077450,0.065193,-0.000677,-0.000726,0.000716,,,,,,,,
1697109670.588467,141871.000000,1697109670.572531,-0.011929,0.082145,0.070290,-0.000720,-0.000770,0.000762,,,,,,,,
1697109670.592849,141872.000000,1697109670.582748,-0.013182,0.084870,0.073985,-0.000745,-0.000800,0.000794,,,,,,,,
1697109670.599990,141873.000000,1697109670.592759,-0.014571,0.086927,0.077409,-0.000766,-0.000825,0.000822,,,,,,,,
1697109670.609334,141874.000000,1697109670.602636,-0.016048,0.088463,0.080709,-0.000784,-0.000846,0.000846,,,,,,,,
1697109670.627629,141875.000000,1697109670.612676,-0.017492,0.088413,0.082695,-0.000789,-0.000855,0.000856,,,,,,,,
1697109670.636540,141876.000000,1697109670.622744,-0.018838,0.087520,0.083785,-0.000788,-0.000859,0.000857,,,,,,,,
1697109670.644635,141877.000000,1697109670.632805,-0.020033,0.087003,0.085080,-0.000790,-0.000864,0.000861,,,,,,,,
1697109670.658787,141878.000000,1697109670.642538,-0.020980,0.086484,0.086324,-0.000792,-0.000867,0.000867,,,,,,,,
1697109670.668272,141879.000000,1697109670.652762,-0.021684,0.085675,0.087324,-0.000791,-0.000864,0.000870,,,,,,,,
1697109670.683227,141880.000000,1697109670.662674,-0.022105,0.084414,0.087780,-0.000788,-0.000856,0.000870,,,,,,,,
1697109670.688877,141881.000000,1697109670.672656,-0.022422,0.083123,0.087958,-0.000785,-0.000847,0.000867,,,,,,,,
1697109670.688889,141882.000000,1697109670.682756,-0.022927,0.082694,0.088926,-0.000791,-0.000846,0.000872,,,,,,,,
1697109670.702303,141883.000000,1697109670.692669,-0.023554,0.082699,0.090376,-0.000801,-0.000850,0.000880,,,,,,,,
1697109670.711955,141884.000000,1697109670.703025,-0.024334,0.082606,0.091691,-0.000809,-0.000857,0.000886,,,,,,,,
1697109670.725833,141885.000000,1697109670.712471,-0.025109,0.082163,0.092716,-0.000813,-0.000861,0.000889,,,,,,,,
1697109670.744131,141886.000000,1697109670.723129,-0.025425,0.081264,0.093422,-0.000813,-0.000860,0.000887,,,,,,,,
1697109670.752672,141888.000000,1697109670.742756,-0.024603,0.078914,0.093547,-0.000809,-0.000840,0.000865,,,,,,,,
1697109670.770580,141889.000000,1697109670.757410,-0.023866,0.077579,0.092865,-0.000804,-0.000825,0.000845,,,,,,,,
1697109670.787857,141890.000000,1697109670.764318,-0.023076,0.076581,0.092446,-0.000798,-0.000812,0.000826,,,,,,,,
1697109670.793276,141891.000000,1697109670.776058,-0.022405,0.076447,0.093342,-0.000799,-0.000808,0.000816,,,,,,,,
1697109670.796810,141892.000000,1697109670.782846,-0.021995,0.077894,0.096452,-0.000815,-0.000821,0.000821,,,,,,,,
1697109670.806935,141893.000000,1697109670.792668,-0.021673,0.081060,0.101532,-0.000847,-0.000849,0.000839,,,,,,,,
1697109670.815764,141894.000000,1697109670.802866,-0.021084,0.085013,0.106974,-0.000889,-0.000882,0.000857,,,,,,,,
1697109670.828522,141895.000000,1697109670.812643,-0.020086,0.088792,0.111561,-0.000930,-0.000910,0.000868,,,,,,,,
1697109670.839835,141896.000000,1697109670.822544,-0.018700,0.092006,0.115066,-0.000966,-0.000929,0.000872,,,,,,,,
1697109670.849312,141897.000000,1697109670.832752,-0.016998,0.093914,0.116350,-0.000990,-0.000936,0.000863,,,,,,,,
1697109670.860445,141898.000000,1697109670.842987,-0.015203,0.093894,0.114617,-0.000994,-0.000925,0.000834,,,,,,,,
1697109670.862642,141899.000000,1697109670.852663,-0.013639,0.093331,0.111982,-0.000990,-0.000910,0.000803,,,,,,,,
1697109670.871783,141900.000000,1697109670.862990,-0.012613,0.094140,0.110931,-0.001000,-0.000909,0.000785,,,,,,,,
1697109670.881633,141901.000000,1697109670.872874,-0.012104,0.095955,0.111136,-0.001021,-0.000917,0.000778,,,,,,,,
1697109670.890989,141902.000000,1697109670.882632,-0.011860,0.097090,0.110637,-0.001037,-0.000919,0.000768,,,,,,,,
1697109670.902377,141903.000000,1697109670.892679,-0.011754,0.097505,0.109060,-0.001043,-0.000916,0.000755,,,,,,,,
1697109670.918004,141904.000000,1697109670.905042,-0.011705,0.098594,0.108017,-0.001053,-0.000919,0.000750,,,,,,,,
1697109670.927198,141905.000000,1697109670.914708,-0.011668,0.100806,0.108470,-0.001070,-0.000930,0.000756,,,,,,,,
1697109670.937332,141906.000000,1697109670.923557,-0.011757,0.103327,0.109630,-0.001087,-0.000943,0.000768,,,,,,,,
1697109670.946426,141907.000000,1697109670.933048,-0.012195,0.105622,0.110892,-0.001102,-0.000955,0.000781,,,,,,,,
1697109670.960103,141908.000000,1697109670.942770,-0.013144,0.108600,0.113340,-0.001124,-0.000976,0.000801,,,,,,,,
1697109670.970254,141909.000000,1697109670.952631,-0.014634,0.112842,0.117604,-0.001159,-0.001010,0.000831,,,,,,,,
1697109670.974264,141910.000000,1697109670.962662,-0.016535,0.117336,0.122640,-0.001200,-0.001048,0.000863,,,,,,,,
1697109670.981290,141911.000000,1697109670.972723,-0.018759,0.121762,0.128170,-0.001242,-0.001087,0.000897,,,,,,,,
1697109670.992081,141912.000000,1697109670.983517,-0.021256,0.125574,0.133752,-0.001283,-0.001126,0.000930,,,,,,,,
1697109671.016206,141913.000000,1697109671.006034,-0.023738,0.127174,0.137317,-0.001306,-0.001152,0.000951,,,,,,,,
1697109671.019279,141914.000000,1697109671.007239,-0.026082,0.126589,0.137843,-0.001311,-0.001165,0.000956,,,,,,,,
1697109671.025083,141915.000000,1697109671.012773,-0.028234,0.124630,0.135969,-0.001302,-0.001170,0.000950,,,,,,,,
1697109671.034206,141916.000000,1697109671.022544,-0.030054,0.121900,0.133126,-0.001282,-0.001168,0.000941,,,,,,,,
1697109671.048480,141917.000000,1697109671.035056,-0.031593,0.119488,0.130926,-0.001263,-0.001165,0.000939,,,,,,,,
1697109671.056884,141918.000000,1697109671.042973,-0.032773,0.117907,0.129983,-0.001252,-0.001163,0.000947,,,,,,,,
1697109671.062257,141919.000000,1697109671.052972,-0.033635,0.117193,0.130299,-0.001249,-0.001165,0.000961,,,,,,,,
1697109671.072659,141920.000000,1697109671.067350,-0.034561,0.118313,0.132672,-0.001265,-0.001180,0.000991,,,,,,,,
1697109671.079737,141921.000000,1697109671.072703,-0.035756,0.121905,0.137862,-0.001308,-0.001213,0.001040,,,,,,,,
1697109671.091472,141922.000000,1697109671.082864,-0.037217,0.127508,0.145660,-0.001375,-0.001260,0.001108,,,,,,,,
1697109671.101465,141923.000000,1697109671.096013,-0.038499,0.134208,0.155108,-0.001455,-0.001312,0.001188,,,,,,,,
1697109671.109945,141924.000000,1697109671.102652,-0.038811,0.140153,0.163782,-0.001526,-0.001351,0.001262,,,,,,,,
1697109671.118770,141925.000000,1697109671.112508,-0.038016,0.144411,0.170247,-0.001581,-0.001367,0.001322,,,,,,,,
1697109671.130865,141926.000000,1697109671.123913,-0.036512,0.147807,0.175552,-0.001631,-0.001371,0.001373,,,,,,,,
1697109671.139473,141927.000000,1697109671.132677,-0.034828,0.151166,0.180710,-0.001686,-0.001369,0.001421,,,,,,,,
1697109671.149621,141928.000000,1697109671.142657,-0.033045,0.153935,0.184472,-0.001738,-0.001360,0.001458,,,,,,,,
1697109671.162608,141929.000000,1697109671.152855,-0.030838,0.154910,0.184840,-0.001769,-0.001333,0.001469,,,,,,,,
1697109671.174848,141930.000000,1697109671.164022,-0.028129,0.153220,0.181212,-0.001768,-0.001286,0.001450,,,,,,,,
1697109671.181215,141931.000000,1697109671.172663,-0.025090,0.149081,0.174590,-0.001736,-0.001220,0.001407,,,,,,,,
1697109671.191286,141932.000000,1697109671.182536,-0.022079,0.144411,0.167272,-0.001694,-0.001150,0.001357,,,,,,,,
1697109671.198652,141933.000000,1697109671.192668,-0.019122,0.140709,0.161126,-0.001659,-0.001085,0.001317,,,,,,,,
1697109671.211606,141934.000000,1697109671.202651,-0.016155,0.138434,0.157296,-0.001637,-0.001030,0.001295,,,,,,,,
1697109671.220672,141935.000000,1697109671.212632,-0.013194,0.136877,0.154898,-0.001624,-0.000982,0.001283,,,,,,,,
1697109671.229567,141936.000000,1697109671.222776,-0.010132,0.135541,0.152815,-0.001612,-0.000936,0.001272,,,,,,,,
1697109671.241655,141937.000000,1697109671.232615,-0.006933,0.135165,0.151725,-0.001610,-0.000895,0.001267,,,,,,,,
1697109671.247239,141938.000000,1697109671.242617,-0.003734,0.135758,0.151733,-0.001618,-0.000860,0.001271,,,,,,,,
1697109671.260331,141939.000000,1697109671.252676,-0.000765,0.136801,0.152321,-0.001630,-0.000833,0.001280,,,,,,,,
1697109671.282175,141940.000000,1697109671.262650,0.001773,0.137396,0.152245,-0.001637,-0.000807,0.001282,,,,,,,,
1697109671.293585,141941.000000,1697109671.272911,0.003749,0.136144,0.149888,-0.001624,-0.000776,0.001265,,,,,,,,
1697109671.296637,141942.000000,1697109671.282651,0.005364,0.132852,0.145461,-0.001588,-0.000738,0.001230,,,,,,,,
1697109671.307719,141943.000000,1697109671.292829,0.006663,0.128176,0.139764,-0.001535,-0.000697,0.001185,,,,,,,,
1697109671.317878,141944.000000,1697109671.302646,0.007317,0.122982,0.133555,-0.001478,-0.000656,0.001137,,,,,,,,
1697109671.322656,141945.000000,1697109671.312643,0.007508,0.118429,0.128161,-0.001428,-0.000620,0.001098,,,,,,,,
1697109671.335311,141946.000000,1697109671.322750,0.007668,0.115039,0.124003,-0.001387,-0.000591,0.001072,,,,,,,,
1697109671.346287,141947.000000,1697109671.333610,0.007945,0.112856,0.120931,-0.001354,-0.000569,0.001058,,,,,,,,
1697109671.354503,141948.000000,1697109671.342672,0.008410,0.111070,0.118197,-0.001323,-0.000552,0.001049,,,,,,,,
1697109671.364748,141949.000000,1697109671.352685,0.008984,0.109389,0.115697,-0.001293,-0.000537,0.001043,,,,,,,,
1697109671.383566,141950.000000,1697109671.362735,0.009382,0.108500,0.114284,-0.001272,-0.000528,0.001047,,,,,,,,
1697109671.388601,141952.000000,1697109671.382629,0.008626,0.105174,0.110103,-0.001211,-0.000518,0.001048,,,,,,,,
1697109671.406759,141953.000000,1697109671.392925,0.007774,0.101239,0.105343,-0.001156,-0.000506,0.001026,,,,,,,,
1697109671.416525,141954.000000,1697109671.402612,0.006975,0.096540,0.099695,-0.001092,-0.000491,0.000995,,,,,,,,
1697109671.425791,141955.000000,1697109671.412667,0.006305,0.091760,0.093912,-0.001027,-0.000474,0.000962,,,,,,,,
1697109671.439633,141956.000000,1697109671.422959,0.005551,0.085435,0.086482,-0.000948,-0.000449,0.000912,,,,,,,,
1697109671.449511,141957.000000,1697109671.434369,0.004541,0.076873,0.076883,-0.000849,-0.000413,0.000835,,,,,,,,
1697109671.455990,141958.000000,1697109671.442971,0.003408,0.067701,0.066844,-0.000745,-0.000373,0.000747,,,,,,,,
1697109671.468060,141959.000000,1697109671.452713,0.002295,0.058070,0.056524,-0.000636,-0.000329,0.000650,,,,,,,,
1697109671.478482,141960.000000,1697109671.462819,0.001347,0.046963,0.045041,-0.000513,-0.000274,0.000533,,,,,,,,
1697109671.489985,141961.000000,1697109671.472587,0.000657,0.035114,0.033205,-0.000384,-0.000211,0.000404,,,,,,,,
1697109671.495171,141962.000000,1697109671.482864,0.000207,0.024087,0.022448,-0.000263,-0.000149,0.000281,,,,,,,,
1697109671.502119,141963.000000,1697109671.492650,-0.000025,0.014078,0.012881,-0.000154,-0.000089,0.000165,,,,,,,,
1697109671.516618,141964.000000,1697109671.502740,-0.000052,0.004476,0.004011,-0.000049,-0.000029,0.000053,,,,,,,,
1697109671.526377,141965.000000,1697109671.512581,0.000000,0.000000,0.000000,0.000000,0.000000,0.000000,,,,,,,,
1697109671.534328,141966.000000,1697109671.522666,0.000000,0.000000,0.000000,0.000000,0.000000,0.000000,,,,,,,,
1697109671.544502,141967.000000,1697109671.532927,0.000000,0.000000,0.000000,0.000000,0.000000,0.000000,,,,,,,,
1697109671.555368,141968.000000,1697109671.542636,0.000000,0.000000,0.000000,0.000000,0.000000,0.000000,,,,,,,,
1697109671.569242,141969.000000,1697109671.554535,0.000000,0.000000,0.000000,0.000000,0.000000,0.000000,,,,,,,,
1697109671.582155,141970.000000,1697109671.563756,0.000000,0.000000,0.000000,0.000000,0.000000,0.000000,,,,,,,,
1697109671.585494,141971.000000,1697109671.572739,0.000000,0.000000,0.000000,0.000000,0.000000,0.000000,,,,,,,,
1697109671.596944,141972.000000,1697109671.582858,0.000000,0.000000,0.000000,0.000000,0.000000,0.000000,,,,,,,,
1697109671.619917,141973.000000,1697109671.592803,0.000000,0.000000,0.000000,0.000000,0.000000,0.000000,,,,,,,,
1697109671.627749,141974.000000,1697109671.602760,0.000000,0.000000,0.000000,0.000000,0.000000,0.000000,,,,,,,,
1697109671.634295,141976.000000,1697109671.622650,0.000000,0.000000,0.000000,0.000000,0.000000,0.000000,,,,,,,,
1697109671.649807,141977.000000,1697109671.632673,0.000000,0.000000,0.000000,0.000000,0.000000,0.000000,,,,,,,,
1697109671.658573,141978.000000,1697109671.642683,0.000000,0.000000,0.000000,0.000000,0.000000,0.000000,,,,,,,,
1697109671.661935,141979.000000,1697109671.652660,0.000000,0.000000,0.000000,0.000000,0.000000,0.000000,,,,,,,,
1697109671.672248,141980.000000,1697109671.662800,0.000000,0.000000,0.000000,0.000000,0.000000,0.000000,,,,,,,,
1697109671.682735,141981.000000,1697109671.672798,0.000000,0.000000,0.000000,0.000000,0.000000,0.000000,,,,,,,,
1697109671.695274,141982.000000,1697109671.682756,0.000000,0.000000,0.000000,0.000000,0.000000,0.000000,,,,,,,,
1697109671.704480,141983.000000,1697109671.692577,0.000000,0.000000,0.000000,0.000000,0.000000,0.000000,,,,,,,,
1697109671.714987,141984.000000,1697109671.702648,0.000000,0.000000,0.000000,0.000000,0.000000,0.000000,,,,,,,,
1697109671.720207,141985.000000,1697109671.712667,0.000000,0.000000,0.000000,0.000000,0.000000,0.000000,,,,,,,,
1697109671.732265,141986.000000,1697109671.722658,0.000000,0.000000,0.000000,0.000000,0.000000,0.000000,,,,,,,,
1697109671.739356,141987.000000,1697109671.732627,0.000000,0.000000,0.000000,0.000000,0.000000,0.000000,,,,,,,,
1697109671.753448,141988.000000,1697109671.742857,0.000000,0.000000,0.000000,0.000000,0.000000,0.000000,,,,,,,,
1697109671.763556,141989.000000,1697109671.752636,0.000000,0.000000,0.000000,0.000000,0.000000,0.000000,,,,,,,,
1697109671.779763,141990.000000,1697109671.762597,0.000000,0.000000,0.000000,0.000000,0.000000,0.000000,,,,,,,,
1697109671.785979,141991.000000,1697109671.772657,0.000000,0.000000,0.000000,0.000000,0.000000,0.000000,,,,,,,,
1697109671.796818,141992.000000,1697109671.782722,0.000000,0.000000,0.000000,0.000000,0.000000,0.000000,,,,,,,,
1697109671.810205,141993.000000,1697109671.792691,0.000000,0.000000,0.000000,0.000000,0.000000,0.000000,,,,,,,,
1697109671.821145,141994.000000,1697109671.808741,0.000000,0.000000,0.000000,0.000000,0.000000,0.000000,,,,,,,,
1697109671.832475,141995.000000,1697109671.812912,0.000000,0.000000,0.000000,0.000000,0.000000,0.000000,,,,,,,,
1697109671.832495,141996.000000,1697109671.822612,0.000000,0.000000,0.000000,0.000000,0.000000,0.000000,,,,,,,,
1697109671.840526,141997.000000,1697109671.832618,0.000000,0.000000,0.000000,0.000000,0.000000,0.000000,,,,,,,,
1697109671.855845,141998.000000,1697109671.842623,0.000000,0.000000,0.000000,0.000000,0.000000,0.000000,,,,,,,,
1697109671.869444,141999.000000,1697109671.852661,0.000000,0.000000,0.000000,0.000000,0.000000,0.000000,,,,,,,,
1697109671.873282,142000.000000,1697109671.862693,0.000000,0.000000,0.000000,0.000000,0.000000,0.000000,,,,,,,,
1697109671.887023,142001.000000,1697109671.872992,0.000000,0.000000,0.000000,0.000000,0.000000,0.000000,,,,,,,,
1697109671.897320,142002.000000,1697109671.882779,0.000000,0.000000,0.000000,0.000000,0.000000,0.000000,,,,,,,,
1697109671.908145,142003.000000,1697109671.892513,0.000000,0.000000,0.000000,0.000000,0.000000,0.000000,,,,,,,,
1697109671.910256,142004.000000,1697109671.903143,0.000000,0.000000,0.000000,0.000000,0.000000,0.000000,,,,,,,,
1697109671.924062,142005.000000,1697109671.912584,0.000000,0.000000,0.000000,0.000000,0.000000,0.000000,,,,,,,,
1697109671.941473,142006.000000,1697109671.922769,0.000000,0.000000,0.000000,0.000000,0.000000,0.000000,,,,,,,,
1697109671.943826,142007.000000,1697109671.933798,0.000000,0.000000,0.000000,0.000000,0.000000,0.000000,,,,,,,,
1697109671.963399,142008.000000,1697109671.944651,0.000000,0.000000,0.000000,0.000000,0.000000,0.000000,,,,,,,,
1697109671.975688,142009.000000,1697109671.952800,0.000000,0.000000,0.000000,0.000000,0.000000,0.000000,,,,,,,,
1697109671.986137,142010.000000,1697109671.962533,0.000000,0.000000,0.000000,0.000000,0.000000,0.000000,,,,,,,,
1697109671.991332,142011.000000,1697109671.973149,0.000000,0.000000,0.000000,0.000000,0.000000,0.000000,,,,,,,,
1697109671.998279,142012.000000,1697109671.983804,0.000000,0.000000,0.000000,0.000000,0.000000,0.000000,,,,,,,,
1697109672.004445,142013.000000,1697109671.992657,0.000000,0.000000,0.000000,0.000000,0.000000,0.000000,,,,,,,,
1697109672.016379,142014.000000,1697109672.002752,0.000000,0.000000,0.000000,0.000000,0.000000,0.000000,,,,,,,,
1697109672.029674,142015.000000,1697109672.012650,0.000000,0.000000,0.000000,0.000000,0.000000,0.000000,,,,,,,,
1697109672.041161,142016.000000,1697109672.022777,0.000000,0.000000,0.000000,0.000000,0.000000,0.000000,,,,,,,,
1697109672.048982,142017.000000,1697109672.032536,0.000000,0.000000,0.000000,0.000000,0.000000,0.000000,,,,,,,,
1697109672.049554,142018.000000,1697109672.042819,0.000000,0.000000,0.000000,0.000000,0.000000,0.000000,,,,,,,,
1697109672.062130,142019.000000,1697109672.052980,0.000000,0.000000,0.000000,0.000000,0.000000,0.000000,,,,,,,,
1697109672.070194,142020.000000,1697109672.062664,0.000000,0.000000,0.000000,0.000000,0.000000,0.000000,,,,,,,,
1697109672.082835,142021.000000,1697109672.072735,0.000000,0.000000,0.000000,0.000000,0.000000,0.000000,,,,,,,,
1697109672.095103,142022.000000,1697109672.082621,0.000000,0.000000,0.000000,0.000000,0.000000,0.000000,,,,,,,,
1697109672.105121,142023.000000,1697109672.092677,0.000000,0.000000,0.000000,0.000000,0.000000,0.000000,,,,,,,,
1697109672.114079,142024.000000,1697109672.102910,0.000000,0.000000,0.000000,0.000000,0.000000,0.000000,,,,,,,,
1697109672.128447,142025.000000,1697109672.112720,0.000000,0.000000,0.000000,0.000000,0.000000,0.000000,,,,,,,,
1697109672.139467,142026.000000,1697109672.122792,0.000000,0.000000,0.000000,0.000000,0.000000,0.000000,,,,,,,,
1697109672.148042,142027.000000,1697109672.136456,0.000000,0.000000,0.000000,0.000000,0.000000,0.000000,,,,,,,,
1697109672.171489,142029.000000,1697109672.152910,0.000000,0.000000,0.000000,0.000000,0.000000,0.000000,,,,,,,,
1697109672.186175,142030.000000,1697109672.162886,0.000000,0.000000,0.000000,0.000000,0.000000,0.000000,,,,,,,,
1697109672.202434,142031.000000,1697109672.172613,0.000000,0.000000,0.000000,0.000000,0.000000,0.000000,,,,,,,,
1697109672.205070,142032.000000,1697109672.184927,0.000000,0.000000,0.000000,0.000000,0.000000,0.000000,,,,,,,,
1697109672.219839,142034.000000,1697109672.202975,0.000000,0.000000,0.000000,0.000000,0.000000,0.000000,,,,,,,,
1697109672.239199,142035.000000,1697109672.213200,0.000000,0.000000,0.000000,0.000000,0.000000,0.000000,,,,,,,,
1697109672.247126,142036.000000,1697109672.223901,-0.000185,0.001411,0.001161,-0.000015,-0.000012,0.000013,,,,,,,,
1697109672.259468,142037.000000,1697109672.235092,-0.000716,0.005452,0.004519,-0.000058,-0.000045,0.000050,,,,,,,,
1697109672.267878,142038.000000,1697109672.244285,-0.001168,0.008957,0.007486,-0.000096,-0.000074,0.000083,,,,,,,,
1697109672.273729,142039.000000,1697109672.252654,-0.001522,0.011787,0.009912,-0.000126,-0.000098,0.000110,,,,,,,,
1697109672.283237,142040.000000,1697109672.262874,-0.001954,0.015339,0.012906,-0.000163,-0.000127,0.000143,,,,,,,,
1697109672.290269,142041.000000,1697109672.273432,-0.002598,0.020821,0.017418,-0.000220,-0.000173,0.000193,,,,,,,,
1697109672.296285,142042.000000,1697109672.282630,-0.003168,0.025791,0.021367,-0.000272,-0.000214,0.000237,,,,,,,,
1697109672.305235,142043.000000,1697109672.292622,-0.003409,0.027426,0.022464,-0.000289,-0.000229,0.000250,,,,,,,,
1697109672.316695,142044.000000,1697109672.302654,-0.003446,0.026747,0.021634,-0.000281,-0.000227,0.000243,,,,,,,,
1697109672.324878,142045.000000,1697109672.312572,-0.003432,0.025890,0.020663,-0.000272,-0.000223,0.000233,,,,,,,,
1697109672.336234,142046.000000,1697109672.322624,-0.003323,0.024998,0.019702,-0.000263,-0.000218,0.000223,,,,,,,,
1697109672.348592,142047.000000,1697109672.332789,-0.003176,0.024457,0.019089,-0.000257,-0.000215,0.000216,,,,,,,,
1697109672.363173,142048.000000,1697109672.342535,-0.003155,0.025481,0.019774,-0.000267,-0.000224,0.000222,,,,,,,,
1697109672.375522,142049.000000,1697109672.352801,-0.003181,0.027304,0.021100,-0.000286,-0.000241,0.000235,,,,,,,,
1697109672.375538,142050.000000,1697109672.362687,-0.003150,0.028671,0.022043,-0.000300,-0.000254,0.000244,,,,,,,,
1697109672.385165,142051.000000,1697109672.372738,-0.003129,0.030029,0.022979,-0.000314,-0.000268,0.000252,,,,,,,,
1697109672.399266,142052.000000,1697109672.382567,-0.003154,0.032155,0.024519,-0.000336,-0.000288,0.000267,,,,,,,,
1697109672.401527,142053.000000,1697109672.392844,-0.003082,0.034034,0.025915,-0.000357,-0.000304,0.000280,,,,,,,,
1697109672.417907,142054.000000,1697109672.402777,-0.002802,0.033923,0.025986,-0.000358,-0.000302,0.000278,,,,,,,,
1697109672.432401,142056.000000,1697109672.422710,-0.001906,0.029217,0.023172,-0.000312,-0.000259,0.000244,,,,,,,,
1697109672.441530,142057.000000,1697109672.432685,-0.001496,0.026967,0.021887,-0.000290,-0.000239,0.000229,,,,,,,,
1697109672.451149,142058.000000,1697109672.442641,-0.001222,0.026564,0.022128,-0.000288,-0.000235,0.000228,,,,,,,,
1697109672.467092,142059.000000,1697109672.452611,-0.000996,0.027272,0.023320,-0.000297,-0.000242,0.000237,,,,,,,,
1697109672.477995,142060.000000,1697109672.465111,-0.000769,0.027846,0.024450,-0.000304,-0.000247,0.000244,,,,,,,,
1697109672.491210,142061.000000,1697109672.472875,-0.000601,0.027987,0.025241,-0.000306,-0.000249,0.000248,,,,,,,,
1697109672.501595,142062.000000,1697109672.482623,-0.000544,0.028557,0.026365,-0.000313,-0.000256,0.000255,,,,,,,,
1697109672.508829,142063.000000,1697109672.493082,-0.000612,0.030396,0.028598,-0.000335,-0.000274,0.000272,,,,,,,,
1697109672.516389,142064.000000,1697109672.502739,-0.000809,0.032699,0.031274,-0.000361,-0.000297,0.000292,,,,,,,,
1697109672.525890,142065.000000,1697109672.512817,-0.001120,0.033947,0.032933,-0.000376,-0.000312,0.000303,,,,,,,,
1697109672.538994,142066.000000,1697109672.523254,-0.001495,0.033375,0.032723,-0.000371,-0.000311,0.000297,,,,,,,,
1697109672.560435,142067.000000,1697109672.550158,-0.001935,0.031657,0.031227,-0.000352,-0.000300,0.000280,,,,,,,,
1697109672.561797,142068.000000,1697109672.551491,-0.002452,0.030475,0.030121,-0.000338,-0.000294,0.000267,,,,,,,,
1697109672.561803,142069.000000,1697109672.552884,-0.003076,0.030887,0.030470,-0.000340,-0.000302,0.000268,,,,,,,,
1697109672.572611,142070.000000,1697109672.562586,-0.003779,0.032208,0.031605,-0.000353,-0.000317,0.000277,,,,,,,,
1697109672.583067,142071.000000,1697109672.572889,-0.004563,0.034061,0.033161,-0.000372,-0.000338,0.000292,,,,,,,,
1697109672.593360,142072.000000,1697109672.582844,-0.005562,0.037295,0.035932,-0.000405,-0.000372,0.000318,,,,,,,,
1697109672.612265,142073.000000,1697109672.597219,-0.006708,0.041428,0.039469,-0.000449,-0.000414,0.000351,,,,,,,,
1697109672.622226,142074.000000,1697109672.602606,-0.007809,0.045173,0.042640,-0.000488,-0.000452,0.000382,,,,,,,,
1697109672.625453,142075.000000,1697109672.612986,-0.008871,0.048461,0.045429,-0.000522,-0.000486,0.000411,,,,,,,,
1697109672.633767,142076.000000,1697109672.622734,-0.009935,0.051626,0.048182,-0.000554,-0.000519,0.000440,,,,,,,,
1697109672.642277,142077.000000,1697109672.632645,-0.010971,0.054613,0.050761,-0.000584,-0.000548,0.000466,,,,,,,,
1697109672.652716,142078.000000,1697109672.643971,-0.011914,0.057196,0.052617,-0.000610,-0.000572,0.000488,,,,,,,,
1697109672.660784,142079.000000,1697109672.652671,-0.012603,0.058878,0.053219,-0.000625,-0.000586,0.000500,,,,,,,,
1697109672.672058,142080.000000,1697109672.662742,-0.012830,0.058889,0.052281,-0.000622,-0.000584,0.000501,,,,,,,,
1697109672.681309,142081.000000,1697109672.672601,-0.012655,0.057259,0.050094,-0.000602,-0.000566,0.000488,,,,,,,,
1697109672.691897,142082.000000,1697109672.682734,-0.012354,0.054995,0.047499,-0.000576,-0.000544,0.000471,,,,,,,,
1697109672.703242,142083.000000,1697109672.692735,-0.012081,0.052724,0.044868,-0.000550,-0.000522,0.000455,,,,,,,,
1697109672.717271,142084.000000,1697109672.703281,-0.011872,0.050500,0.042119,-0.000526,-0.000501,0.000438,,,,,,,,
1697109672.721645,142085.000000,1697109672.712816,-0.011656,0.048388,0.039418,-0.000502,-0.000479,0.000420,,,,,,,,
1697109672.734198,142086.000000,1697109672.722658,-0.011409,0.046959,0.037395,-0.000485,-0.000463,0.000407,,,,,,,,
1697109672.747975,142087.000000,1697109672.732782,-0.011249,0.046536,0.036315,-0.000479,-0.000454,0.000402,,,,,,,,
1697109672.762295,142088.000000,1697109672.742614,-0.011173,0.046715,0.035707,-0.000479,-0.000449,0.000401,,,,,,,,
1697109672.781698,142090.000000,1697109672.762717,-0.010601,0.046813,0.034128,-0.000476,-0.000436,0.000392,,,,,,,,
1697109672.793033,142091.000000,1697109672.772641,-0.010568,0.047956,0.034304,-0.000485,-0.000441,0.000396,,,,,,,,
1697109672.803905,142092.000000,1697109672.782795,-0.011101,0.051482,0.036399,-0.000516,-0.000468,0.000419,,,,,,,,
1697109672.808137,142093.000000,1697109672.792639,-0.011857,0.056100,0.039444,-0.000558,-0.000505,0.000451,,,,,,,,
1697109672.814311,142094.000000,1697109672.802614,-0.012389,0.059766,0.041949,-0.000589,-0.000534,0.000475,,,,,,,,
1697109672.838553,142095.000000,1697109672.812640,-0.012533,0.061846,0.043432,-0.000607,-0.000548,0.000488,,,,,,,,
1697109672.845862,142096.000000,1697109672.822744,-0.012315,0.062760,0.044158,-0.000614,-0.000552,0.000492,,,,,,,,
1697109672.849595,142097.000000,1697109672.834266,-0.011768,0.062806,0.044357,-0.000613,-0.000546,0.000491,,,,,,,,
1697109672.854842,142098.000000,1697109672.843262,-0.010954,0.062223,0.044343,-0.000606,-0.000535,0.000486,,,,,,,,
1697109672.863694,142099.000000,1697109672.852777,-0.009976,0.061343,0.044366,-0.000597,-0.000523,0.000479,,,,,,,,
1697109672.884835,142100.000000,1697109672.862595,-0.008950,0.060346,0.044389,-0.000588,-0.000511,0.000471,,,,,,,,
1697109672.887701,142101.000000,1697109672.874096,-0.008004,0.059562,0.044553,-0.000581,-0.000503,0.000463,,,,,,,,
1697109672.894629,142102.000000,1697109672.882641,-0.007208,0.059147,0.044823,-0.000578,-0.000499,0.000456,,,,,,,,
1697109672.906095,142103.000000,1697109672.892648,-0.006522,0.058944,0.044983,-0.000577,-0.000498,0.000448,,,,,,,,
1697109672.919350,142104.000000,1697109672.902611,-0.005982,0.059354,0.045492,-0.000581,-0.000504,0.000443,,,,,,,,
1697109672.929209,142105.000000,1697109672.912725,-0.005634,0.060602,0.046634,-0.000593,-0.000518,0.000445,,,,,,,,
1697109672.931270,142106.000000,1697109672.922743,-0.005298,0.061566,0.047616,-0.000602,-0.000529,0.000445,,,,,,,,
1697109672.937909,142107.000000,1697109672.932529,-0.004816,0.060891,0.047472,-0.000596,-0.000524,0.000437,,,,,,,,
1697109672.955186,142108.000000,1697109672.943251,-0.004173,0.058139,0.045724,-0.000570,-0.000502,0.000416,,,,,,,,
1697109672.965023,142109.000000,1697109672.953730,-0.003475,0.054046,0.042788,-0.000533,-0.000468,0.000385,,,,,,,,
1697109672.976854,142110.000000,1697109672.962633,-0.002929,0.050526,0.040218,-0.000503,-0.000438,0.000358,,,,,,,,
1697109672.985044,142111.000000,1697109672.972901,-0.002571,0.048435,0.038845,-0.000486,-0.000420,0.000341,,,,,,,,
1697109672.999801,142112.000000,1697109672.982842,-0.002327,0.046982,0.038035,-0.000477,-0.000407,0.000327,,,,,,,,
1697109673.015334,142114.000000,1697109673.002506,-0.002257,0.045611,0.037411,-0.000472,-0.000397,0.000311,,,,,,,,
1697109673.026862,142115.000000,1697109673.012847,-0.002253,0.046488,0.038517,-0.000486,-0.000406,0.000315,,,,,,,,
1697109673.039607,142116.000000,1697109673.022678,-0.002065,0.047520,0.039932,-0.000503,-0.000417,0.000321,,,,,,,,
1697109673.061500,142117.000000,1697109673.032692,-0.001744,0.048365,0.041286,-0.000520,-0.000428,0.000327,,,,,,,,
1697109673.071046,142119.000000,1697109673.052728,-0.001242,0.051557,0.045481,-0.000572,-0.000469,0.000351,,,,,,,,
1697109673.080718,142120.000000,1697109673.062762,-0.001325,0.054742,0.049224,-0.000619,-0.000505,0.000374,,,,,,,,
1697109673.096630,142121.000000,1697109673.076064,-0.001779,0.058378,0.053567,-0.000673,-0.000549,0.000401,,,,,,,,
1697109673.103868,142123.000000,1697109673.092615,-0.003254,0.067416,0.064432,-0.000803,-0.000660,0.000469,,,,,,,,
1697109673.116649,142124.000000,1697109673.102850,-0.004043,0.071612,0.069632,-0.000863,-0.000717,0.000503,,,,,,,,
1697109673.125145,142125.000000,1697109673.113159,-0.004888,0.075315,0.074359,-0.000917,-0.000768,0.000536,,,,,,,,
1697109673.141730,142126.000000,1697109673.123101,-0.005841,0.078545,0.078488,-0.000965,-0.000816,0.000569,,,,,,,,
1697109673.151609,142127.000000,1697109673.132777,-0.007016,0.080776,0.081309,-0.001001,-0.000855,0.000597,,,,,,,,
1697109673.157428,142128.000000,1697109673.142521,-0.008357,0.081600,0.082534,-0.001019,-0.000882,0.000614,,,,,,,,
1697109673.166452,142129.000000,1697109673.152652,-0.009586,0.081390,0.082832,-0.001024,-0.000900,0.000623,,,,,,,,
1697109673.175732,142130.000000,1697109673.163484,-0.010602,0.080735,0.082890,-0.001022,-0.000912,0.000629,,,,,,,,
1697109673.191675,142131.000000,1697109673.172733,-0.011522,0.080480,0.083431,-0.001023,-0.000926,0.000637,,,,,,,,
1697109673.207736,142133.000000,1697109673.192687,-0.013091,0.080717,0.084906,-0.001028,-0.000954,0.000658,,,,,,,,
1697109673.216580,142134.000000,1697109673.202740,-0.013727,0.080008,0.084464,-0.001019,-0.000955,0.000660,,,,,,,,
1697109673.226110,142135.000000,1697109673.212509,-0.014104,0.078801,0.083117,-0.001002,-0.000945,0.000656,,,,,,,,
1697109673.234617,142136.000000,1697109673.222618,-0.014103,0.077127,0.081024,-0.000978,-0.000926,0.000645,,,,,,,,
1697109673.244261,142137.000000,1697109673.232674,-0.013848,0.075039,0.078522,-0.000950,-0.000900,0.000629,,,,,,,,
1697109673.259362,142138.000000,1697109673.242921,-0.013627,0.073598,0.076857,-0.000932,-0.000882,0.000617,,,,,,,,
1697109673.271684,142139.000000,1697109673.252667,-0.013599,0.073744,0.076974,-0.000932,-0.000881,0.000621,,,,,,,,
1697109673.272959,142140.000000,1697109673.263131,-0.013810,0.075541,0.078837,-0.000950,-0.000899,0.000638,,,,,,,,
1697109673.290752,142141.000000,1697109673.273129,-0.014169,0.078775,0.082173,-0.000984,-0.000933,0.000667,,,,,,,,
1697109673.303036,142142.000000,1697109673.282956,-0.014343,0.082470,0.085884,-0.001023,-0.000967,0.000701,,,,,,,,
1697109673.305081,142143.000000,1697109673.292549,-0.014143,0.085877,0.088926,-0.001057,-0.000993,0.000731,,,,,,,,
1697109673.318507,142144.000000,1697109673.303361,-0.013569,0.088776,0.090901,-0.001083,-0.001009,0.000757,,,,,,,,
1697109673.326013,142145.000000,1697109673.312673,-0.012695,0.091053,0.091890,-0.001098,-0.001016,0.000777,,,,,,,,
1697109673.334619,142146.000000,1697109673.322596,-0.011600,0.093373,0.092763,-0.001110,-0.001020,0.000797,,,,,,,,
1697109673.344570,142147.000000,1697109673.332676,-0.010454,0.095919,0.093720,-0.001123,-0.001023,0.000820,,,,,,,,
1697109673.353238,142148.000000,1697109673.343119,-0.009448,0.097568,0.093524,-0.001127,-0.001017,0.000834,,,,,,,,
1697109673.364137,142149.000000,1697109673.353892,-0.008451,0.097765,0.091550,-0.001117,-0.000999,0.000836,,,,,,,,
1697109673.375397,142150.000000,1697109673.362560,-0.007378,0.096553,0.088118,-0.001093,-0.000968,0.000826,,,,,,,,
1697109673.383112,142151.000000,1697109673.372860,-0.006390,0.094154,0.083922,-0.001060,-0.000931,0.000805,,,,,,,,
1697109673.390810,142152.000000,1697109673.382629,-0.005527,0.090856,0.079377,-0.001021,-0.000888,0.000776,,,,,,,,
1697109673.399794,142153.000000,1697109673.392784,-0.004560,0.086372,0.074203,-0.000970,-0.000834,0.000738,,,,,,,,
1697109673.408628,142154.000000,1697109673.402892,-0.003427,0.080499,0.068254,-0.000904,-0.000769,0.000690,,,,,,,,
1697109673.425767,142155.000000,1697109673.414261,-0.002468,0.073685,0.061837,-0.000830,-0.000699,0.000634,,,,,,,,
1697109673.434353,142156.000000,1697109673.422642,-0.001805,0.066240,0.055082,-0.000748,-0.000627,0.000573,,,,,,,,
1697109673.449399,142157.000000,1697109673.432668,-0.001308,0.058569,0.048174,-0.000664,-0.000555,0.000509,,,,,,,,
1697109673.457124,142158.000000,1697109673.442763,-0.000956,0.051393,0.041638,-0.000584,-0.000489,0.000447,,,,,,,,
1697109673.465226,142159.000000,1697109673.452600,-0.000761,0.044173,0.035141,-0.000503,-0.000422,0.000384,,,,,,,,
1697109673.476662,142160.000000,1697109673.462642,-0.000637,0.035994,0.028096,-0.000411,-0.000347,0.000314,,,,,,,,
1697109673.493264,142161.000000,1697109673.476142,-0.000506,0.028034,0.021445,-0.000321,-0.000271,0.000246,,,,,,,,
1697109673.502456,142163.000000,1697109673.492642,-0.000359,0.020933,0.015261,-0.000239,-0.000199,0.000184,,,,,,,,
1697109673.515459,142164.000000,1697109673.502596,-0.000326,0.021951,0.015661,-0.000249,-0.000205,0.000193,,,,,,,,
1697109673.526158,142165.000000,1697109673.512756,-0.000304,0.024536,0.017200,-0.000277,-0.000224,0.000216,,,,,,,,
1697109673.538749,142166.000000,1697109673.522600,-0.000285,0.028331,0.019650,-0.000318,-0.000254,0.000250,,,,,,,,
1697109673.548100,142167.000000,1697109673.532645,-0.000237,0.033395,0.023120,-0.000372,-0.000295,0.000296,,,,,,,,
1697109673.560653,142168.000000,1697109673.542585,-0.000133,0.039673,0.027639,-0.000439,-0.000346,0.000353,,,,,,,,
1697109673.568849,142169.000000,1697109673.552627,0.000007,0.046380,0.032738,-0.000511,-0.000401,0.000414,,,,,,,,
1697109673.576039,142170.000000,1697109673.562659,0.000134,0.053337,0.038325,-0.000586,-0.000459,0.000477,,,,,,,,
1697109673.588770,142171.000000,1697109673.572607,0.000249,0.061011,0.044741,-0.000668,-0.000524,0.000549,,,,,,,,
1697109673.601492,142172.000000,1697109673.582728,0.000306,0.068668,0.051556,-0.000751,-0.000590,0.000624,,,,,,,,
1697109673.622652,142173.000000,1697109673.592525,0.000220,0.075053,0.057738,-0.000820,-0.000647,0.000691,,,,,,,,
1697109673.625643,142175.000000,1697109673.614712,-0.000186,0.084209,0.067242,-0.000916,-0.000736,0.000797,,,,,,,,
1697109673.631125,142176.000000,1697109673.622754,-0.000571,0.086270,0.069878,-0.000935,-0.000765,0.000826,,,,,,,,
1697109673.640484,142177.000000,1697109673.634889,-0.001070,0.087521,0.071838,-0.000946,-0.000789,0.000846,,,,,,,,
1697109673.652239,142178.000000,1697109673.643598,-0.001520,0.088597,0.073681,-0.000956,-0.000811,0.000863,,,,,,,,
1697109673.660151,142179.000000,1697109673.652715,-0.001863,0.088201,0.074223,-0.000950,-0.000819,0.000865,,,,,,,,
1697109673.670686,142180.000000,1697109673.662880,-0.002091,0.086302,0.073482,-0.000930,-0.000814,0.000853,,,,,,,,
1697109673.680296,142181.000000,1697109673.672715,-0.002281,0.084061,0.072528,-0.000907,-0.000807,0.000839,,,,,,,,
1697109673.692186,142182.000000,1697109673.682729,-0.002533,0.081501,0.071150,-0.000881,-0.000797,0.000820,,,,,,,,
1697109673.700927,142183.000000,1697109673.692651,-0.002738,0.077991,0.068543,-0.000844,-0.000777,0.000788,,,,,,,,
1697109673.712335,142184.000000,1697109673.702686,-0.002835,0.074298,0.065341,-0.000804,-0.000753,0.000749,,,,,,,,
1697109673.722256,142185.000000,1697109673.713893,-0.003064,0.072139,0.063161,-0.000778,-0.000740,0.000722,,,,,,,,
1697109673.731726,142186.000000,1697109673.722746,-0.003492,0.071724,0.062321,-0.000771,-0.000741,0.000710,,,,,,,,
1697109673.742139,142187.000000,1697109673.732502,-0.003924,0.071928,0.061933,-0.000770,-0.000747,0.000704,,,,,,,,
1697109673.752482,142188.000000,1697109673.742747,-0.004366,0.072897,0.062259,-0.000777,-0.000757,0.000705,,,,,,,,
1697109673.762912,142189.000000,1697109673.753337,-0.005027,0.075436,0.063963,-0.000800,-0.000782,0.000721,,,,,,,,
1697109673.774481,142190.000000,1697109673.762610,-0.006064,0.079443,0.066786,-0.000837,-0.000822,0.000749,,,,,,,,
1697109673.784449,142191.000000,1697109673.772608,-0.007472,0.085400,0.071182,-0.000894,-0.000882,0.000793,,,,,,,,
1697109673.795426,142192.000000,1697109673.783600,-0.009047,0.092406,0.076385,-0.000960,-0.000950,0.000847,,,,,,,,
1697109673.803472,142193.000000,1697109673.793607,-0.010499,0.097815,0.080101,-0.001009,-0.001001,0.000886,,,,,,,,
1697109673.814392,142194.000000,1697109673.803208,-0.011587,0.100129,0.081253,-0.001026,-0.001022,0.000899,,,,,,,,
1697109673.828126,142195.000000,1697109673.812618,-0.012262,0.099056,0.079713,-0.001010,-0.001013,0.000882,,,,,,,,
1697109673.832899,142196.000000,1697109673.822646,-0.012753,0.095988,0.076651,-0.000974,-0.000985,0.000851,,,,,,,,
1697109673.840953,142197.000000,1697109673.832671,-0.013206,0.091613,0.072747,-0.000926,-0.000949,0.000812,,,,,,,,
1697109673.849205,142198.000000,1697109673.842601,-0.013412,0.085426,0.067587,-0.000862,-0.000897,0.000761,,,,,,,,
1697109673.865434,142199.000000,1697109673.857225,-0.013359,0.079134,0.062396,-0.000797,-0.000843,0.000710,,,,,,,,
1697109673.874478,142200.000000,1697109673.863135,-0.013317,0.074509,0.058528,-0.000748,-0.000802,0.000672,,,,,,,,
1697109673.890651,142201.000000,1697109673.872524,-0.013307,0.071066,0.055585,-0.000709,-0.000771,0.000645,,,,,,,,
1697109673.898960,142202.000000,1697109673.884997,-0.013350,0.068083,0.052916,-0.000674,-0.000743,0.000620,,,,,,,,
1697109673.909369,142203.000000,1697109673.892985,-0.013534,0.066118,0.050967,-0.000649,-0.000723,0.000602,,,,,,,,
1697109673.918546,142204.000000,1697109673.902637,-0.014010,0.066636,0.051005,-0.000647,-0.000728,0.000604,,,,,,,,
1697109673.932851,142205.000000,1697109673.913255,-0.014791,0.069792,0.053253,-0.000670,-0.000756,0.000629,,,,,,,,
1697109673.934926,142206.000000,1697109673.922591,-0.015547,0.073946,0.056412,-0.000704,-0.000792,0.000664,,,,,,,,
1697109673.938309,142207.000000,1697109673.932983,-0.016157,0.078249,0.059670,-0.000741,-0.000829,0.000701,,,,,,,,
1697109673.951542,142208.000000,1697109673.943472,-0.016599,0.082445,0.062722,-0.000779,-0.000865,0.000736,,,,,,,,
1697109673.961690,142209.000000,1697109673.952746,-0.016893,0.087100,0.066004,-0.000825,-0.000904,0.000772,,,,,,,,
1697109673.970194,142210.000000,1697109673.963242,-0.017257,0.094040,0.070910,-0.000894,-0.000964,0.000826,,,,,,,,
1697109673.981020,142211.000000,1697109673.972892,-0.017752,0.103153,0.077226,-0.000986,-0.001044,0.000895,,,,,,,,
1697109673.990426,142212.000000,1697109673.982981,-0.018329,0.112881,0.083734,-0.001087,-0.001128,0.000965,,,,,,,,
1697109674.003974,142213.000000,1697109673.992639,-0.018828,0.122608,0.090225,-0.001190,-0.001210,0.001031,,,,,,,,
1697109674.016301,142214.000000,1697109674.002755,-0.018872,0.131262,0.095990,-0.001285,-0.001279,0.001089,,,,,,,,
1697109674.028199,142215.000000,1697109674.012591,-0.018308,0.138476,0.100756,-0.001366,-0.001332,0.001134,,,,,,,,
1697109674.034529,142216.000000,1697109674.022768,-0.017309,0.145430,0.105703,-0.001445,-0.001380,0.001178,,,,,,,,
1697109674.044108,142217.000000,1697109674.032851,-0.015843,0.152075,0.110779,-0.001523,-0.001423,0.001219,,,,,,,,
1697109674.050326,142218.000000,1697109674.042582,-0.013787,0.158175,0.115484,-0.001594,-0.001458,0.001257,,,,,,,,
1697109674.065797,142219.000000,1697109674.052694,-0.011297,0.164808,0.120653,-0.001669,-0.001495,0.001299,,,,,,,,
1697109674.082143,142220.000000,1697109674.062619,-0.008667,0.172091,0.126544,-0.001752,-0.001537,0.001346,,,,,,,,
1697109674.089114,142222.000000,1697109674.082635,-0.003797,0.185692,0.138772,-0.001910,-0.001619,0.001448,,,,,,,,
1697109674.105634,142223.000000,1697109674.092499,-0.001729,0.189595,0.143206,-0.001958,-0.001643,0.001486,,,,,,,,
1697109674.113562,142224.000000,1697109674.103208,0.000182,0.189236,0.144262,-0.001962,-0.001636,0.001497,,,,,,,,
1697109674.128869,142225.000000,1697109674.112494,0.001590,0.183866,0.140877,-0.001916,-0.001594,0.001469,,,,,,,,
1697109674.138688,142226.000000,1697109674.122682,0.002166,0.173316,0.133038,-0.001818,-0.001519,0.001400,,,,,,,,
1697109674.149550,142227.000000,1697109674.134370,0.002095,0.158625,0.121858,-0.001675,-0.001414,0.001297,,,,,,,,
1697109674.158463,142228.000000,1697109674.142630,0.001679,0.141834,0.109034,-0.001509,-0.001291,0.001173,,,,,,,,
1697109674.167215,142229.000000,1697109674.153519,0.001130,0.125581,0.096868,-0.001346,-0.001170,0.001049,,,,,,,,
1697109674.178237,142230.000000,1697109674.164869,0.000470,0.111597,0.086569,-0.001206,-0.001064,0.000937,,,,,,,,
1697109674.186598,142231.000000,1697109674.172749,-0.000189,0.100629,0.078574,-0.001095,-0.000979,0.000846,,,,,,,,
1697109674.196443,142232.000000,1697109674.182981,-0.000676,0.093153,0.073440,-0.001020,-0.000921,0.000783,,,,,,,,
1697109674.208197,142233.000000,1697109674.192658,-0.001053,0.088197,0.070396,-0.000973,-0.000884,0.000740,,,,,,,,
1697109674.218774,142234.000000,1697109674.202632,-0.001411,0.083719,0.067615,-0.000930,-0.000850,0.000701,,,,,,,,
1697109674.224397,142235.000000,1697109674.212675,-0.001739,0.078109,0.063735,-0.000874,-0.000804,0.000655,,,,,,,,
1697109674.234368,142236.000000,1697109674.222738,-0.001998,0.070651,0.058138,-0.000796,-0.000738,0.000595,,,,,,,,
1697109674.244081,142237.000000,1697109674.233216,-0.002217,0.062931,0.052045,-0.000715,-0.000667,0.000532,,,,,,,,
1697109674.251802,142238.000000,1697109674.242743,-0.002527,0.057058,0.047330,-0.000652,-0.000613,0.000483,,,,,,,,
1697109674.266197,142239.000000,1697109674.252562,-0.002969,0.053183,0.044366,-0.000612,-0.000580,0.000449,,,,,,,,
1697109674.276997,142240.000000,1697109674.262706,-0.003480,0.050750,0.042736,-0.000588,-0.000563,0.000429,,,,,,,,
1697109674.290283,142241.000000,1697109674.272577,-0.004017,0.049091,0.041738,-0.000572,-0.000554,0.000416,,,,,,,,
1697109674.301277,142243.000000,1697109674.292702,-0.004988,0.045564,0.039298,-0.000538,-0.000533,0.000387,,,,,,,,
1697109674.313725,142244.000000,1697109674.302757,-0.005411,0.045147,0.039177,-0.000535,-0.000536,0.000383,,,,,,,,
1697109674.322235,142245.000000,1697109674.314821,-0.005965,0.047000,0.041136,-0.000558,-0.000563,0.000397,,,,,,,,
1697109674.332944,142246.000000,1697109674.322704,-0.006689,0.050091,0.044349,-0.000594,-0.000606,0.000422,,,,,,,,
1697109674.342289,142247.000000,1697109674.333218,-0.007398,0.052248,0.046812,-0.000617,-0.000639,0.000441,,,,,,,,
1697109674.350599,142248.000000,1697109674.342618,-0.007900,0.052810,0.047886,-0.000621,-0.000653,0.000448,,,,,,,,
1697109674.359825,142249.000000,1697109674.352757,-0.008188,0.052508,0.048146,-0.000615,-0.000657,0.000449,,,,,,,,
1697109674.371002,142250.000000,1697109674.362617,-0.008426,0.052131,0.048130,-0.000606,-0.000658,0.000447,,,,,,,,
1697109674.381331,142251.000000,1697109674.372603,-0.008682,0.051895,0.047978,-0.000598,-0.000659,0.000445,,,,,,,,
1697109674.392914,142252.000000,1697109674.382700,-0.008952,0.052081,0.048063,-0.000595,-0.000661,0.000447,,,,,,,,
1697109674.403950,142253.000000,1697109674.394141,-0.009294,0.053355,0.049174,-0.000605,-0.000675,0.000459,,,,,,,,
1697109674.420647,142254.000000,1697109674.402629,-0.009761,0.055798,0.051415,-0.000628,-0.000700,0.000481,,,,,,,,
1697109674.433481,142255.000000,1697109674.418509,-0.010369,0.058962,0.054269,-0.000661,-0.000733,0.000509,,,,,,,,
1697109674.439007,142257.000000,1697109674.432946,-0.010906,0.062240,0.057098,-0.000697,-0.000767,0.000541,,,,,,,,
1697109674.455990,142258.000000,1697109674.443327,-0.010701,0.062272,0.056875,-0.000698,-0.000767,0.000542,,,,,,,,
1697109674.467318,142259.000000,1697109674.453122,-0.010653,0.063327,0.057591,-0.000711,-0.000780,0.000551,,,,,,,,
1697109674.478288,142260.000000,1697109674.466268,-0.010743,0.065385,0.059432,-0.000735,-0.000805,0.000570,,,,,,,,
1697109674.492865,142261.000000,1697109674.474725,-0.010821,0.067948,0.061888,-0.000764,-0.000835,0.000592,,,,,,,,
1697109674.499654,142263.000000,1697109674.492585,-0.010966,0.076750,0.070407,-0.000865,-0.000932,0.000663,,,,,,,,
1697109674.512915,142264.000000,1697109674.502639,-0.010729,0.082337,0.075732,-0.000930,-0.000987,0.000707,,,,,,,,
1697109674.526093,142265.000000,1697109674.512967,-0.010089,0.087339,0.080136,-0.000989,-0.001031,0.000746,,,,,,,,
1697109674.538102,142266.000000,1697109674.522751,-0.008917,0.090722,0.082476,-0.001027,-0.001053,0.000771,,,,,,,,
1697109674.547988,142267.000000,1697109674.532854,-0.007309,0.091771,0.082151,-0.001038,-0.001046,0.000777,,,,,,,,
1697109674.557967,142268.000000,1697109674.542602,-0.005527,0.091562,0.080462,-0.001035,-0.001023,0.000774,,,,,,,,
1697109674.563064,142269.000000,1697109674.552866,-0.003670,0.091484,0.078884,-0.001033,-0.001002,0.000772,,,,,,,,
1697109674.573826,142270.000000,1697109674.562573,-0.001736,0.091746,0.077754,-0.001035,-0.000986,0.000774,,,,,,,,
1697109674.592194,142271.000000,1697109674.572650,0.000220,0.091901,0.076916,-0.001038,-0.000972,0.000777,,,,,,,,
1697109674.603031,142272.000000,1697109674.583099,0.002010,0.091311,0.075837,-0.001036,-0.000953,0.000777,,,,,,,,
1697109674.604795,142273.000000,1697109674.592730,0.003563,0.090578,0.074960,-0.001034,-0.000937,0.000776,,,,,,,,
1697109674.619979,142274.000000,1697109674.602589,0.004977,0.089798,0.074251,-0.001031,-0.000922,0.000776,,,,,,,,
1697109674.623977,142275.000000,1697109674.612728,0.006342,0.087910,0.072752,-0.001013,-0.000895,0.000767,,,,,,,,
1697109674.630657,142276.000000,1697109674.622865,0.007785,0.085409,0.071141,-0.000988,-0.000864,0.000753,,,,,,,,
1697109674.640290,142277.000000,1697109674.632648,0.009152,0.083287,0.070075,-0.000966,-0.000839,0.000740,,,,,,,,
1697109674.656756,142278.000000,1697109674.646449,0.010195,0.081785,0.069364,-0.000950,-0.000821,0.000732,,,,,,,,
1697109674.670096,142279.000000,1697109674.652599,0.010961,0.080687,0.068910,-0.000939,-0.000807,0.000727,,,,,,,,
1697109674.685106,142280.000000,1697109674.662740,0.011558,0.079516,0.068323,-0.000927,-0.000791,0.000719,,,,,,,,
1697109674.701044,142281.000000,1697109674.672576,0.012065,0.077851,0.067145,-0.000910,-0.000769,0.000704,,,,,,,,
1697109674.701813,142282.000000,1697109674.685073,0.012388,0.074944,0.064809,-0.000878,-0.000735,0.000681,,,,,,,,
1697109674.713637,142283.000000,1697109674.692758,0.012525,0.071502,0.061990,-0.000839,-0.000694,0.000653,,,,,,,,
1697109674.716969,142284.000000,1697109674.702662,0.012555,0.068244,0.059268,-0.000801,-0.000657,0.000625,,,,,,,,
1697109674.727026,142285.000000,1697109674.712712,0.012334,0.064250,0.055871,-0.000755,-0.000615,0.000592,,,,,,,,
1697109674.744424,142286.000000,1697109674.726584,0.012010,0.060576,0.052860,-0.000711,-0.000577,0.000561,,,,,,,,
1697109674.746179,142287.000000,1697109674.732687,0.011727,0.058655,0.051554,-0.000686,-0.000557,0.000543,,,,,,,,
1697109674.757502,142288.000000,1697109674.742648,0.011363,0.058101,0.051603,-0.000677,-0.000552,0.000536,,,,,,,,
1697109674.769249,142289.000000,1697109674.754713,0.010947,0.058385,0.052460,-0.000677,-0.000557,0.000535,,,,,,,,
1697109674.794651,142290.000000,1697109674.762976,0.010430,0.059426,0.053972,-0.000686,-0.000569,0.000541,,,,,,,,
1697109674.806208,142292.000000,1697109674.782737,0.008658,0.063124,0.057923,-0.000723,-0.000607,0.000557,,,,,,,,
1697109674.809483,142293.000000,1697109674.792665,0.007597,0.065688,0.060224,-0.000749,-0.000631,0.000568,,,,,,,,
1697109674.823949,142294.000000,1697109674.802863,0.006643,0.070438,0.064463,-0.000798,-0.000674,0.000597,,,,,,,,
1697109674.835305,142296.000000,1697109674.822827,0.004708,0.082460,0.074461,-0.000924,-0.000775,0.000669,,,,,,,,
1697109674.846145,142297.000000,1697109674.832735,0.003806,0.087393,0.078020,-0.000977,-0.000812,0.000696,,,,,,,,
1697109674.857370,142298.000000,1697109674.842586,0.003017,0.092118,0.080950,-0.001028,-0.000842,0.000718,,,,,,,,
1697109674.871874,142299.000000,1697109674.852577,0.002316,0.096204,0.082959,-0.001071,-0.000864,0.000734,,,,,,,,
1697109674.880227,142300.000000,1697109674.862713,0.001744,0.098747,0.083626,-0.001099,-0.000872,0.000741,,,,,,,,
1697109674.900924,142301.000000,1697109674.872607,0.001193,0.099935,0.083157,-0.001117,-0.000869,0.000740,,,,,,,,
1697109674.900965,142302.000000,1697109674.882633,0.000564,0.100446,0.082002,-0.001130,-0.000860,0.000737,,,,,,,,
1697109674.907059,142303.000000,1697109674.892582,-0.000058,0.101032,0.081092,-0.001148,-0.000852,0.000734,,,,,,,,
1697109674.923753,142304.000000,1697109674.902845,-0.000634,0.101690,0.080889,-0.001167,-0.000846,0.000736,,,,,,,,
1697109674.935928,142305.000000,1697109674.912580,-0.001104,0.101229,0.080506,-0.001172,-0.000834,0.000733,,,,,,,,
1697109674.943259,142306.000000,1697109674.922620,-0.001476,0.099054,0.079142,-0.001157,-0.000809,0.000720,,,,,,,,
1697109674.953344,142307.000000,1697109674.932667,-0.001767,0.095664,0.076974,-0.001126,-0.000777,0.000699,,,,,,,,
1697109674.966277,142308.000000,1697109674.942623,-0.001764,0.092090,0.074634,-0.001090,-0.000740,0.000680,,,,,,,,
1697109674.976160,142309.000000,1697109674.952718,-0.001349,0.089525,0.072980,-0.001064,-0.000708,0.000670,,,,,,,,
1697109674.985240,142310.000000,1697109674.962715,-0.000643,0.087576,0.071702,-0.001045,-0.000679,0.000663,,,,,,,,
1697109674.996141,142311.000000,1697109674.973723,0.000299,0.085061,0.069810,-0.001021,-0.000646,0.000650,,,,,,,,
1697109675.013967,142312.000000,1697109674.982532,0.001389,0.081441,0.066920,-0.000983,-0.000605,0.000628,,,,,,,,
1697109675.023281,142313.000000,1697109674.992661,0.002321,0.075378,0.061915,-0.000916,-0.000550,0.000588,,,,,,,,
